DateTime,SpeedChanged_speedX,SpeedChanged_speedY,SpeedChanged_speedZ,AltitudeChanged_altitude,AttitudeChanged_roll,AttitudeChanged_pitch,AttitudeChanged_yaw,GpsLocationChanged_latitude,GpsLocationChanged_longitude,GpsLocationChanged_altitude,GpsLocationChanged_latitude_accuracy,GpsLocationChanged_longitude_accuracy,GpsLocationChanged_altitude_accuracy,HomeChanged_latitude,HomeChanged_longitude,HomeChanged_altitude,moveByEnd_dX,moveByEnd_dY,moveByEnd_dZ,moveByEnd_dPsi,WifiSignalChanged_rssi,BatteryStateChanged_percent,FlyingStateChanged_state_unknown,FlyingStateChanged_state_landed,FlyingStateChanged_state_takingoff,FlyingStateChanged_state_hovering,FlyingStateChanged_state_flying,FlyingStateChanged_state_landing,FlyingStateChanged_state_emergency,FlyingStateChanged_state_usertakeoff,FlyingStateChanged_state_motor_ramping,FlyingStateChanged_state_motor_emergency_landing,HomeTypeAvailabilityChanged_type_UNKNOWN,HomeTypeAvailabilityChanged_type_TAKEOFF,HomeTypeAvailabilityChanged_type_PILOT,HomeTypeAvailabilityChanged_type_FIRST_FIX,HomeTypeAvailabilityChanged_type_FOLLOWEE,is_target
2024-08-27 19:49:44.889401913,0.0,0.0,0.0,0.0,0.0011175292311236262,-0.0038190078921616077,-0.3194766044616699,-22.004840333333597,-47.932644499999526,858.2999877929688,0,0,0,0.0,0.0,0.0,0.0,0.0,0.0,0.0,-41,81,1,0,0,0,0,0,0,0,0,0,1,0,0,0,0,0
2024-08-27 19:49:44.992233753,0.0,0.0,0.0,0.0,0.0011175292311236262,-0.0038190078921616077,-0.3194766044616699,-22.004840333333597,-47.932644499999526,858.2999877929688,0,0,0,0.0,0.0,0.0,0.0,0.0,0.0,0.0,-41,81,1,0,0,0,0,0,0,0,0,0,1,0,0,0,0,0
2024-08-27 19:49:45.151545763,0.0,0.0,0.0,0.0,0.0013140060473233461,-0.003846670500934124,-0.31958162784576416,-22.004840333333597,-47.932644499999526,858.2999877929688,0,0,0,0.0,0.0,0.0,0.0,0.0,0.0,0.0,-41,81,1,0,0,0,0,0,0,0,0,0,1,0,0,0,0,0
2024-08-27 19:49:45.261006116,0.0,0.0,0.0,0.0,0.0013250102056190372,-0.003894232679158449,-0.31964752078056335,-22.00484000000106,-47.93264483333293,858.2999877929688,0,0,0,0.0,0.0,0.0,0.0,0.0,0.0,0.0,-41,81,1,0,0,0,0,0,0,0,0,0,1,0,0,0,0,0
2024-08-27 19:49:45.365369081,0.0,0.0,0.0,0.0,0.0013250102056190372,-0.003894232679158449,-0.31964752078056335,-22.00484000000106,-47.93264483333293,858.2999877929688,0,0,0,0.0,0.0,0.0,0.0,0.0,0.0,0.0,-41,81,1,0,0,0,0,0,0,0,0,0,1,0,0,0,0,0
2024-08-27 19:49:45.467684746,0.0,0.0,0.0,0.0,0.0012544887140393257,-0.0038120534736663103,-0.3197098970413208,-22.00484000000106,-47.93264483333293,858.2999877929688,0,0,0,0.0,0.0,0.0,0.0,0.0,0.0,0.0,-41,81,1,0,0,0,0,0,0,0,0,0,1,0,0,0,0,0
2024-08-27 19:49:45.584707022,0.0,0.0,0.0,0.0,0.0012544887140393257,-0.0038120534736663103,-0.3197098970413208,-22.00484000000106,-47.93264483333293,858.2999877929688,0,0,0,0.0,0.0,0.0,0.0,0.0,0.0,0.0,-41,81,1,0,0,0,0,0,0,0,0,0,1,0,0,0,0,0
2024-08-27 19:49:45.731214046,0.0,0.0,0.0,0.0,0.001351440791040659,-0.003862390760332346,-0.31980690360069275,-22.00484000000106,-47.93264483333293,858.2999877929688,0,0,0,0.0,0.0,0.0,0.0,0.0,0.0,0.0,-41,81,1,0,0,0,0,0,0,0,0,0,1,0,0,0,0,0
2024-08-27 19:49:45.845599651,0.0,0.0,0.0,0.0,0.001351440791040659,-0.003862390760332346,-0.31980690360069275,-22.004839833334337,-47.93264516666633,858.4000244140625,0,0,0,0.0,0.0,0.0,0.0,0.0,0.0,0.0,-41,81,1,0,0,0,0,0,0,0,0,0,1,0,0,0,0,0
2024-08-27 19:49:45.969120502,0.0,0.0,0.0,0.0,0.0015235519967973232,-0.003552702721208334,-0.3199128806591034,-22.004839833334337,-47.93264516666633,858.4000244140625,0,0,0,0.0,0.0,0.0,0.0,0.0,0.0,0.0,-41,81,1,0,0,0,0,0,0,0,0,0,1,0,0,0,0,0
2024-08-27 19:49:46.070250511,0.0,0.0,0.0,0.0,0.0014380901120603085,-0.0035168142057955265,-0.3199702799320221,-22.004839833334337,-47.93264516666633,858.4000244140625,0,0,0,0.0,0.0,0.0,0.0,0.0,0.0,0.0,-41,81,1,0,0,0,0,0,0,0,0,0,1,0,0,0,0,0
2024-08-27 19:49:46.170608759,0.0,0.0,0.0,0.0,0.0014380901120603085,-0.0035168142057955265,-0.3199702799320221,-22.00483950000089,-47.93264516666633,858.4000244140625,0,0,0,0.0,0.0,0.0,0.0,0.0,0.0,0.0,-41,81,1,0,0,0,0,0,0,0,0,0,1,0,0,0,0,0
2024-08-27 19:49:46.294194698,0.0,0.0,0.0,0.0,0.0013504325179383159,-0.003492054995149374,-0.3200032711029053,-22.00483950000089,-47.93264516666633,858.4000244140625,0,0,0,0.0,0.0,0.0,0.0,0.0,0.0,0.0,-41,81,1,0,0,0,0,0,0,0,0,0,1,0,0,0,0,0
2024-08-27 19:49:46.400462866,0.0,0.0,0.0,0.0,0.0013504325179383159,-0.003492054995149374,-0.3200032711029053,-22.00483950000089,-47.93264516666633,858.4000244140625,0,0,0,0.0,0.0,0.0,0.0,0.0,0.0,0.0,-41,81,1,0,0,0,0,0,0,0,0,0,1,0,0,0,0,0
2024-08-27 19:49:46.574509382,0.0,0.0,0.0,0.0,0.0011352392612025142,-0.003691676538437605,-0.3201121687889099,-22.00483950000089,-47.93264516666633,858.4000244140625,0,0,0,0.0,0.0,0.0,0.0,0.0,0.0,0.0,-41,81,1,0,0,0,0,0,0,0,0,0,1,0,0,0,0,0
2024-08-27 19:49:46.679802418,0.0,0.0,0.0,0.0,0.0013152125757187605,-0.003657931461930275,-0.3202068507671356,-22.00483950000089,-47.93264516666633,858.4000244140625,0,0,0,0.0,0.0,0.0,0.0,0.0,0.0,0.0,-41,81,1,0,0,0,0,0,0,0,0,0,1,0,0,0,0,0
2024-08-27 19:49:46.787092209,0.0,0.0,0.0,0.0,0.0013152125757187605,-0.003657931461930275,-0.3202068507671356,-22.00483950000089,-47.93264516666633,858.2999877929688,0,0,0,0.0,0.0,0.0,0.0,0.0,0.0,0.0,-41,81,1,0,0,0,0,0,0,0,0,0,1,0,0,0,0,0
2024-08-27 19:49:46.909551144,0.0,0.0,0.0,0.0,0.001521418453194201,-0.0036334542091935873,-0.32030004262924194,-22.00483950000089,-47.93264516666633,858.2999877929688,0,0,0,0.0,0.0,0.0,0.0,0.0,0.0,0.0,-41,81,1,0,0,0,0,0,0,0,0,0,1,0,0,0,0,0
2024-08-27 19:49:47.054650307,0.0,0.0,0.0,0.0,0.0014129946939647198,-0.0035404618829488754,-0.32036739587783813,-22.00483950000089,-47.93264516666633,858.2999877929688,0,0,0,0.0,0.0,0.0,0.0,0.0,0.0,0.0,-41,81,1,0,0,0,0,0,0,0,0,0,1,0,0,0,0,0
2024-08-27 19:49:47.187477827,0.0,0.0,0.0,0.0,0.0014129946939647198,-0.0035404618829488754,-0.32036739587783813,-22.004839333335077,-47.93264516666633,858.2999877929688,0,0,0,0.0,0.0,0.0,0.0,0.0,0.0,0.0,-41,81,1,0,0,0,0,0,0,0,0,0,1,0,0,0,0,0
2024-08-27 19:49:47.306351900,0.0,0.0,0.0,0.0,0.0014107227325439453,-0.003827097127214074,-0.320409893989563,-22.004839333335077,-47.93264516666633,858.2999877929688,0,0,0,0.0,0.0,0.0,0.0,0.0,0.0,0.0,-42,81,1,0,0,0,0,0,0,0,0,0,1,0,0,0,0,0
2024-08-27 19:49:47.407696724,0.0,0.0,0.0,0.0,0.0014107227325439453,-0.003827097127214074,-0.320409893989563,-22.004839333335077,-47.93264516666633,858.2999877929688,0,0,0,0.0,0.0,0.0,0.0,0.0,0.0,0.0,-42,81,1,0,0,0,0,0,0,0,0,0,1,0,0,0,0,0
2024-08-27 19:49:47.508145093,0.0,0.0,0.0,0.0,0.0012212765868753195,-0.0038288196083158255,-0.3205062747001648,-22.004839333335077,-47.93264516666633,858.2999877929688,0,0,0,0.0,0.0,0.0,0.0,0.0,0.0,0.0,-42,81,1,0,0,0,0,0,0,0,0,0,1,0,0,0,0,0
2024-08-27 19:49:47.608743429,0.0,0.0,0.0,0.0,0.0012212765868753195,-0.0038288196083158255,-0.3205062747001648,-22.004839333335077,-47.93264516666633,858.2999877929688,0,0,0,0.0,0.0,0.0,0.0,0.0,0.0,0.0,-42,81,1,0,0,0,0,0,0,0,0,0,1,0,0,0,0,0
2024-08-27 19:49:47.709456921,0.0,0.0,0.0,0.0,0.0011349993292242289,-0.003624582663178444,-0.32059016823768616,-22.004839333335077,-47.93264516666633,858.2999877929688,0,0,0,0.0,0.0,0.0,0.0,0.0,0.0,0.0,-42,81,1,0,0,0,0,0,0,0,0,0,1,0,0,0,0,0
2024-08-27 19:49:47.810652018,0.0,0.0,0.0,0.0,0.0011349993292242289,-0.003624582663178444,-0.32059016823768616,-22.004839166668354,-47.93264499999992,858.2999877929688,0,0,0,0.0,0.0,0.0,0.0,0.0,0.0,0.0,-42,81,1,0,0,0,0,0,0,0,0,0,1,0,0,0,0,0
2024-08-27 19:49:47.911794186,0.0,0.0,0.0,0.0,0.0011300139594823122,-0.003784391563385725,-0.32061323523521423,-22.004839166668354,-47.93264499999992,858.2999877929688,0,0,0,0.0,0.0,0.0,0.0,0.0,0.0,0.0,-42,81,1,0,0,0,0,0,0,0,0,0,1,0,0,0,0,0
2024-08-27 19:49:48.012005091,0.0,0.0,0.0,0.0,0.0010483285877853632,-0.003889144631102681,-0.32081758975982666,-22.004839166668354,-47.93264499999992,858.2999877929688,0,0,0,0.0,0.0,0.0,0.0,0.0,0.0,0.0,-42,81,1,0,0,0,0,0,0,0,0,0,1,0,0,0,0,0
2024-08-27 19:49:48.112499237,0.0,0.0,0.0,0.0,0.0010483285877853632,-0.003889144631102681,-0.32081758975982666,-22.004839166668354,-47.93264499999992,858.2999877929688,0,0,0,0.0,0.0,0.0,0.0,0.0,0.0,0.0,-42,81,1,0,0,0,0,0,0,0,0,0,1,0,0,0,0,0
2024-08-27 19:49:48.212778568,0.0,0.0,0.0,0.0,0.0010483285877853632,-0.003889144631102681,-0.32081758975982666,-22.00483900000072,-47.93264499999992,858.2999877929688,0,0,0,0.0,0.0,0.0,0.0,0.0,0.0,0.0,-42,81,1,0,0,0,0,0,0,0,0,0,1,0,0,0,0,0
2024-08-27 19:49:48.313006163,0.0,0.0,0.0,0.0,0.0011431924067437649,-0.003964965231716633,-0.32091307640075684,-22.00483900000072,-47.93264499999992,858.2999877929688,0,0,0,0.0,0.0,0.0,0.0,0.0,0.0,0.0,-42,81,1,0,0,0,0,0,0,0,0,0,1,0,0,0,0,0
2024-08-27 19:49:48.413876772,0.0,0.0,0.0,0.0,0.0012070355005562305,-0.003912894520908594,-0.32091960310935974,-22.00483900000072,-47.93264499999992,858.2999877929688,0,0,0,0.0,0.0,0.0,0.0,0.0,0.0,0.0,-42,81,1,0,0,0,0,0,0,0,0,0,1,0,0,0,0,0
2024-08-27 19:49:48.519047499,0.0,0.0,0.0,0.0,0.0012070355005562305,-0.003912894520908594,-0.32091960310935974,-22.00483900000072,-47.93264499999992,858.2999877929688,0,0,0,0.0,0.0,0.0,0.0,0.0,0.0,0.0,-42,81,1,0,0,0,0,0,0,0,0,0,1,0,0,0,0,0
2024-08-27 19:49:48.619973898,0.0,0.0,0.0,0.0,0.0012043957831338048,-0.003963846247643232,-0.320893257856369,-22.00483900000072,-47.93264499999992,858.2999877929688,0,0,0,0.0,0.0,0.0,0.0,0.0,0.0,0.0,-42,81,1,0,0,0,0,0,0,0,0,0,1,0,0,0,0,0
2024-08-27 19:49:48.720962048,0.0,0.0,0.0,0.0,0.0012043957831338048,-0.003963846247643232,-0.320893257856369,-22.00483900000072,-47.93264499999992,858.2999877929688,0,0,0,0.0,0.0,0.0,0.0,0.0,0.0,0.0,-42,81,1,0,0,0,0,0,0,0,0,0,1,0,0,0,0,0
2024-08-27 19:49:48.821798325,0.0,0.0,0.0,0.0,0.0012043957831338048,-0.003963846247643232,-0.320893257856369,-22.004838833334,-47.93264499999992,858.2999877929688,0,0,0,0.0,0.0,0.0,0.0,0.0,0.0,0.0,-42,81,1,0,0,0,0,0,0,0,0,0,1,0,0,0,0,0
2024-08-27 19:49:48.931148767,0.0,0.0,0.0,0.0,0.001265924540348351,-0.00382451293990016,-0.32094860076904297,-22.004838833334,-47.93264499999992,858.2999877929688,0,0,0,0.0,0.0,0.0,0.0,0.0,0.0,0.0,-42,81,1,0,0,0,0,0,0,0,0,0,1,0,0,0,0,0
2024-08-27 19:49:49.033277750,0.0,0.0,0.0,0.0,0.0012603049399331212,-0.00391999538987875,-0.32111242413520813,-22.004838833334,-47.93264499999992,858.2999877929688,0,0,0,0.0,0.0,0.0,0.0,0.0,0.0,0.0,-42,81,1,0,0,0,0,0,0,0,0,0,1,0,0,0,0,0
2024-08-27 19:49:49.138881445,0.0,0.0,0.0,0.0,0.0012603049399331212,-0.00391999538987875,-0.32111242413520813,-22.004838833334,-47.93264499999992,858.2999877929688,0,0,0,0.0,0.0,0.0,0.0,0.0,0.0,0.0,-42,81,1,0,0,0,0,0,0,0,0,0,1,0,0,0,0,0
2024-08-27 19:49:49.240077972,0.0,0.0,0.0,0.0,0.0012554664863273501,-0.0038586375303566456,-0.3209810256958008,-22.004838500001462,-47.93264499999992,858.2999877929688,0,0,0,0.0,0.0,0.0,0.0,0.0,0.0,0.0,-42,81,1,0,0,0,0,0,0,0,0,0,1,0,0,0,0,0
2024-08-27 19:49:49.340814829,0.0,0.0,0.0,0.0,0.0012554664863273501,-0.0038586375303566456,-0.3209810256958008,-22.004838500001462,-47.93264499999992,858.2999877929688,0,0,0,0.0,0.0,0.0,0.0,0.0,0.0,0.0,-42,81,1,0,0,0,0,0,0,0,0,0,1,0,0,0,0,0
2024-08-27 19:49:49.441758633,0.0,0.0,0.0,0.0,0.0010488597908988595,-0.003668011398985982,-0.3210635185241699,-22.004838500001462,-47.93264499999992,858.2999877929688,0,0,0,0.0,0.0,0.0,0.0,0.0,0.0,0.0,-42,81,1,0,0,0,0,0,0,0,0,0,1,0,0,0,0,0
2024-08-27 19:49:49.546417713,0.0,0.0,0.0,0.0,0.0010488597908988595,-0.003668011398985982,-0.3210635185241699,-22.004838500001462,-47.93264499999992,858.2999877929688,0,0,0,0.0,0.0,0.0,0.0,0.0,0.0,0.0,-42,81,1,0,0,0,0,0,0,0,0,0,1,0,0,0,0,0
2024-08-27 19:49:49.647772789,0.0,0.0,0.0,0.0,0.0010910246055573225,-0.0038164048455655575,-0.32109567523002625,-22.004838500001462,-47.93264499999992,858.2999877929688,0,0,0,0.0,0.0,0.0,0.0,0.0,0.0,0.0,-42,81,1,0,0,0,0,0,0,0,0,0,1,0,0,0,0,0
2024-08-27 19:49:49.754236460,0.0,0.0,0.0,0.0,0.0010910246055573225,-0.0038164048455655575,-0.32109567523002625,-22.004838500001462,-47.93264499999992,858.2999877929688,0,0,0,0.0,0.0,0.0,0.0,0.0,0.0,0.0,-42,81,1,0,0,0,0,0,0,0,0,0,1,0,0,0,0,0
2024-08-27 19:49:49.856253624,0.0,0.0,0.0,0.0,0.0010910246055573225,-0.0038164048455655575,-0.32109567523002625,-22.004838166668016,-47.93264516666633,858.2000122070312,0,0,0,0.0,0.0,0.0,0.0,0.0,0.0,0.0,-42,81,1,0,0,0,0,0,0,0,0,0,1,0,0,0,0,0
2024-08-27 19:49:49.959180832,0.0,0.0,0.0,0.0,0.0008558306144550443,-0.003977482207119465,-0.3211402893066406,-22.004838166668016,-47.93264516666633,858.2000122070312,0,0,0,0.0,0.0,0.0,0.0,0.0,0.0,0.0,-42,81,1,0,0,0,0,0,0,0,0,0,1,0,0,0,0,0
2024-08-27 19:49:50.059504747,0.0,0.0,0.0,0.0,0.0010410071117803454,-0.004006245173513889,-0.32112807035446167,-22.004838166668016,-47.93264516666633,858.2000122070312,0,0,0,0.0,0.0,0.0,0.0,0.0,0.0,0.0,-42,81,1,0,0,0,0,0,0,0,0,0,1,0,0,0,0,0
2024-08-27 19:49:50.160195827,0.0,0.0,0.0,0.0,0.0010410071117803454,-0.004006245173513889,-0.32112807035446167,-22.004838166668016,-47.93264516666633,858.2000122070312,0,0,0,0.0,0.0,0.0,0.0,0.0,0.0,0.0,-42,81,1,0,0,0,0,0,0,0,0,0,1,0,0,0,0,0
2024-08-27 19:49:50.260530710,0.0,0.0,0.0,0.0,0.0010057230247184634,-0.004063465632498264,-0.3211005926132202,-22.004838000000383,-47.93264516666633,858.2000122070312,0,0,0,0.0,0.0,0.0,0.0,0.0,0.0,0.0,-42,81,1,0,0,0,0,0,0,0,0,0,1,0,0,0,0,0
2024-08-27 19:49:50.361713648,0.0,0.0,0.0,0.0,0.0010057230247184634,-0.004063465632498264,-0.3211005926132202,-22.004838000000383,-47.93264516666633,858.2000122070312,0,0,0,0.0,0.0,0.0,0.0,0.0,0.0,0.0,-42,81,1,0,0,0,0,0,0,0,0,0,1,0,0,0,0,0
2024-08-27 19:49:50.463865042,0.0,0.0,0.0,0.0,0.0009203552035614848,-0.0037340582348406315,-0.32114049792289734,-22.004838000000383,-47.93264516666633,858.2000122070312,0,0,0,0.0,0.0,0.0,0.0,0.0,0.0,0.0,-42,81,1,0,0,0,0,0,0,0,0,0,1,0,0,0,0,0
2024-08-27 19:49:50.567102432,0.0,0.0,0.0,0.0,0.0009203552035614848,-0.0037340582348406315,-0.32114049792289734,-22.004838000000383,-47.93264516666633,858.2000122070312,0,0,0,0.0,0.0,0.0,0.0,0.0,0.0,0.0,-41,81,1,0,0,0,0,0,0,0,0,0,1,0,0,0,0,0
2024-08-27 19:49:50.669380188,0.0,0.0,0.0,0.0,0.0010487628169357777,-0.0035533157642930746,-0.3211379051208496,-22.004838000000383,-47.93264516666633,858.2000122070312,0,0,0,0.0,0.0,0.0,0.0,0.0,0.0,0.0,-41,81,1,0,0,0,0,0,0,0,0,0,1,0,0,0,0,0
2024-08-27 19:49:50.769639969,0.0,0.0,0.0,0.0,0.0010487628169357777,-0.0035533157642930746,-0.3211379051208496,-22.004838000000383,-47.93264516666633,858.2000122070312,0,0,0,0.0,0.0,0.0,0.0,0.0,0.0,0.0,-41,81,1,0,0,0,0,0,0,0,0,0,1,0,0,0,0,0
2024-08-27 19:49:50.870035887,0.0,0.0,0.0,0.0,0.0010487628169357777,-0.0035533157642930746,-0.3211379051208496,-22.004837666668756,-47.932645333333326,858.2000122070312,0,0,0,0.0,0.0,0.0,0.0,0.0,0.0,0.0,-41,81,1,0,0,0,0,0,0,0,0,0,1,0,0,0,0,0
2024-08-27 19:49:50.971575499,0.0,0.0,0.0,0.0,0.0009961520554497838,-0.0036833160556852818,-0.32104945182800293,-22.004837666668756,-47.932645333333326,858.2000122070312,0,0,0,0.0,0.0,0.0,0.0,0.0,0.0,0.0,-41,81,1,0,0,0,0,0,0,0,0,0,1,0,0,0,0,0
2024-08-27 19:49:51.077375650,0.0,0.0,0.0,0.0,0.0009657613700255752,-0.003496332559734583,-0.3209054172039032,-22.004837666668756,-47.932645333333326,858.2000122070312,0,0,0,0.0,0.0,0.0,0.0,0.0,0.0,0.0,-41,81,1,0,0,0,0,0,0,0,0,0,1,0,0,0,0,0
2024-08-27 19:49:51.179404020,0.0,0.0,0.0,0.0,0.0009657613700255752,-0.003496332559734583,-0.3209054172039032,-22.004837666668756,-47.932645333333326,858.2000122070312,0,0,0,0.0,0.0,0.0,0.0,0.0,0.0,0.0,-41,81,1,0,0,0,0,0,0,0,0,0,1,0,0,0,0,0
2024-08-27 19:49:51.280743122,0.0,0.0,0.0,0.0,0.0008292580023407936,-0.003530944464728236,-0.32111677527427673,-22.004837500000214,-47.932645333333326,858.2000122070312,0,0,0,0.0,0.0,0.0,0.0,0.0,0.0,0.0,-41,81,1,0,0,0,0,0,0,0,0,0,1,0,0,0,0,0
2024-08-27 19:49:51.381718159,0.0,0.0,0.0,0.0,0.0008292580023407936,-0.003530944464728236,-0.32111677527427673,-22.004837500000214,-47.932645333333326,858.2000122070312,0,0,0,0.0,0.0,0.0,0.0,0.0,0.0,0.0,-41,81,1,0,0,0,0,0,0,0,0,0,1,0,0,0,0,0
2024-08-27 19:49:51.482556581,0.0,0.0,0.0,0.0,0.0009708339930512011,-0.003356938250362873,-0.32118386030197144,-22.004837500000214,-47.932645333333326,858.2000122070312,0,0,0,0.0,0.0,0.0,0.0,0.0,0.0,0.0,-41,81,1,0,0,0,0,0,0,0,0,0,1,0,0,0,0,0
2024-08-27 19:49:51.588289499,0.0,0.0,0.0,0.0,0.0009708339930512011,-0.003356938250362873,-0.32118386030197144,-22.004837500000214,-47.932645333333326,858.2000122070312,0,0,0,0.0,0.0,0.0,0.0,0.0,0.0,0.0,-41,81,1,0,0,0,0,0,0,0,0,0,1,0,0,0,0,0
2024-08-27 19:49:51.692554235,0.0,0.0,0.0,0.0,0.0007304759346880019,-0.0033877629321068525,-0.3212696313858032,-22.004837500000214,-47.932645333333326,858.2000122070312,0,0,0,0.0,0.0,0.0,0.0,0.0,0.0,0.0,-41,81,1,0,0,0,0,0,0,0,0,0,1,0,0,0,0,0
2024-08-27 19:49:51.795547485,0.0,0.0,0.0,0.0,0.0007304759346880019,-0.0033877629321068525,-0.3212696313858032,-22.004837166666768,-47.932645333333326,858.2000122070312,0,0,0,0.0,0.0,0.0,0.0,0.0,0.0,0.0,-41,81,1,0,0,0,0,0,0,0,0,0,1,0,0,0,0,0
2024-08-27 19:49:51.897374392,0.0,0.0,0.0,0.0,0.0009575238800607622,-0.0033228362444788218,-0.3213309943675995,-22.004837166666768,-47.932645333333326,858.2000122070312,0,0,0,0.0,0.0,0.0,0.0,0.0,0.0,0.0,-41,81,1,0,0,0,0,0,0,0,0,0,1,0,0,0,0,0
2024-08-27 19:49:51.997867584,0.0,0.0,0.0,0.0,0.0009575238800607622,-0.0033228362444788218,-0.3213309943675995,-22.004837166666768,-47.932645333333326,858.2000122070312,0,0,0,0.0,0.0,0.0,0.0,0.0,0.0,0.0,-41,81,1,0,0,0,0,0,0,0,0,0,1,0,0,0,0,0
2024-08-27 19:49:52.098826170,0.0,0.0,0.0,0.0,0.001161383232101798,-0.0032232580706477165,-0.32144850492477417,-22.004837166666768,-47.932645333333326,858.2000122070312,0,0,0,0.0,0.0,0.0,0.0,0.0,0.0,0.0,-41,81,1,0,0,0,0,0,0,0,0,0,1,0,0,0,0,0
2024-08-27 19:49:52.199710608,0.0,0.0,0.0,0.0,0.001161383232101798,-0.0032232580706477165,-0.32144850492477417,-22.004837000001864,-47.932645333333326,858.2000122070312,0,0,0,0.0,0.0,0.0,0.0,0.0,0.0,0.0,-41,81,0,0,0,0,0,0,0,0,1,0,1,0,0,0,0,0
2024-08-27 19:49:52.300240993,0.0,0.0,0.0,0.0,0.001347663695923984,-0.0032626385800540447,-0.32201528549194336,-22.004837000001864,-47.932645333333326,858.2000122070312,0,0,0,0.0,0.0,0.0,0.0,0.0,0.0,0.0,-41,81,0,0,0,0,0,0,0,0,1,0,1,0,0,0,0,0
2024-08-27 19:49:52.400686026,0.0,0.0,0.0,0.0,0.001347663695923984,-0.0032626385800540447,-0.32201528549194336,-22.004837000001864,-47.932645333333326,858.2000122070312,0,0,0,0.0,0.0,0.0,0.0,0.0,0.0,0.0,-41,81,0,0,0,0,0,0,0,0,1,0,1,0,0,0,0,0
2024-08-27 19:49:52.506831169,0.0,0.0,0.0,0.0,0.002133810194209218,-0.003206968307495117,-0.318832129240036,-22.004837000001864,-47.932645333333326,858.2000122070312,0,0,0,0.0,0.0,0.0,0.0,0.0,0.0,0.0,-41,81,0,0,0,0,0,0,0,0,1,0,1,0,0,0,0,0
2024-08-27 19:49:52.607554913,0.0,0.0,0.0,0.0,0.002133810194209218,-0.003206968307495117,-0.318832129240036,-22.004837000001864,-47.932645333333326,858.2000122070312,0,0,0,0.0,0.0,0.0,0.0,0.0,0.0,0.0,-42,81,0,0,0,0,0,0,0,0,1,0,1,0,0,0,0,0
2024-08-27 19:49:52.711336374,0.0,0.0,0.0,0.0,0.0008084081346169114,-0.003210449358448386,-0.32385051250457764,-22.004837000001864,-47.932645333333326,858.2000122070312,0,0,0,0.0,0.0,0.0,0.0,0.0,0.0,0.0,-42,81,0,0,0,0,0,0,0,0,1,0,1,0,0,0,0,0
2024-08-27 19:49:52.812025547,0.0,0.0,0.0,0.0,0.0008084081346169114,-0.003210449358448386,-0.32385051250457764,-22.004836666668417,-47.932645333333326,858.2000122070312,0,0,0,0.0,0.0,0.0,0.0,0.0,0.0,0.0,-42,81,0,0,0,0,0,0,0,0,1,0,1,0,0,0,0,0
2024-08-27 19:49:52.914474487,0.0,0.0,0.0,0.0,0.0014836940681561828,-0.002745930338278413,-0.32225775718688965,-22.004836666668417,-47.932645333333326,858.2000122070312,0,0,0,0.0,0.0,0.0,0.0,0.0,0.0,0.0,-42,81,0,0,0,0,0,0,0,0,1,0,1,0,0,0,0,0
2024-08-27 19:49:53.015772581,0.0,0.0,0.0,0.0,0.0014836940681561828,-0.002745930338278413,-0.32225775718688965,-22.004836666668417,-47.932645333333326,858.2000122070312,0,0,0,0.0,0.0,0.0,0.0,0.0,0.0,0.0,-42,81,0,0,0,0,0,0,0,0,1,0,1,0,0,0,0,0
2024-08-27 19:49:53.117245674,0.0,0.0,0.0,0.0,0.0018166395602747798,-0.0029544439166784286,-0.32188671827316284,-22.004836666668417,-47.932645333333326,858.2000122070312,0,0,0,0.0,0.0,0.0,0.0,0.0,0.0,0.0,-42,81,0,0,0,0,0,0,0,0,1,0,1,0,0,0,0,0
2024-08-27 19:49:53.218140841,0.0,0.0,0.0,0.0,0.0018166395602747798,-0.0029544439166784286,-0.32188671827316284,-22.004836499999875,-47.932645333333326,858.2000122070312,0,0,0,0.0,0.0,0.0,0.0,0.0,0.0,0.0,-42,81,0,0,0,0,0,0,0,0,1,0,1,0,0,0,0,0
2024-08-27 19:49:53.318415642,0.0,0.0,0.0,0.0,0.0015221880748867989,-0.0034904037602245808,-0.3233482241630554,-22.004836499999875,-47.932645333333326,858.2000122070312,0,0,0,0.0,0.0,0.0,0.0,0.0,0.0,0.0,-42,81,0,0,0,0,0,0,0,0,1,0,1,0,0,0,0,0
2024-08-27 19:49:53.418836117,0.0,0.0,0.0,0.0,0.0015221880748867989,-0.0034904037602245808,-0.3233482241630554,-22.004836499999875,-47.932645333333326,858.2000122070312,0,0,0,0.0,0.0,0.0,0.0,0.0,0.0,0.0,-42,81,0,0,0,0,0,0,0,0,1,0,1,0,0,0,0,0
2024-08-27 19:49:53.519143105,0.0,0.0,0.0,0.0,0.0023588587064296007,-0.0032344672363251448,-0.3224877417087555,-22.004836499999875,-47.932645333333326,858.2000122070312,0,0,0,0.0,0.0,0.0,0.0,0.0,0.0,0.0,-42,80,0,0,0,0,0,0,0,0,1,0,1,0,0,0,0,0
2024-08-27 19:49:53.620949507,0.06814649701118469,0.008316779509186745,-0.18028445541858673,0.0,0.0023588587064296007,-0.0032344672363251448,-0.3224877417087555,-22.004836499999875,-47.932645333333326,858.2000122070312,0,0,0,0.0,0.0,0.0,0.0,0.0,0.0,0.0,-42,80,0,0,1,0,0,0,0,0,0,0,1,0,0,0,0,0
2024-08-27 19:49:53.726672173,0.06814649701118469,0.008316779509186745,-0.18028445541858673,0.010655480436980724,0.012773251160979271,0.005076861474663019,-0.3134262263774872,-22.004836499999875,-47.932645333333326,858.2000122070312,0,0,0,0.0,0.0,0.0,0.0,0.0,0.0,0.0,-41,80,0,0,1,0,0,0,0,0,0,0,1,0,0,0,0,0
2024-08-27 19:49:53.827475786,0.06814649701118469,0.008316779509186745,-0.18028445541858673,0.010655480436980724,0.012773251160979271,0.005076861474663019,-0.3134262263774872,-22.004836000001525,-47.932645499999744,858.2000122070312,0,0,0,0.0,0.0,0.0,0.0,0.0,0.0,0.0,-41,80,0,0,1,0,0,0,0,0,0,0,1,0,0,0,0,0
2024-08-27 19:49:53.928036690,0.2888489365577698,-0.0014394388999789953,-0.3984226584434509,0.06861672550439835,-0.012532291002571583,0.014794586226344109,-0.3173275589942932,-22.004836000001525,-47.932645499999744,858.2000122070312,0,0,0,0.0,0.0,0.0,0.0,0.0,0.0,0.0,-41,79,0,0,1,0,0,0,0,0,0,0,1,0,0,0,0,0
2024-08-27 19:49:54.028957367,0.40476441383361816,-0.1185201108455658,-0.6951712965965271,0.17900493741035461,-0.012532291002571583,0.014794586226344109,-0.3173275589942932,-22.004836000001525,-47.932645499999744,858.2000122070312,0,0,0,0.0,0.0,0.0,0.0,0.0,0.0,0.0,-41,79,0,0,1,0,0,0,0,0,0,0,1,0,0,0,0,0
2024-08-27 19:49:54.129729509,0.40476441383361816,-0.1185201108455658,-0.6951712965965271,0.17900493741035461,-0.03227131441235542,0.09726616740226746,-0.31621822714805603,-22.004836000001525,-47.932645499999744,858.2000122070312,0,0,0,0.0,0.0,0.0,0.0,0.0,0.0,0.0,-41,79,0,0,1,0,0,0,0,0,0,0,1,0,0,0,0,0
2024-08-27 19:49:54.230514765,0.3112332224845886,-0.14353400468826294,-0.8388823866844177,0.17900493741035461,-0.03227131441235542,0.09726616740226746,-0.31621822714805603,-22.004835000001187,-47.93264599999956,858.5,0,0,0,0.0,0.0,0.0,0.0,0.0,0.0,0.0,-41,79,0,0,1,0,0,0,0,0,0,0,1,0,0,0,0,0
2024-08-27 19:49:54.331370592,0.3112332224845886,-0.14353400468826294,-0.8388823866844177,0.33791878819465637,-0.003977958578616381,0.12446608394384384,-0.3168567717075348,-22.004835000001187,-47.93264599999956,858.5,0,0,0,0.0,0.0,0.0,0.0,0.0,0.0,0.0,-41,78,0,0,1,0,0,0,0,0,0,0,1,0,0,0,0,0
2024-08-27 19:49:54.432283640,0.25170662999153137,-0.12141823768615723,-0.8986859321594238,0.5195440053939819,-0.003977958578616381,0.12446608394384384,-0.3168567717075348,-22.004835000001187,-47.93264599999956,858.5,0,0,0,0.0,0.0,0.0,0.0,0.0,0.0,0.0,-41,78,0,0,1,0,0,0,0,0,0,0,1,0,0,0,0,0
2024-08-27 19:49:54.532551526,0.25170662999153137,-0.12141823768615723,-0.8986859321594238,0.5195440053939819,0.027482174336910248,0.11894023418426514,-0.31821104884147644,-22.004835000001187,-47.93264599999956,858.5,0,0,0,0.0,0.0,0.0,0.0,0.0,0.0,0.0,-41,78,0,0,1,0,0,0,0,0,0,0,1,0,0,0,0,0
2024-08-27 19:49:54.633250713,0.22953513264656067,-0.05560677498579025,-0.6832789778709412,0.6877427101135254,0.027482174336910248,0.11894023418426514,-0.31821104884147644,-22.004835000001187,-47.93264599999956,858.5,0,0,0,0.0,0.0,0.0,0.0,0.0,0.0,0.0,-41,77,0,0,1,0,0,0,0,0,0,0,1,0,0,0,0,0
2024-08-27 19:49:54.739916086,0.22953513264656067,-0.05560677498579025,-0.6832789778709412,0.6877427101135254,0.007252526469528675,0.11676575988531113,-0.32019707560539246,-22.004835000001187,-47.93264599999956,858.5,0,0,0,0.0,0.0,0.0,0.0,0.0,0.0,0.0,-41,77,0,0,1,0,0,0,0,0,0,0,1,0,0,0,0,0
2024-08-27 19:49:54.842529535,0.22953513264656067,-0.05560677498579025,-0.6832789778709412,0.6877427101135254,0.007252526469528675,0.11676575988531113,-0.32019707560539246,-22.004833666667402,-47.93264816666583,858.9000244140625,0,0,0,0.0,0.0,0.0,0.0,0.0,0.0,0.0,-41,77,0,0,1,0,0,0,0,0,0,0,1,0,0,0,0,0
2024-08-27 19:49:54.942965031,0.24333202838897705,-0.023343708366155624,-0.3950728178024292,0.792654275894165,-0.007463726215064526,0.11083216220140457,-0.3185257315635681,-22.004833666667402,-47.93264816666583,858.9000244140625,0,0,0,0.0,0.0,0.0,0.0,0.0,0.0,0.0,-41,77,0,0,1,0,0,0,0,0,0,0,1,0,0,0,0,0
2024-08-27 19:49:55.048350096,0.19708238542079926,-0.023132456466555595,-0.2681155204772949,0.8784810900688171,-0.007463726215064526,0.11083216220140457,-0.3185257315635681,-22.004833666667402,-47.93264816666583,858.9000244140625,0,0,0,0.0,0.0,0.0,0.0,0.0,0.0,0.0,-41,77,0,0,1,0,0,0,0,0,0,0,1,0,0,0,0,0
2024-08-27 19:49:55.148823500,0.19708238542079926,-0.023132456466555595,-0.2681155204772949,0.8784810900688171,-0.031723782420158386,0.1252879500389099,-0.3201709985733032,-22.004833666667402,-47.93264816666583,858.9000244140625,0,0,0,0.0,0.0,0.0,0.0,0.0,0.0,0.0,-41,77,0,0,1,0,0,0,0,0,0,0,1,0,0,0,0,0
2024-08-27 19:49:55.249991417,0.15395717322826385,0.010410187765955925,-0.13670682907104492,0.8784810900688171,-0.031723782420158386,0.1252879500389099,-0.3201709985733032,-22.004832666668882,-47.9326486666668,859.0999755859375,0,0,0,-22.004832666668882,-47.9326486666668,2.0,0.0,0.0,0.0,0.0,-41,76,0,0,0,1,0,0,0,0,0,0,0,1,0,0,0,0
2024-08-27 19:49:55.351154089,0.15395717322826385,0.010410187765955925,-0.13670682907104492,0.9088786244392395,0.0005725882947444916,0.10650911182165146,-0.3213048577308655,-22.004832666668882,-47.9326486666668,859.0999755859375,0,0,0,-22.004832666668882,-47.9326486666668,2.0,0.0,0.0,0.0,0.0,-41,76,0,0,0,1,0,0,0,0,0,0,0,1,0,0,0,0
2024-08-27 19:49:55.452394724,0.17062389850616455,0.01287904754281044,-0.03149142861366272,0.9750630259513855,0.0005725882947444916,0.10650911182165146,-0.3213048577308655,-22.004832666668882,-47.9326486666668,859.0999755859375,0,0,0,-22.004832666668882,-47.9326486666668,2.0,0.0,0.0,0.0,0.0,-41,76,0,0,0,1,0,0,0,0,0,0,0,1,0,0,0,0
2024-08-27 19:49:55.554543257,0.17062389850616455,0.01287904754281044,-0.03149142861366272,0.9750630259513855,-0.017459318041801453,0.11677712202072144,-0.3174467384815216,-22.004832666668882,-47.9326486666668,859.0999755859375,0,0,0,-22.004832666668882,-47.9326486666668,2.0,0.0,0.0,0.0,0.0,-41,76,0,0,0,1,0,0,0,0,0,0,0,1,0,0,0,0
2024-08-27 19:49:55.700415134,0.16597509384155273,-0.017551058903336525,0.03115607425570488,0.9429200887680054,-0.022686773911118507,0.10940474271774292,-0.3186742961406708,-22.004832666668882,-47.9326486666668,859.0999755859375,0,0,0,-22.004832666668882,-47.9326486666668,2.0,0.0,0.0,0.0,0.0,-41,76,0,0,0,1,0,0,0,0,0,0,0,1,0,0,0,0
2024-08-27 19:49:55.801078558,0.16597509384155273,-0.017551058903336525,0.03115607425570488,0.9429200887680054,-0.022686773911118507,0.10940474271774292,-0.3186742961406708,-22.004832666668882,-47.9326486666668,859.0999755859375,0,0,0,-22.004832666668882,-47.9326486666668,2.0,0.0,0.0,0.0,0.0,-41,75,0,0,0,1,0,0,0,0,0,0,0,1,0,0,0,0
2024-08-27 19:49:55.947648287,0.1600428968667984,-0.019492257386446,-0.032594114542007446,1.00230073928833,-0.022684453055262566,0.12773583829402924,-0.31808382272720337,-22.00483150000182,-47.93264899999963,859.0999755859375,0,0,0,-22.004832666668882,-47.9326486666668,2.0,0.0,0.0,0.0,0.0,-41,75,0,0,0,1,0,0,0,0,0,0,0,1,0,0,0,0
2024-08-27 19:49:56.048029184,0.1138027235865593,-0.0021714908070862293,0.00970575213432312,0.9461851119995117,-0.022684453055262566,0.12773583829402924,-0.31808382272720337,-22.00483150000182,-47.93264899999963,859.0999755859375,0,0,0,-22.004832666668882,-47.9326486666668,2.0,0.0,0.0,0.0,0.0,-41,75,0,0,0,1,0,0,0,0,0,0,0,1,0,0,0,0
2024-08-27 19:49:56.155346632,0.1138027235865593,-0.0021714908070862293,0.00970575213432312,0.9461851119995117,-0.01649746298789978,0.10819443315267563,-0.3164990544319153,-22.00483150000182,-47.93264899999963,859.0999755859375,0,0,0,-22.004832666668882,-47.9326486666668,2.0,0.0,0.0,0.0,0.0,-41,75,0,0,0,0,1,0,0,0,0,0,0,1,0,0,0,0
2024-08-27 19:49:56.286230803,0.14178414642810822,-0.01699175126850605,0.011048948392271996,0.9070764780044556,-0.01649746298789978,0.10819443315267563,-0.3164990544319153,-22.004830961715562,-47.932649167784774,859.0,0,0,0,-22.004832666668882,-47.9326486666668,2.0,0.0,0.0,0.0,0.0,-41,74,0,0,0,0,1,0,0,0,0,0,0,1,0,0,0,0
2024-08-27 19:49:56.389226437,0.14178414642810822,-0.01699175126850605,0.011048948392271996,0.9070764780044556,-0.017383696511387825,0.02558092027902603,-0.3167942762374878,-22.004830961715562,-47.932649167784774,859.0,0,0,0,-22.004832666668882,-47.9326486666668,2.0,0.0,0.0,0.0,0.0,-41,74,0,0,0,0,1,0,0,0,0,0,0,1,0,0,0,0
2024-08-27 19:49:56.522185087,0.32377731800079346,-0.0431361198425293,-0.014300050213932991,0.8888356685638428,-0.005186957307159901,0.023568222299218178,-0.31847769021987915,-22.004830961715562,-47.932649167784774,859.0,0,0,0,-22.004832666668882,-47.9326486666668,2.0,0.0,0.0,0.0,0.0,-41,74,0,0,0,0,1,0,0,0,0,0,0,1,0,0,0,0
2024-08-27 19:49:56.657220602,0.4218594431877136,-0.0924653485417366,-0.019392533227801323,0.8690433502197266,-0.005186957307159901,0.023568222299218178,-0.31847769021987915,-22.004830961715562,-47.932649167784774,859.0,0,0,0,-22.004832666668882,-47.9326486666668,2.0,0.0,0.0,0.0,0.0,-41,74,0,0,0,0,1,0,0,0,0,0,0,1,0,0,0,0
2024-08-27 19:49:56.766036034,0.4218594431877136,-0.0924653485417366,-0.019392533227801323,0.8690433502197266,-0.053286731243133545,0.10198480635881424,-0.32237860560417175,-22.004830961715562,-47.932649167784774,859.0,0,0,0,-22.004832666668882,-47.9326486666668,2.0,0.0,0.0,0.0,0.0,-41,73,0,0,0,0,1,0,0,0,0,0,0,1,0,0,0,0
2024-08-27 19:49:56.868353844,0.3585004508495331,-0.0819307342171669,-0.061299681663513184,0.8690433502197266,-0.053286731243133545,0.10198480635881424,-0.32237860560417175,-22.00482931416591,-47.93264952862273,858.9000244140625,0,0,0,-22.004832666668882,-47.9326486666668,2.0,0.0,0.0,0.0,0.0,-41,73,0,0,0,0,1,0,0,0,0,0,0,1,0,0,0,0
2024-08-27 19:49:56.971274614,0.3585004508495331,-0.0819307342171669,-0.061299681663513184,0.8835545778274536,-0.050705861300230026,0.15952248871326447,-0.3196119964122772,-22.00482931416591,-47.93264952862273,858.9000244140625,0,0,0,-22.004832666668882,-47.9326486666668,2.0,0.0,0.0,0.0,0.0,-40,73,0,0,0,0,1,0,0,0,0,0,0,1,0,0,0,0
2024-08-27 19:49:57.073735714,0.1700400561094284,-0.07183359563350677,-0.05277487635612488,0.9073704481124878,-0.03197871148586273,0.15268978476524353,-0.3159882724285126,-22.00482931416591,-47.93264952862273,858.9000244140625,0,0,0,-22.004832666668882,-47.9326486666668,2.0,0.0,0.0,0.0,0.0,-40,73,0,0,0,0,1,0,0,0,0,0,0,1,0,0,0,0
2024-08-27 19:49:57.275936842,0.06135933846235275,-0.06084732338786125,-0.00817703828215599,0.884943425655365,-0.03197871148586273,0.15268978476524353,-0.3159882724285126,-22.0048283969496,-47.93264979500755,858.9000244140625,0,0,0,-22.004832666668882,-47.9326486666668,2.0,0.0,0.0,0.0,0.0,-40,73,0,0,0,0,1,0,0,0,0,0,0,1,0,0,0,0
2024-08-27 19:49:57.391743898,0.06135933846235275,-0.06084732338786125,-0.00817703828215599,0.884943425655365,-0.02515646070241928,0.12312526255846024,-0.3113262355327606,-22.0048283969496,-47.93264979500755,858.9000244140625,0,0,0,-22.004832666668882,-47.9326486666668,2.0,0.0,0.0,0.0,0.0,-40,72,0,0,0,0,1,0,0,0,0,0,0,1,0,0,0,0
2024-08-27 19:49:57.494347811,0.03666525334119797,-0.05580771341919899,-0.052718326449394226,0.8893918395042419,-0.0012017785338684916,0.10044088959693909,-0.3137514591217041,-22.0048283969496,-47.93264979500755,858.9000244140625,0,0,0,-22.004832666668882,-47.9326486666668,2.0,0.0,0.0,0.0,0.0,-40,72,0,0,0,0,1,0,0,0,0,0,0,1,0,0,0,0
2024-08-27 19:49:57.641078949,0.024390967562794685,-0.05482351407408714,-0.051971420645713806,0.8893918395042419,-0.0012017785338684916,0.10044088959693909,-0.3137514591217041,-22.0048283969496,-47.93264979500755,858.9000244140625,0,0,0,-22.004832666668882,-47.9326486666668,2.0,0.0,0.0,0.0,0.0,-40,72,0,0,0,0,1,0,0,0,0,0,0,1,0,0,0,0
2024-08-27 19:49:57.759390116,0.024390967562794685,-0.05482351407408714,-0.051971420645713806,0.8926687240600586,-0.011821901425719261,0.09285297244787216,-0.31120216846466064,-22.0048283969496,-47.93264979500755,858.9000244140625,0,0,0,-22.004832666668882,-47.9326486666668,2.0,0.0,0.0,0.0,0.0,-40,72,0,0,0,0,1,0,0,0,0,0,0,1,0,0,0,0
2024-08-27 19:49:57.875021219,0.024390967562794685,-0.05482351407408714,-0.051971420645713806,0.8926687240600586,-0.011821901425719261,0.09285297244787216,-0.31120216846466064,-22.00482813424569,-47.932650169405555,858.9000244140625,0,0,0,-22.004832666668882,-47.9326486666668,2.0,0.0,0.0,0.0,0.0,-40,72,0,0,0,0,1,0,0,0,0,0,0,1,0,0,0,0
2024-08-27 19:49:57.985674381,0.022638335824012756,-0.061685558408498764,-0.06537018716335297,0.9266577959060669,0.009221013635396957,0.09072619676589966,-0.3125535547733307,-22.00482813424569,-47.932650169405555,858.9000244140625,0,0,0,-22.004832666668882,-47.9326486666668,2.0,0.0,0.0,0.0,0.0,-40,72,0,0,0,0,1,0,0,0,0,0,0,1,0,0,0,0
2024-08-27 19:49:58.086015224,0.04028009623289108,-0.04312177747488022,-0.09004069864749908,0.9266577959060669,0.009221013635396957,0.09072619676589966,-0.3125535547733307,-22.00482813424569,-47.932650169405555,858.9000244140625,0,0,0,-22.004832666668882,-47.9326486666668,2.0,0.0,0.0,0.0,0.0,-40,71,0,0,0,0,1,0,0,0,0,0,0,1,0,0,0,0
2024-08-27 19:49:58.198144436,0.04028009623289108,-0.04312177747488022,-0.09004069864749908,0.9511218667030334,0.010747273452579975,0.08260825276374817,-0.3115025758743286,-22.00482813424569,-47.932650169405555,858.9000244140625,0,0,0,-22.004832666668882,-47.9326486666668,2.0,0.0,0.0,0.0,0.0,-40,71,0,0,0,0,1,0,0,0,0,0,0,1,0,0,0,0
2024-08-27 19:49:58.300177813,0.044359203428030014,-0.061868637800216675,-0.028843950480222702,0.9863300919532776,0.010747273452579975,0.08260825276374817,-0.3115025758743286,-22.004828064189134,-47.93265038231915,858.9000244140625,0,0,0,-22.004832666668882,-47.9326486666668,2.0,0.0,0.0,0.0,0.0,-40,71,0,0,0,0,1,0,0,0,0,0,0,1,0,0,0,0
2024-08-27 19:49:58.437343836,0.044359203428030014,-0.061868637800216675,-0.028843950480222702,0.9863300919532776,0.007055601570755243,0.0892057716846466,-0.3102279305458069,-22.004828064189134,-47.93265038231915,858.9000244140625,0,0,0,-22.004832666668882,-47.9326486666668,2.0,0.0,0.0,0.0,0.0,-40,71,0,0,0,0,1,0,0,0,0,0,0,1,0,0,0,0
2024-08-27 19:49:58.551015615,0.052223507314920425,-0.04733486473560333,0.001317678950726986,0.9798026084899902,0.03302216902375221,0.08681054413318634,-0.3109966516494751,-22.004828064189134,-47.93265038231915,858.9000244140625,0,0,0,-22.004832666668882,-47.9326486666668,2.0,0.0,0.0,0.0,0.0,-40,71,0,0,0,0,1,0,0,0,0,0,0,1,0,0,0,0
2024-08-27 19:49:58.681070089,0.08031298220157623,-0.02894027717411518,0.05478765070438385,0.9482183456420898,0.03302216902375221,0.08681054413318634,-0.3109966516494751,-22.004828064189134,-47.93265038231915,858.9000244140625,0,0,0,-22.004832666668882,-47.9326486666668,2.0,0.0,0.0,0.0,0.0,-40,71,0,0,0,0,1,0,0,0,0,0,0,1,0,0,0,0
2024-08-27 19:49:58.786457539,0.08031298220157623,-0.02894027717411518,0.05478765070438385,0.9482183456420898,0.027535144239664078,0.08878634870052338,-0.31352803111076355,-22.004828064189134,-47.93265038231915,858.9000244140625,0,0,0,-22.004832666668882,-47.9326486666668,2.0,0.0,0.0,0.0,0.0,-40,71,0,0,0,0,1,0,0,0,0,0,0,1,0,0,0,0
2024-08-27 19:49:58.887818336,0.07161376625299454,-0.03760728985071182,0.02192876674234867,0.9482183456420898,0.027535144239664078,0.08878634870052338,-0.31352803111076355,-22.00482779815102,-47.93265068502596,858.7999877929688,0,0,0,-22.004832666668882,-47.9326486666668,2.0,0.0,0.0,0.0,0.0,-40,71,0,0,0,0,1,0,0,0,0,0,0,1,0,0,0,0
2024-08-27 19:49:58.988518953,0.07161376625299454,-0.03760728985071182,0.02192876674234867,0.8953274488449097,0.028740201145410538,0.09766783565282822,-0.3118702471256256,-22.00482779815102,-47.93265068502596,858.7999877929688,0,0,0,-22.004832666668882,-47.9326486666668,2.0,0.0,0.0,0.0,0.0,-40,70,0,0,0,0,1,0,0,0,0,0,0,1,0,0,0,0
2024-08-27 19:49:59.090444565,0.05101124569773674,-0.026942286640405655,-0.023444730788469315,0.8940587639808655,0.03550279885530472,0.09929673373699188,-0.31297534704208374,-22.00482779815102,-47.93265068502596,858.7999877929688,0,0,0,-22.004832666668882,-47.9326486666668,2.0,0.0,0.0,0.0,0.0,-40,70,0,0,0,0,1,0,0,0,0,0,0,1,0,0,0,0
2024-08-27 19:49:59.193373203,0.05101124569773674,-0.026942286640405655,-0.023444730788469315,0.8940587639808655,0.03550279885530472,0.09929673373699188,-0.31297534704208374,-22.00482779815102,-47.93265068502596,858.7999877929688,0,0,0,-22.004832666668882,-47.9326486666668,2.0,0.0,0.0,0.0,0.0,-40,70,0,0,0,0,1,0,0,0,0,0,0,1,0,0,0,0
2024-08-27 19:49:59.297954798,0.04627661779522896,0.0076911598443984985,-0.04183017089962959,0.8940587639808655,0.03550279885530472,0.09929673373699188,-0.31297534704208374,-22.00482755181438,-47.93265087400395,858.7999877929688,0,0,0,-22.004832666668882,-47.9326486666668,2.0,0.42296358942985535,-0.050794295966625214,0.03510516881942749,0.004490911960601807,-40,70,0,0,0,1,0,0,0,0,0,0,0,1,0,0,0,0
2024-08-27 19:49:59.399119139,0.04627661779522896,0.0076911598443984985,-0.04183017089962959,0.899748682975769,0.05149940028786659,0.09403655678033829,-0.3104342222213745,-22.00482755181438,-47.93265087400395,858.7999877929688,0,0,0,-22.004832666668882,-47.9326486666668,2.0,0.42296358942985535,-0.050794295966625214,0.03510516881942749,0.004490911960601807,-40,70,0,0,0,1,0,0,0,0,0,0,0,1,0,0,0,0
2024-08-27 19:49:59.499608040,0.024037322029471397,-0.021884679794311523,-0.055892933160066605,0.9159420132637024,0.05149940028786659,0.09403655678033829,-0.3104342222213745,-22.00482755181438,-47.93265087400395,858.7999877929688,0,0,0,-22.004832666668882,-47.9326486666668,2.0,0.42296358942985535,-0.050794295966625214,0.03510516881942749,0.004490911960601807,-40,70,0,0,0,0,1,0,0,0,0,0,0,1,0,0,0,0
2024-08-27 19:49:59.606618881,0.024037322029471397,-0.021884679794311523,-0.055892933160066605,0.9159420132637024,0.034467294812202454,0.0995289757847786,-0.3084098994731903,-22.00482755181438,-47.93265087400395,858.7999877929688,0,0,0,-22.004832666668882,-47.9326486666668,2.0,0.42296358942985535,-0.050794295966625214,0.03510516881942749,0.004490911960601807,-40,70,0,0,0,0,1,0,0,0,0,0,0,1,0,0,0,0
2024-08-27 19:49:59.739854574,0.020952194929122925,-0.03343323990702629,-0.08890263736248016,0.957766592502594,0.03669264167547226,0.06212872639298439,-0.3102402687072754,-22.00482755181438,-47.93265087400395,858.7999877929688,0,0,0,-22.004832666668882,-47.9326486666668,2.0,0.42296358942985535,-0.050794295966625214,0.03510516881942749,0.004490911960601807,-40,70,0,0,0,0,1,0,0,0,0,0,0,1,0,0,0,0
2024-08-27 19:49:59.853957891,0.020952194929122925,-0.03343323990702629,-0.08890263736248016,0.957766592502594,0.03669264167547226,0.06212872639298439,-0.3102402687072754,-22.00482755181438,-47.93265087400395,858.7999877929688,0,0,0,-22.004832666668882,-47.9326486666668,2.0,0.42296358942985535,-0.050794295966625214,0.03510516881942749,0.004490911960601807,-40,70,0,0,0,0,1,0,0,0,0,0,0,1,0,0,0,0
2024-08-27 19:49:59.954256058,0.09679439663887024,-0.041820306330919266,-0.018032167106866837,0.9554097652435303,0.04575585946440697,0.04305816441774368,-0.31385770440101624,-22.0048274608831,-47.932650998086366,858.7000122070312,0,0,0,-22.004832666668882,-47.9326486666668,2.0,0.42296358942985535,-0.050794295966625214,0.03510516881942749,0.004490911960601807,-40,69,0,0,0,0,1,0,0,0,0,0,0,1,0,0,0,0
2024-08-27 19:50:00.067106724,0.18861833214759827,-0.015357092954218388,-0.009088297374546528,0.9554097652435303,0.04575585946440697,0.04305816441774368,-0.31385770440101624,-22.0048274608831,-47.932650998086366,858.7000122070312,0,0,0,-22.004832666668882,-47.9326486666668,2.0,0.42296358942985535,-0.050794295966625214,0.03510516881942749,0.004490911960601807,-40,69,0,0,0,0,1,0,0,0,0,0,0,1,0,0,0,0
2024-08-27 19:50:00.213433027,0.18861833214759827,-0.015357092954218388,-0.009088297374546528,0.9463561773300171,0.03862014785408974,0.06859096139669418,-0.30917689204216003,-22.0048274608831,-47.932650998086366,858.7000122070312,0,0,0,-22.004832666668882,-47.9326486666668,2.0,0.42296358942985535,-0.050794295966625214,0.03510516881942749,0.004490911960601807,-40,69,0,0,0,0,1,0,0,0,0,0,0,1,0,0,0,0
2024-08-27 19:50:00.313832760,0.15473505854606628,-0.07716762274503708,-0.031742535531520844,0.9679532647132874,0.03862014785408974,0.06859096139669418,-0.30917689204216003,-22.00482707866977,-47.93265113151871,858.5999755859375,0,0,0,-22.004832666668882,-47.9326486666668,2.0,0.42296358942985535,-0.050794295966625214,0.03510516881942749,0.004490911960601807,-40,69,0,0,0,0,1,0,0,0,0,0,0,1,0,0,0,0
2024-08-27 19:50:00.433645487,0.15473505854606628,-0.07716762274503708,-0.031742535531520844,0.9679532647132874,0.024022739380598068,0.07492928951978683,-0.30550432205200195,-22.00482707866977,-47.93265113151871,858.5999755859375,0,0,0,-22.004832666668882,-47.9326486666668,2.0,0.42296358942985535,-0.050794295966625214,0.03510516881942749,0.004490911960601807,-40,69,0,0,0,0,1,0,0,0,0,0,0,1,0,0,0,0
2024-08-27 19:50:00.581503153,0.19155927002429962,-0.07957405596971512,-0.03702622652053833,0.9771146178245544,0.044971078634262085,0.07577807456254959,-0.30730026960372925,-22.00482707866977,-47.93265113151871,858.5999755859375,0,0,0,-22.004832666668882,-47.9326486666668,2.0,0.42296358942985535,-0.050794295966625214,0.03510516881942749,0.004490911960601807,-40,69,0,0,0,0,1,0,0,0,0,0,0,1,0,0,0,0
2024-08-27 19:50:00.695590496,0.1992780715227127,-0.044815752655267715,-0.00156383216381073,0.9763098955154419,0.044971078634262085,0.07577807456254959,-0.30730026960372925,-22.00482707866977,-47.93265113151871,858.5999755859375,0,0,0,-22.004832666668882,-47.9326486666668,2.0,0.42296358942985535,-0.050794295966625214,0.03510516881942749,0.004490911960601807,-40,69,0,0,0,0,1,0,0,0,0,0,0,1,0,0,0,0
2024-08-27 19:50:00.796186209,0.1992780715227127,-0.044815752655267715,-0.00156383216381073,0.9763098955154419,0.04104987904429436,0.0910494476556778,-0.3014787435531616,-22.00482707866977,-47.93265113151871,858.5999755859375,0,0,0,-22.004832666668882,-47.9326486666668,2.0,0.42296358942985535,-0.050794295966625214,0.03510516881942749,0.004490911960601807,-40,69,0,0,0,0,1,0,0,0,0,0,0,1,0,0,0,0
2024-08-27 19:50:00.931171894,0.1574428826570511,-0.07996148616075516,-0.044053785502910614,0.9953371286392212,0.04104987904429436,0.0910494476556778,-0.3014787435531616,-22.00482619349132,-47.932651534764325,858.5999755859375,0,0,0,-22.004832666668882,-47.9326486666668,2.0,0.42296358942985535,-0.050794295966625214,0.03510516881942749,0.004490911960601807,-40,69,0,0,0,0,1,0,0,0,0,0,0,1,0,0,0,0
2024-08-27 19:50:01.034195900,0.1574428826570511,-0.07996148616075516,-0.044053785502910614,0.9953371286392212,0.030494173988699913,0.10371826589107513,-0.30384254455566406,-22.00482619349132,-47.932651534764325,858.5999755859375,0,0,0,-22.004832666668882,-47.9326486666668,2.0,0.42296358942985535,-0.050794295966625214,0.03510516881942749,0.004490911960601807,-40,68,0,0,0,0,1,0,0,0,0,0,0,1,0,0,0,0
2024-08-27 19:50:01.167611122,0.13852503895759583,-0.0532972514629364,0.01096214447170496,0.9754817485809326,0.05323553457856178,0.06892074644565582,-0.30310118198394775,-22.00482619349132,-47.932651534764325,858.5999755859375,0,0,0,-22.004832666668882,-47.9326486666668,2.0,0.42296358942985535,-0.050794295966625214,0.03510516881942749,0.004490911960601807,-40,68,0,0,0,0,1,0,0,0,0,0,0,1,0,0,0,0
2024-08-27 19:50:01.273038387,0.13852503895759583,-0.0532972514629364,0.01096214447170496,0.9754817485809326,0.05323553457856178,0.06892074644565582,-0.30310118198394775,-22.00482564519516,-47.932651776246864,858.5,0,0,0,-22.004832666668882,-47.9326486666668,2.0,0.42296358942985535,-0.050794295966625214,0.03510516881942749,0.004490911960601807,-40,68,0,0,0,0,1,0,0,0,0,0,0,1,0,0,0,0
2024-08-27 19:50:01.375962496,0.18255631625652313,-0.022507667541503906,-0.017183460295200348,0.9913934469223022,0.051862310618162155,0.08068246394395828,-0.3072245121002197,-22.00482564519516,-47.932651776246864,858.5,0,0,0,-22.004832666668882,-47.9326486666668,2.0,0.42296358942985535,-0.050794295966625214,0.03510516881942749,0.004490911960601807,-40,68,0,0,0,0,1,0,0,0,0,0,0,1,0,0,0,0
2024-08-27 19:50:01.535902499,0.18705955147743225,-0.04051162675023079,0.015291610732674599,0.9945780634880066,0.019276531413197517,0.09020701795816422,-0.3053458034992218,-22.00482564519516,-47.932651776246864,858.5,0,0,0,-22.004832666668882,-47.9326486666668,2.0,0.42296358942985535,-0.050794295966625214,0.03510516881942749,0.004490911960601807,-40,68,0,0,0,0,1,0,0,0,0,0,0,1,0,0,0,0
2024-08-27 19:50:01.657331944,0.18705955147743225,-0.04051162675023079,0.015291610732674599,0.9945780634880066,0.019276531413197517,0.09020701795816422,-0.3053458034992218,-22.00482564519516,-47.932651776246864,858.5,0,0,0,-22.004832666668882,-47.9326486666668,2.0,0.42296358942985535,-0.050794295966625214,0.03510516881942749,0.004490911960601807,-40,68,0,0,0,0,1,0,0,0,0,0,0,1,0,0,0,0
2024-08-27 19:50:01.791946173,0.19219890236854553,-0.058233704417943954,-0.002856554463505745,1.0079421997070312,0.032984547317028046,0.11426543444395065,-0.3060266673564911,-22.00482564519516,-47.932651776246864,858.5,0,0,0,-22.004832666668882,-47.9326486666668,2.0,0.42296358942985535,-0.050794295966625214,0.03510516881942749,0.004490911960601807,-40,68,0,0,0,0,1,0,0,0,0,0,0,1,0,0,0,0
2024-08-27 19:50:01.896035671,0.19219890236854553,-0.058233704417943954,-0.002856554463505745,1.0079421997070312,0.032984547317028046,0.11426543444395065,-0.3060266673564911,-22.00482464377601,-47.93265211953436,858.2999877929688,0,0,0,-22.004832666668882,-47.9326486666668,2.0,0.42296358942985535,-0.050794295966625214,0.03510516881942749,0.004490911960601807,-40,68,0,0,0,0,1,0,0,0,0,0,0,1,0,0,0,0
2024-08-27 19:50:01.997288942,0.15885645151138306,-0.028020504862070084,0.0027275066822767258,1.0089929103851318,0.021336590871214867,0.12415891140699387,-0.30678799748420715,-22.00482464377601,-47.93265211953436,858.2999877929688,0,0,0,-22.004832666668882,-47.9326486666668,2.0,0.42296358942985535,-0.050794295966625214,0.03510516881942749,0.004490911960601807,-40,68,0,0,0,0,1,0,0,0,0,0,0,1,0,0,0,0
2024-08-27 19:50:02.107976198,0.15587903559207916,0.025935126468539238,0.012779241427779198,0.9853706955909729,0.021336590871214867,0.12415891140699387,-0.30678799748420715,-22.00482464377601,-47.93265211953436,858.2999877929688,0,0,0,-22.004832666668882,-47.9326486666668,2.0,0.42296358942985535,-0.050794295966625214,0.03510516881942749,0.004490911960601807,-40,68,0,0,0,0,1,0,0,0,0,0,0,1,0,0,0,0
2024-08-27 19:50:02.208818197,0.15587903559207916,0.025935126468539238,0.012779241427779198,0.9853706955909729,0.024845317006111145,0.1296231746673584,-0.305947870016098,-22.00482464377601,-47.93265211953436,858.2999877929688,0,0,0,-22.004832666668882,-47.9326486666668,2.0,0.42296358942985535,-0.050794295966625214,0.03510516881942749,0.004490911960601807,-40,67,0,0,0,0,1,0,0,0,0,0,0,1,0,0,0,0
2024-08-27 19:50:02.310026169,0.08627485483884811,-0.051839232444763184,0.0179772786796093,0.9853706955909729,0.024845317006111145,0.1296231746673584,-0.305947870016098,-22.004823987752026,-47.93265215258631,858.0999755859375,0,0,0,-22.004832666668882,-47.9326486666668,2.0,0.42296358942985535,-0.050794295966625214,0.03510516881942749,0.004490911960601807,-40,67,0,0,0,0,1,0,0,0,0,0,0,1,0,0,0,0
2024-08-27 19:50:02.415251255,0.08627485483884811,-0.051839232444763184,0.0179772786796093,1.028278112411499,-0.006045700516551733,0.11789391934871674,-0.2984076142311096,-22.004823987752026,-47.93265215258631,858.0999755859375,0,0,0,-22.004832666668882,-47.9326486666668,2.0,0.42296358942985535,-0.050794295966625214,0.03510516881942749,0.004490911960601807,-40,67,0,0,0,0,1,0,0,0,0,0,0,1,0,0,0,0
2024-08-27 19:50:02.528578043,0.03562536463141441,-0.06280075013637543,0.04503028094768524,1.0135897397994995,0.04458249360322952,0.10528644919395447,-0.30416983366012573,-22.004823987752026,-47.93265215258631,858.0999755859375,0,0,0,-22.004832666668882,-47.9326486666668,2.0,0.42296358942985535,-0.050794295966625214,0.03510516881942749,0.004490911960601807,-40,67,0,0,0,1,0,0,0,0,0,0,0,1,0,0,0,0
2024-08-27 19:50:02.629816294,0.03562536463141441,-0.06280075013637543,0.04503028094768524,1.0135897397994995,0.04458249360322952,0.10528644919395447,-0.30416983366012573,-22.004823987752026,-47.93265215258631,858.0999755859375,0,0,0,-22.004832666668882,-47.9326486666668,2.0,0.44386881589889526,-0.008233875036239624,-0.08278518915176392,0.0034545063972473145,-40,67,0,0,0,0,1,0,0,0,0,0,0,1,0,0,0,0
2024-08-27 19:50:02.777244091,0.024181419983506203,-0.025069188326597214,-0.010746534913778305,0.9617264270782471,0.03481021523475647,0.08531197160482407,-0.30303889513015747,-22.004823987752026,-47.93265215258631,858.0999755859375,0,0,0,-22.004832666668882,-47.9326486666668,2.0,0.44386881589889526,-0.008233875036239624,-0.08278518915176392,0.0034545063972473145,-40,67,0,0,0,0,1,0,0,0,0,0,0,1,0,0,0,0
2024-08-27 19:50:02.879422188,0.024181419983506203,-0.025069188326597214,-0.010746534913778305,0.9617264270782471,0.03481021523475647,0.08531197160482407,-0.30303889513015747,-22.004823987752026,-47.93265215258631,858.0999755859375,0,0,0,-22.004832666668882,-47.9326486666668,2.0,0.44386881589889526,-0.008233875036239624,-0.08278518915176392,0.0034545063972473145,-40,67,0,0,0,0,1,0,0,0,0,0,0,1,0,0,0,0
2024-08-27 19:50:03.003819704,0.0695423036813736,-0.03044092282652855,-0.03546813875436783,0.9331140518188477,0.04550992697477341,0.06472726166248322,-0.30639755725860596,-22.004823562934327,-47.93265242832336,858.0,0,0,0,-22.004832666668882,-47.9326486666668,2.0,0.44386881589889526,-0.008233875036239624,-0.08278518915176392,0.0034545063972473145,-40,67,0,0,0,0,1,0,0,0,0,0,0,1,0,0,0,0
2024-08-27 19:50:03.140029430,0.11621151864528656,-0.029632780700922012,-0.042344290763139725,0.9172338843345642,0.016548823565244675,0.06056332215666771,-0.30153197050094604,-22.004823562934327,-47.93265242832336,858.0,0,0,0,-22.004832666668882,-47.9326486666668,2.0,0.44386881589889526,-0.008233875036239624,-0.08278518915176392,0.0034545063972473145,-40,67,0,0,0,0,1,0,0,0,0,0,0,1,0,0,0,0
2024-08-27 19:50:03.242116690,0.11621151864528656,-0.029632780700922012,-0.042344290763139725,0.9172338843345642,0.016548823565244675,0.06056332215666771,-0.30153197050094604,-22.004823562934327,-47.93265242832336,858.0,0,0,0,-22.004832666668882,-47.9326486666668,2.0,0.44386881589889526,-0.008233875036239624,-0.08278518915176392,0.0034545063972473145,-40,67,0,0,0,0,1,0,0,0,0,0,0,1,0,0,0,0
2024-08-27 19:50:03.354466915,0.1719292402267456,-0.04704485461115837,-0.029515445232391357,0.9233598113059998,0.022803867235779762,0.07667237520217896,-0.29990026354789734,-22.004823292716175,-47.93265258016877,857.7999877929688,0,0,0,-22.004832666668882,-47.9326486666668,2.0,0.44386881589889526,-0.008233875036239624,-0.08278518915176392,0.0034545063972473145,-40,67,0,0,0,0,1,0,0,0,0,0,0,1,0,0,0,0
2024-08-27 19:50:03.483774424,0.18062695860862732,-0.0685286670923233,-0.027402110397815704,0.9233598113059998,0.022803867235779762,0.07667237520217896,-0.29990026354789734,-22.004823292716175,-47.93265258016877,857.7999877929688,0,0,0,-22.004832666668882,-47.9326486666668,2.0,0.44386881589889526,-0.008233875036239624,-0.08278518915176392,0.0034545063972473145,-40,67,0,0,0,0,1,0,0,0,0,0,0,1,0,0,0,0
2024-08-27 19:50:03.642237902,0.18062695860862732,-0.0685286670923233,-0.027402110397815704,0.9413788318634033,0.03649294376373291,0.07848582416772842,-0.29534605145454407,-22.004823292716175,-47.93265258016877,857.7999877929688,0,0,0,-22.004832666668882,-47.9326486666668,2.0,0.44386881589889526,-0.008233875036239624,-0.08278518915176392,0.0034545063972473145,-40,66,0,0,0,0,1,0,0,0,0,0,0,1,0,0,0,0
2024-08-27 19:50:03.790638447,0.20860011875629425,-0.05006974935531616,0.0008059609681367874,0.948544979095459,0.03583086282014847,0.09771033376455307,-0.2967638373374939,-22.004823292716175,-47.93265258016877,857.7999877929688,0,0,0,-22.004832666668882,-47.9326486666668,2.0,0.44386881589889526,-0.008233875036239624,-0.08278518915176392,0.0034545063972473145,-40,66,0,0,0,0,1,0,0,0,0,0,0,1,0,0,0,0
2024-08-27 19:50:03.929361582,0.17434048652648926,-0.054043762385845184,-0.05370674282312393,0.948544979095459,0.03583086282014847,0.09771033376455307,-0.2967638373374939,-22.00482240174606,-47.932652935530456,857.7000122070312,0,0,0,-22.004832666668882,-47.9326486666668,2.0,0.44386881589889526,-0.008233875036239624,-0.08278518915176392,0.0034545063972473145,-40,66,0,0,0,0,1,0,0,0,0,0,0,1,0,0,0,0
2024-08-27 19:50:04.031929970,0.17434048652648926,-0.054043762385845184,-0.05370674282312393,0.9717157483100891,0.025644494220614433,0.09679102897644043,-0.2955160140991211,-22.00482240174606,-47.932652935530456,857.7000122070312,0,0,0,-22.004832666668882,-47.9326486666668,2.0,0.44386881589889526,-0.008233875036239624,-0.08278518915176392,0.0034545063972473145,-40,66,0,0,0,0,1,0,0,0,0,0,0,1,0,0,0,0
2024-08-27 19:50:04.134402037,0.16448910534381866,-0.020271454006433487,-0.03615041449666023,0.9908296465873718,0.05052000656723976,0.08607156574726105,-0.2979808747768402,-22.00482240174606,-47.932652935530456,857.7000122070312,0,0,0,-22.004832666668882,-47.9326486666668,2.0,0.44386881589889526,-0.008233875036239624,-0.08278518915176392,0.0034545063972473145,-40,66,0,0,0,0,1,0,0,0,0,0,0,1,0,0,0,0
2024-08-27 19:50:04.249995232,0.16448910534381866,-0.020271454006433487,-0.03615041449666023,0.9908296465873718,0.05052000656723976,0.08607156574726105,-0.2979808747768402,-22.00482240174606,-47.932652935530456,857.7000122070312,0,0,0,-22.004832666668882,-47.9326486666668,2.0,0.44386881589889526,-0.008233875036239624,-0.08278518915176392,0.0034545063972473145,-40,66,0,0,0,0,1,0,0,0,0,0,0,1,0,0,0,0
2024-08-27 19:50:04.350724459,0.137532576918602,-0.02693311497569084,-0.006731003522872925,0.9993389248847961,0.03347357362508774,0.07892321050167084,-0.2975088953971863,-22.004821837470082,-47.93265311433176,857.7000122070312,0,0,0,-22.004832666668882,-47.9326486666668,2.0,0.44386881589889526,-0.008233875036239624,-0.08278518915176392,0.0034545063972473145,-40,66,0,0,0,0,1,0,0,0,0,0,0,1,0,0,0,0
2024-08-27 19:50:04.502603292,0.14315149188041687,0.012613069266080856,0.0006676651537418365,0.9993389248847961,0.03347357362508774,0.07892321050167084,-0.2975088953971863,-22.004821837470082,-47.93265311433176,857.7000122070312,0,0,0,-22.004832666668882,-47.9326486666668,2.0,0.44386881589889526,-0.008233875036239624,-0.08278518915176392,0.0034545063972473145,-40,66,0,0,0,0,1,0,0,0,0,0,0,1,0,0,0,0
2024-08-27 19:50:04.654751062,0.14315149188041687,0.012613069266080856,0.0006676651537418365,1.0079327821731567,0.019632890820503235,0.06373914331197739,-0.2975175380706787,-22.004821837470082,-47.93265311433176,857.7000122070312,0,0,0,-22.004832666668882,-47.9326486666668,2.0,0.44386881589889526,-0.008233875036239624,-0.08278518915176392,0.0034545063972473145,-40,66,0,0,0,0,1,0,0,0,0,0,0,1,0,0,0,0
2024-08-27 19:50:04.755626440,0.1308344006538391,-0.011979932896792889,0.037623412907123566,0.9861366748809814,-0.010491995140910149,0.0754205733537674,-0.3008405864238739,-22.004821837470082,-47.93265311433176,857.7000122070312,0,0,0,-22.004832666668882,-47.9326486666668,2.0,0.44386881589889526,-0.008233875036239624,-0.08278518915176392,0.0034545063972473145,-40,66,0,0,0,0,1,0,0,0,0,0,0,1,0,0,0,0
2024-08-27 19:50:04.858051538,0.1308344006538391,-0.011979932896792889,0.037623412907123566,0.9861366748809814,-0.010491995140910149,0.0754205733537674,-0.3008405864238739,-22.004821837470082,-47.93265311433176,857.7000122070312,0,0,0,-22.004832666668882,-47.9326486666668,2.0,0.44386881589889526,-0.008233875036239624,-0.08278518915176392,0.0034545063972473145,-40,66,0,0,0,0,1,0,0,0,0,0,0,1,0,0,0,0
2024-08-27 19:50:04.976233244,0.13486751914024353,-0.04606905207037926,0.010867550037801266,0.976216733455658,-0.010491995140910149,0.0754205733537674,-0.3008405864238739,-22.004821170723154,-47.93265320436202,857.5999755859375,0,0,0,-22.004832666668882,-47.9326486666668,2.0,0.44386881589889526,-0.008233875036239624,-0.08278518915176392,0.0034545063972473145,-40,66,0,0,0,0,1,0,0,0,0,0,0,1,0,0,0,0
2024-08-27 19:50:05.097193241,0.15475115180015564,-0.047749113291502,0.009069486521184444,0.976216733455658,0.01489920262247324,0.0597301721572876,-0.3027927279472351,-22.004821170723154,-47.93265320436202,857.5999755859375,0,0,0,-22.004832666668882,-47.9326486666668,2.0,0.44386881589889526,-0.008233875036239624,-0.08278518915176392,0.0034545063972473145,-40,66,0,0,0,0,1,0,0,0,0,0,0,1,0,0,0,0
2024-08-27 19:50:05.197557211,0.15475115180015564,-0.047749113291502,0.009069486521184444,0.961999237537384,0.03166196495294571,0.08145583420991898,-0.3004699945449829,-22.004821170723154,-47.93265320436202,857.5999755859375,0,0,0,-22.004832666668882,-47.9326486666668,2.0,0.44386881589889526,-0.008233875036239624,-0.08278518915176392,0.0034545063972473145,-40,66,0,0,0,0,1,0,0,0,0,0,0,1,0,0,0,0
2024-08-27 19:50:05.299347401,0.15475115180015564,-0.047749113291502,0.009069486521184444,0.961999237537384,0.03166196495294571,0.08145583420991898,-0.3004699945449829,-22.004821170723154,-47.93265320436202,857.5999755859375,0,0,0,-22.004832666668882,-47.9326486666668,2.0,0.44386881589889526,-0.008233875036239624,-0.08278518915176392,0.0034545063972473145,-40,66,0,0,0,0,1,0,0,0,0,0,0,1,0,0,0,0
2024-08-27 19:50:05.400039196,0.1510830968618393,-0.024272233247756958,-0.03021569922566414,0.9601607918739319,0.026980465278029442,0.08698605746030807,-0.2996808886528015,-22.00482064080061,-47.93265338501111,857.5,0,0,0,-22.004832666668882,-47.9326486666668,2.0,0.44386881589889526,-0.008233875036239624,-0.08278518915176392,0.0034545063972473145,-40,66,0,0,0,0,1,0,0,0,0,0,0,1,0,0,0,0
2024-08-27 19:50:05.512755156,0.11524136364459991,-0.029092419892549515,-0.003050129394978285,0.9601607918739319,0.026980465278029442,0.08698605746030807,-0.2996808886528015,-22.00482064080061,-47.93265338501111,857.5,0,0,0,-22.004832666668882,-47.9326486666668,2.0,0.44386881589889526,-0.008233875036239624,-0.08278518915176392,0.0034545063972473145,-40,66,0,0,0,0,1,0,0,0,0,0,0,1,0,0,0,0
2024-08-27 19:50:05.613727093,0.11524136364459991,-0.029092419892549515,-0.003050129394978285,0.9503881335258484,0.0029963485430926085,0.08925934135913849,-0.2957828640937805,-22.00482064080061,-47.93265338501111,857.5,0,0,0,-22.004832666668882,-47.9326486666668,2.0,0.4057074189186096,0.004675969481468201,0.03114372491836548,0.005676239728927612,-40,65,0,0,0,1,0,0,0,0,0,0,0,1,0,0,0,0
2024-08-27 19:50:05.733619690,0.08059317618608475,-0.051501963287591934,-0.009367230348289013,0.9324814081192017,0.0029963485430926085,0.08925934135913849,-0.2957828640937805,-22.00482064080061,-47.93265338501111,857.5,0,0,0,-22.004832666668882,-47.9326486666668,2.0,0.4057074189186096,0.004675969481468201,0.03114372491836548,0.005676239728927612,-40,65,0,0,0,1,0,0,0,0,0,0,0,1,0,0,0,0
2024-08-27 19:50:05.838755846,0.08059317618608475,-0.051501963287591934,-0.009367230348289013,0.9324814081192017,0.014346970245242119,0.10802016407251358,-0.2958332896232605,-22.00482064080061,-47.93265338501111,857.5,0,0,0,-22.004832666668882,-47.9326486666668,2.0,0.4057074189186096,0.004675969481468201,0.03114372491836548,0.005676239728927612,-40,65,0,0,0,1,0,0,0,0,0,0,0,1,0,0,0,0
