DateTime,SpeedChanged_speedX,SpeedChanged_speedY,SpeedChanged_speedZ,AltitudeChanged_altitude,AttitudeChanged_roll,AttitudeChanged_pitch,AttitudeChanged_yaw,GpsLocationChanged_latitude,GpsLocationChanged_longitude,GpsLocationChanged_altitude,GpsLocationChanged_latitude_accuracy,GpsLocationChanged_longitude_accuracy,GpsLocationChanged_altitude_accuracy,HomeChanged_latitude,HomeChanged_longitude,HomeChanged_altitude,moveByEnd_dX,moveByEnd_dY,moveByEnd_dZ,moveByEnd_dPsi,WifiSignalChanged_rssi,BatteryStateChanged_percent,FlyingStateChanged_state_unknown,FlyingStateChanged_state_landed,FlyingStateChanged_state_takingoff,FlyingStateChanged_state_hovering,FlyingStateChanged_state_flying,FlyingStateChanged_state_landing,FlyingStateChanged_state_emergency,FlyingStateChanged_state_usertakeoff,FlyingStateChanged_state_motor_ramping,FlyingStateChanged_state_motor_emergency_landing,HomeTypeAvailabilityChanged_type_UNKNOWN,HomeTypeAvailabilityChanged_type_TAKEOFF,HomeTypeAvailabilityChanged_type_PILOT,HomeTypeAvailabilityChanged_type_FIRST_FIX,HomeTypeAvailabilityChanged_type_FOLLOWEE
2024-07-25 20:01:43.552396059,0.0,0.0,0.0,0.0,0.01691451482474804,-0.011076451279222965,-0.0033682500943541527,-21.257452999999472,-48.303207333332494,577.9000244140625,0,0,1,-21.2574465,-48.303192499999994,2.0,0.0,0.0,0.0,0.0,-32,99,1,0,0,0,0,0,0,0,0,0,0,0,0,1,0
2024-07-25 20:01:43.653719664,0.0,0.0,0.0,0.0,0.01674167439341545,-0.011222937144339085,-0.0034681239631026983,-21.257452666666026,-48.303207333332494,577.9000244140625,0,0,1,-21.2574465,-48.303192499999994,2.0,0.0,0.0,0.0,0.0,-32,99,1,0,0,0,0,0,0,0,0,0,0,0,0,1,0
2024-07-25 20:01:43.754766226,0.0,0.0,0.0,0.0,0.016703015193343163,-0.011064494960010052,-0.0034736597444862127,-21.257452666666026,-48.303207333332494,577.9000244140625,0,0,1,-21.2574465,-48.303192499999994,2.0,0.0,0.0,0.0,0.0,-32,99,1,0,0,0,0,0,0,0,0,0,0,0,0,1,0
2024-07-25 20:01:43.863573551,0.0,0.0,0.0,0.0,0.016703015193343163,-0.011064494960010052,-0.0034736597444862127,-21.257452666666026,-48.303207333332494,577.9000244140625,0,0,1,-21.2574465,-48.303192499999994,2.0,0.0,0.0,0.0,0.0,-32,99,1,0,0,0,0,0,0,0,0,0,0,0,0,1,0
2024-07-25 20:01:43.965215445,0.0,0.0,0.0,0.0,0.016703015193343163,-0.011064494960010052,-0.0034736597444862127,-21.257452666666026,-48.303207333332494,577.9000244140625,0,0,1,-21.2574465,-48.303192499999994,2.0,0.0,0.0,0.0,0.0,-32,99,1,0,0,0,0,0,0,0,0,0,0,0,0,1,0
2024-07-25 20:01:44.065917969,0.0,0.0,0.0,0.0,0.016703015193343163,-0.011064494960010052,-0.0034736597444862127,-21.257452666666026,-48.303207333332494,577.9000244140625,0,0,1,-21.2574465,-48.303192499999994,2.0,0.0,0.0,0.0,0.0,-32,99,1,0,0,0,0,0,0,0,0,0,0,0,0,1,0
2024-07-25 20:01:44.167194366,0.0,0.0,0.0,0.0,0.016703015193343163,-0.011064494960010052,-0.0034736597444862127,-21.257452666666026,-48.303207333332494,577.9000244140625,0,0,1,-21.2574465,-48.303192499999994,2.0,0.0,0.0,0.0,0.0,-32,99,1,0,0,0,0,0,0,0,0,0,0,0,0,1,0
2024-07-25 20:01:44.268410682,0.0,0.0,0.0,0.0,0.016703015193343163,-0.011064494960010052,-0.0034736597444862127,-21.257452666666026,-48.303207333332494,577.9000244140625,0,0,1,-21.2574465,-48.303192499999994,2.0,0.0,0.0,0.0,0.0,-32,99,1,0,0,0,0,0,0,0,0,0,0,0,0,1,0
2024-07-25 20:01:44.369614601,0.0,0.0,0.0,0.0,0.016703015193343163,-0.011064494960010052,-0.0034736597444862127,-21.257452666666026,-48.303207333332494,577.9000244140625,0,0,1,-21.2574465,-48.303192499999994,2.0,0.0,0.0,0.0,0.0,-32,99,1,0,0,0,0,0,0,0,0,0,0,0,0,1,0
2024-07-25 20:01:44.472061396,0.0,0.0,0.0,0.0,0.016703015193343163,-0.011064494960010052,-0.0034736597444862127,-21.257452666666026,-48.303207333332494,577.9000244140625,0,0,1,-21.2574465,-48.303192499999994,2.0,0.0,0.0,0.0,0.0,-32,99,1,0,0,0,0,0,0,0,0,0,0,0,0,1,0
2024-07-25 20:01:44.573118210,0.0,0.0,0.0,0.0,0.016703015193343163,-0.011064494960010052,-0.0034736597444862127,-21.257452666666026,-48.303207333332494,577.9000244140625,0,0,1,-21.2574465,-48.303192499999994,2.0,0.0,0.0,0.0,0.0,-32,99,1,0,0,0,0,0,0,0,0,0,0,0,0,1,0
2024-07-25 20:01:44.674949646,0.0,0.0,0.0,0.0,0.016547027975320816,-0.011542655527591705,-0.003501453436911106,-21.257452333333035,-48.303207333332494,578.0,0,0,1,-21.2574465,-48.303192499999994,2.0,0.0,0.0,0.0,0.0,-32,99,1,0,0,0,0,0,0,0,0,0,0,0,0,1,0
2024-07-25 20:01:44.776281118,0.0,0.0,0.0,0.0,0.016634460538625717,-0.011379214935004711,-0.0035260405857115984,-21.257452333333035,-48.303207333332494,578.0,0,0,1,-21.2574465,-48.303192499999994,2.0,0.0,0.0,0.0,0.0,-32,99,1,0,0,0,0,0,0,0,0,0,0,0,0,1,0
2024-07-25 20:01:44.876985788,0.0,0.0,0.0,0.0,0.016634460538625717,-0.011379214935004711,-0.0035260405857115984,-21.257452333333035,-48.303207333332494,578.0,0,0,1,-21.2574465,-48.303192499999994,2.0,0.0,0.0,0.0,0.0,-32,99,1,0,0,0,0,0,0,0,0,0,0,0,0,1,0
2024-07-25 20:01:44.977495193,0.0,0.0,0.0,0.0,0.016634460538625717,-0.011379214935004711,-0.0035260405857115984,-21.257452333333035,-48.303207333332494,578.0,0,0,1,-21.2574465,-48.303192499999994,2.0,0.0,0.0,0.0,0.0,-32,99,1,0,0,0,0,0,0,0,0,0,0,0,0,1,0
2024-07-25 20:01:45.084205627,0.0,0.0,0.0,0.0,0.016634460538625717,-0.011379214935004711,-0.0035260405857115984,-21.257452333333035,-48.303207333332494,578.0,0,0,1,-21.2574465,-48.303192499999994,2.0,0.0,0.0,0.0,0.0,-32,99,1,0,0,0,0,0,0,0,0,0,0,0,0,1,0
2024-07-25 20:01:45.186060905,0.0,0.0,0.0,0.0,0.016634460538625717,-0.011379214935004711,-0.0035260405857115984,-21.257452333333035,-48.303207333332494,578.0,0,0,1,-21.2574465,-48.303192499999994,2.0,0.0,0.0,0.0,0.0,-32,99,1,0,0,0,0,0,0,0,0,0,0,0,0,1,0
2024-07-25 20:01:45.286899567,0.0,0.0,0.0,0.0,0.016634460538625717,-0.011379214935004711,-0.0035260405857115984,-21.257452333333035,-48.303207333332494,578.0,0,0,1,-21.2574465,-48.303192499999994,2.0,0.0,0.0,0.0,0.0,-32,99,1,0,0,0,0,0,0,0,0,0,0,0,0,1,0
2024-07-25 20:01:45.388025522,0.0,0.0,0.0,0.0,0.016634460538625717,-0.011379214935004711,-0.0035260405857115984,-21.257452333333035,-48.303207333332494,578.0,0,0,1,-21.2574465,-48.303192499999994,2.0,0.0,0.0,0.0,0.0,-32,99,1,0,0,0,0,0,0,0,0,0,0,0,0,1,0
2024-07-25 20:01:45.488506079,0.0,0.0,0.0,0.0,0.016634460538625717,-0.011379214935004711,-0.0035260405857115984,-21.257452333333035,-48.303207333332494,578.0,0,0,1,-21.2574465,-48.303192499999994,2.0,0.0,0.0,0.0,0.0,-32,99,1,0,0,0,0,0,0,0,0,0,0,0,0,1,0
2024-07-25 20:01:45.591185570,0.0,0.0,0.0,0.0,0.016702232882380486,-0.011311818845570087,-0.0036221470218151808,-21.25745199999959,-48.303207333332494,578.0999755859375,0,0,1,-21.2574465,-48.303192499999994,2.0,0.0,0.0,0.0,0.0,-32,98,1,0,0,0,0,0,0,0,0,0,0,0,0,1,0
2024-07-25 20:01:45.696457386,0.0,0.0,0.0,0.0,0.016702232882380486,-0.011311818845570087,-0.0036221470218151808,-21.25745183333332,-48.303207333332494,578.2000122070312,0,0,1,-21.2574465,-48.303192499999994,2.0,0.0,0.0,0.0,0.0,-32,98,1,0,0,0,0,0,0,0,0,0,0,0,0,1,0
2024-07-25 20:01:45.798417568,0.0,0.0,0.0,0.0,0.0167198795825243,-0.01118110865354538,-0.0036369082517921925,-21.25745183333332,-48.303207333332494,578.2000122070312,0,0,1,-21.2574465,-48.303192499999994,2.0,0.0,0.0,0.0,0.0,-33,98,1,0,0,0,0,0,0,0,0,0,0,0,0,1,0
2024-07-25 20:01:45.899208784,0.0,0.0,0.0,0.0,0.0167198795825243,-0.01118110865354538,-0.0036369082517921925,-21.25745183333332,-48.303207333332494,578.2000122070312,0,0,1,-21.2574465,-48.303192499999994,2.0,0.0,0.0,0.0,0.0,-33,98,1,0,0,0,0,0,0,0,0,0,0,0,0,1,0
2024-07-25 20:01:46.000497579,0.0,0.0,0.0,0.0,0.0167198795825243,-0.01118110865354538,-0.0036369082517921925,-21.25745183333332,-48.303207333332494,578.2000122070312,0,0,1,-21.2574465,-48.303192499999994,2.0,0.0,0.0,0.0,0.0,-33,98,1,0,0,0,0,0,0,0,0,0,0,0,0,1,0
2024-07-25 20:01:46.102871895,0.0,0.0,0.0,0.0,0.0167198795825243,-0.01118110865354538,-0.0036369082517921925,-21.25745183333332,-48.303207333332494,578.2000122070312,0,0,1,-21.2574465,-48.303192499999994,2.0,0.0,0.0,0.0,0.0,-33,98,1,0,0,0,0,0,0,0,0,0,0,0,0,1,0
2024-07-25 20:01:46.203973293,0.0,0.0,0.0,0.0,0.0167198795825243,-0.01118110865354538,-0.0036369082517921925,-21.25745183333332,-48.303207333332494,578.2000122070312,0,0,1,-21.2574465,-48.303192499999994,2.0,0.0,0.0,0.0,0.0,-33,98,1,0,0,0,0,0,0,0,0,0,0,0,0,1,0
2024-07-25 20:01:46.305186510,0.0,0.0,0.0,0.0,0.0167198795825243,-0.01118110865354538,-0.0036369082517921925,-21.25745183333332,-48.303207333332494,578.2000122070312,0,0,1,-21.2574465,-48.303192499999994,2.0,0.0,0.0,0.0,0.0,-33,98,1,0,0,0,0,0,0,0,0,0,0,0,0,1,0
2024-07-25 20:01:46.406402349,0.0,0.0,0.0,0.0,0.0167198795825243,-0.01118110865354538,-0.0036369082517921925,-21.25745183333332,-48.303207333332494,578.2000122070312,0,0,1,-21.2574465,-48.303192499999994,2.0,0.0,0.0,0.0,0.0,-33,98,1,0,0,0,0,0,0,0,0,0,0,0,0,1,0
2024-07-25 20:01:46.507107258,0.0,0.0,0.0,0.0,0.0167198795825243,-0.01118110865354538,-0.0036369082517921925,-21.25745183333332,-48.303207333332494,578.2000122070312,0,0,1,-21.2574465,-48.303192499999994,2.0,0.0,0.0,0.0,0.0,-33,98,1,0,0,0,0,0,0,0,0,0,0,0,0,1,0
2024-07-25 20:01:46.621301413,0.0,0.0,0.0,0.0,0.01671520620584488,-0.011270839720964432,-0.003769980277866125,-21.257451666666142,-48.303207333332494,578.2000122070312,0,0,1,-21.2574465,-48.303192499999994,2.0,0.0,0.0,0.0,0.0,-33,98,1,0,0,0,0,0,0,0,0,0,0,0,0,1,0
2024-07-25 20:01:46.724901915,0.0,0.0,0.0,0.0,0.016604306176304817,-0.011430120095610619,-0.0038265972398221493,-21.25745149999942,-48.30320716666615,578.2999877929688,0,0,1,-21.2574465,-48.303192499999994,2.0,0.0,0.0,0.0,0.0,-33,98,1,0,0,0,0,0,0,0,0,0,0,0,0,1,0
2024-07-25 20:01:46.849437237,0.0,0.0,0.0,0.0,0.016604306176304817,-0.011430120095610619,-0.0038265972398221493,-21.25745149999942,-48.30320716666615,578.2999877929688,0,0,1,-21.2574465,-48.303192499999994,2.0,0.0,0.0,0.0,0.0,-33,98,1,0,0,0,0,0,0,0,0,0,0,0,0,1,0
2024-07-25 20:01:46.951609373,0.0,0.0,0.0,0.0,0.016604306176304817,-0.011430120095610619,-0.0038265972398221493,-21.25745149999942,-48.30320716666615,578.2999877929688,0,0,1,-21.2574465,-48.303192499999994,2.0,0.0,0.0,0.0,0.0,-33,98,1,0,0,0,0,0,0,0,0,0,0,0,0,1,0
2024-07-25 20:01:47.056515932,0.0,0.0,0.0,0.0,0.016604306176304817,-0.011430120095610619,-0.0038265972398221493,-21.25745149999942,-48.30320716666615,578.2999877929688,0,0,1,-21.2574465,-48.303192499999994,2.0,0.0,0.0,0.0,0.0,-33,98,1,0,0,0,0,0,0,0,0,0,0,0,0,1,0
2024-07-25 20:01:47.158018112,0.0,0.0,0.0,0.0,0.016604306176304817,-0.011430120095610619,-0.0038265972398221493,-21.25745149999942,-48.30320716666615,578.2999877929688,0,0,1,-21.2574465,-48.303192499999994,2.0,0.0,0.0,0.0,0.0,-33,98,1,0,0,0,0,0,0,0,0,0,0,0,0,1,0
2024-07-25 20:01:47.258775949,0.0,0.0,0.0,0.0,0.016604306176304817,-0.011430120095610619,-0.0038265972398221493,-21.25745149999942,-48.30320716666615,578.2999877929688,0,0,1,-21.2574465,-48.303192499999994,2.0,0.0,0.0,0.0,0.0,-33,98,1,0,0,0,0,0,0,0,0,0,0,0,0,1,0
2024-07-25 20:01:47.361128330,0.0,0.0,0.0,0.0,0.016604306176304817,-0.011430120095610619,-0.0038265972398221493,-21.25745149999942,-48.30320716666615,578.2999877929688,0,0,1,-21.2574465,-48.303192499999994,2.0,0.0,0.0,0.0,0.0,-33,98,1,0,0,0,0,0,0,0,0,0,0,0,0,1,0
2024-07-25 20:01:47.462265968,0.0,0.0,0.0,0.0,0.016604306176304817,-0.011430120095610619,-0.0038265972398221493,-21.25745149999942,-48.30320716666615,578.2999877929688,0,0,1,-21.2574465,-48.303192499999994,2.0,0.0,0.0,0.0,0.0,-33,98,1,0,0,0,0,0,0,0,0,0,0,0,0,1,0
2024-07-25 20:01:47.563930511,0.0,0.0,0.0,0.0,0.016534913331270218,-0.011239846237003803,-0.0040223803371191025,-21.25745133333315,-48.3032069999998,578.4000244140625,0,0,1,-21.2574465,-48.303192499999994,2.0,0.0,0.0,0.0,0.0,-33,98,1,0,0,0,0,0,0,0,0,0,0,0,0,1,0
2024-07-25 20:01:47.666003704,0.0,0.0,0.0,0.0,0.016534913331270218,-0.011239846237003803,-0.0040223803371191025,-21.257451166665973,-48.3032069999998,578.4000244140625,0,0,1,-21.2574465,-48.303192499999994,2.0,0.0,0.0,0.0,0.0,-33,98,1,0,0,0,0,0,0,0,0,0,0,0,0,1,0
2024-07-25 20:01:47.773362875,0.0,0.0,0.0,0.0,0.016534913331270218,-0.011239846237003803,-0.0040223803371191025,-21.257451166665973,-48.3032069999998,578.4000244140625,0,0,1,-21.2574465,-48.303192499999994,2.0,0.0,0.0,0.0,0.0,-33,98,1,0,0,0,0,0,0,0,0,0,0,0,0,1,0
2024-07-25 20:01:47.874045134,0.0,0.0,0.0,0.0,0.016534913331270218,-0.011239846237003803,-0.0040223803371191025,-21.257451166665973,-48.3032069999998,578.4000244140625,0,0,1,-21.2574465,-48.303192499999994,2.0,0.0,0.0,0.0,0.0,-33,98,1,0,0,0,0,0,0,0,0,0,0,0,0,1,0
2024-07-25 20:01:47.977461100,0.0,0.0,0.0,0.0,0.016534913331270218,-0.011239846237003803,-0.0040223803371191025,-21.257451166665973,-48.3032069999998,578.4000244140625,0,0,1,-21.2574465,-48.303192499999994,2.0,0.0,0.0,0.0,0.0,-33,98,1,0,0,0,0,0,0,0,0,0,0,0,0,1,0
2024-07-25 20:01:48.077735901,0.0,0.0,0.0,0.0,0.016534913331270218,-0.011239846237003803,-0.0040223803371191025,-21.257451166665973,-48.3032069999998,578.4000244140625,0,0,1,-21.2574465,-48.303192499999994,2.0,0.0,0.0,0.0,0.0,-33,98,1,0,0,0,0,0,0,0,0,0,0,0,0,1,0
2024-07-25 20:01:48.178692818,0.0,0.0,0.0,0.0,0.016534913331270218,-0.011239846237003803,-0.0040223803371191025,-21.257451166665973,-48.3032069999998,578.4000244140625,0,0,1,-21.2574465,-48.303192499999994,2.0,0.0,0.0,0.0,0.0,-33,98,1,0,0,0,0,0,0,0,0,0,0,0,0,1,0
2024-07-25 20:01:48.279695034,0.0,0.0,0.0,0.0,0.016534913331270218,-0.011239846237003803,-0.0040223803371191025,-21.257451166665973,-48.3032069999998,578.4000244140625,0,0,1,-21.2574465,-48.303192499999994,2.0,0.0,0.0,0.0,0.0,-33,98,1,0,0,0,0,0,0,0,0,0,0,0,0,1,0
2024-07-25 20:01:48.381012201,0.0,0.0,0.0,0.0,0.016534913331270218,-0.011239846237003803,-0.0040223803371191025,-21.257451166665973,-48.3032069999998,578.4000244140625,0,0,1,-21.2574465,-48.303192499999994,2.0,0.0,0.0,0.0,0.0,-33,98,1,0,0,0,0,0,0,0,0,0,0,0,0,1,0
2024-07-25 20:01:48.482824802,0.0,0.0,0.0,0.0,0.016534913331270218,-0.011239846237003803,-0.0040223803371191025,-21.257451166665973,-48.3032069999998,578.4000244140625,0,0,1,-21.2574465,-48.303192499999994,2.0,0.0,0.0,0.0,0.0,-33,98,1,0,0,0,0,0,0,0,0,0,0,0,0,1,0
2024-07-25 20:01:48.583273411,0.0,0.0,0.0,0.0,0.016581466421484947,-0.010875306092202663,-0.004243140108883381,-21.25745083333298,-48.3032069999998,578.5,0,0,1,-21.2574465,-48.303192499999994,2.0,0.0,0.0,0.0,0.0,-32,98,1,0,0,0,0,0,0,0,0,0,0,0,0,1,0
2024-07-25 20:01:48.685465097,0.0,0.0,0.0,0.0,0.016581466421484947,-0.010875306092202663,-0.004243140108883381,-21.25745066666626,-48.3032069999998,578.5,0,0,1,-21.2574465,-48.303192499999994,2.0,0.0,0.0,0.0,0.0,-32,98,1,0,0,0,0,0,0,0,0,0,0,0,0,1,0
2024-07-25 20:01:48.788259506,0.0,0.0,0.0,0.0,0.016581466421484947,-0.010875306092202663,-0.004243140108883381,-21.25745066666626,-48.3032069999998,578.5,0,0,1,-21.2574465,-48.303192499999994,2.0,0.0,0.0,0.0,0.0,-32,98,1,0,0,0,0,0,0,0,0,0,0,0,0,1,0
2024-07-25 20:01:48.889847755,0.0,0.0,0.0,0.0,0.016581466421484947,-0.010875306092202663,-0.004243140108883381,-21.25745066666626,-48.3032069999998,578.5,0,0,1,-21.2574465,-48.303192499999994,2.0,0.0,0.0,0.0,0.0,-32,98,1,0,0,0,0,0,0,0,0,0,0,0,0,1,0
2024-07-25 20:01:48.990552902,0.0,0.0,0.0,0.0,0.016581466421484947,-0.010875306092202663,-0.004243140108883381,-21.25745066666626,-48.3032069999998,578.5,0,0,1,-21.2574465,-48.303192499999994,2.0,0.0,0.0,0.0,0.0,-32,98,1,0,0,0,0,0,0,0,0,0,0,0,0,1,0
2024-07-25 20:01:49.091640949,0.0,0.0,0.0,0.0,0.016581466421484947,-0.010875306092202663,-0.004243140108883381,-21.25745066666626,-48.3032069999998,578.5,0,0,1,-21.2574465,-48.303192499999994,2.0,0.0,0.0,0.0,0.0,-32,98,1,0,0,0,0,0,0,0,0,0,0,0,0,1,0
2024-07-25 20:01:49.194062710,0.0,0.0,0.0,0.0,0.016581466421484947,-0.010875306092202663,-0.004243140108883381,-21.25745066666626,-48.3032069999998,578.5,0,0,1,-21.2574465,-48.303192499999994,2.0,0.0,0.0,0.0,0.0,-32,98,1,0,0,0,0,0,0,0,0,0,0,0,0,1,0
2024-07-25 20:01:49.294978380,0.0,0.0,0.0,0.0,0.016581466421484947,-0.010875306092202663,-0.004243140108883381,-21.25745066666626,-48.3032069999998,578.5,0,0,1,-21.2574465,-48.303192499999994,2.0,0.0,0.0,0.0,0.0,-32,98,1,0,0,0,0,0,0,0,0,0,0,0,0,1,0
2024-07-25 20:01:49.398041248,0.0,0.0,0.0,0.0,0.016581466421484947,-0.010875306092202663,-0.004243140108883381,-21.25745066666626,-48.3032069999998,578.5,0,0,1,-21.2574465,-48.303192499999994,2.0,0.0,0.0,0.0,0.0,-32,98,1,0,0,0,0,0,0,0,0,0,0,0,0,1,0
2024-07-25 20:01:49.498661280,0.0,0.0,0.0,0.0,0.016356905922293663,-0.011146345175802708,-0.004469448700547218,-21.257450333332812,-48.3032069999998,578.5,0,0,1,-21.2574465,-48.303192499999994,2.0,0.0,0.0,0.0,0.0,-32,98,1,0,0,0,0,0,0,0,0,0,0,0,0,1,0
2024-07-25 20:01:49.600293636,0.0,0.0,0.0,0.0,0.016356905922293663,-0.011146345175802708,-0.004469448700547218,-21.257450333332812,-48.3032069999998,578.5,0,0,1,-21.2574465,-48.303192499999994,2.0,0.0,0.0,0.0,0.0,-32,98,1,0,0,0,0,0,0,0,0,0,0,0,0,1,0
2024-07-25 20:01:49.701339483,0.0,0.0,0.0,0.0,0.016356905922293663,-0.011146345175802708,-0.004469448700547218,-21.257450333332812,-48.3032069999998,578.5,0,0,1,-21.2574465,-48.303192499999994,2.0,0.0,0.0,0.0,0.0,-32,98,1,0,0,0,0,0,0,0,0,0,0,0,0,1,0
2024-07-25 20:01:49.802793026,0.0,0.0,0.0,0.0,0.016356905922293663,-0.011146345175802708,-0.004469448700547218,-21.257450333332812,-48.3032069999998,578.5,0,0,1,-21.2574465,-48.303192499999994,2.0,0.0,0.0,0.0,0.0,-32,98,1,0,0,0,0,0,0,0,0,0,0,0,0,1,0
2024-07-25 20:01:49.904350758,0.0,0.0,0.0,0.0,0.016356905922293663,-0.011146345175802708,-0.004469448700547218,-21.257450333332812,-48.3032069999998,578.5,0,0,1,-21.2574465,-48.303192499999994,2.0,0.0,0.0,0.0,0.0,-32,98,1,0,0,0,0,0,0,0,0,0,0,0,0,1,0
2024-07-25 20:01:50.005681515,0.0,0.0,0.0,0.0,0.016356905922293663,-0.011146345175802708,-0.004469448700547218,-21.257450333332812,-48.3032069999998,578.5,0,0,1,-21.2574465,-48.303192499999994,2.0,0.0,0.0,0.0,0.0,-32,98,1,0,0,0,0,0,0,0,0,0,0,0,0,1,0
2024-07-25 20:01:50.106355906,0.0,0.0,0.0,0.0,0.016356905922293663,-0.011146345175802708,-0.004469448700547218,-21.257450333332812,-48.3032069999998,578.5,0,0,1,-21.2574465,-48.303192499999994,2.0,0.0,0.0,0.0,0.0,-32,98,1,0,0,0,0,0,0,0,0,0,0,0,0,1,0
2024-07-25 20:01:50.207731485,0.0,0.0,0.0,0.0,0.016356905922293663,-0.011146345175802708,-0.004469448700547218,-21.257450333332812,-48.3032069999998,578.5,0,0,1,-21.2574465,-48.303192499999994,2.0,0.0,0.0,0.0,0.0,-32,98,1,0,0,0,0,0,0,0,0,0,0,0,0,1,0
2024-07-25 20:01:50.309382915,0.0,0.0,0.0,0.0,0.016356905922293663,-0.011146345175802708,-0.004469448700547218,-21.257450333332812,-48.3032069999998,578.5,0,0,1,-21.2574465,-48.303192499999994,2.0,0.0,0.0,0.0,0.0,-32,98,1,0,0,0,0,0,0,0,0,0,0,0,0,1,0
2024-07-25 20:01:50.410542965,0.0,0.0,0.0,0.0,0.016356905922293663,-0.011146345175802708,-0.004469448700547218,-21.257450333332812,-48.3032069999998,578.5,0,0,1,-21.2574465,-48.303192499999994,2.0,0.0,0.0,0.0,0.0,-32,98,1,0,0,0,0,0,0,0,0,0,0,0,0,1,0
2024-07-25 20:01:50.510780334,0.0,0.0,0.0,0.0,0.016400473192334175,-0.011014158837497234,-0.0046594091691076756,-21.257449666666602,-48.30320716666615,578.7000122070312,0,0,1,-21.2574465,-48.303192499999994,2.0,0.0,0.0,0.0,0.0,-32,98,1,0,0,0,0,0,0,0,0,0,0,0,0,1,0
2024-07-25 20:01:50.611096621,0.0,0.0,0.0,0.0,0.016400473192334175,-0.011014158837497234,-0.0046594091691076756,-21.257449666666602,-48.30320716666615,578.7000122070312,0,0,1,-21.2574465,-48.303192499999994,2.0,0.0,0.0,0.0,0.0,-32,98,1,0,0,0,0,0,0,0,0,0,0,0,0,1,0
2024-07-25 20:01:50.725947380,0.0,0.0,0.0,0.0,0.016400473192334175,-0.011014158837497234,-0.0046594091691076756,-21.257449666666602,-48.30320716666615,578.7000122070312,0,0,1,-21.2574465,-48.303192499999994,2.0,0.0,0.0,0.0,0.0,-32,98,1,0,0,0,0,0,0,0,0,0,0,0,0,1,0
2024-07-25 20:01:50.826267481,0.0,0.0,0.0,0.0,0.016400473192334175,-0.011014158837497234,-0.0046594091691076756,-21.257449666666602,-48.30320716666615,578.7000122070312,0,0,1,-21.2574465,-48.303192499999994,2.0,0.0,0.0,0.0,0.0,-32,98,1,0,0,0,0,0,0,0,0,0,0,0,0,1,0
2024-07-25 20:01:50.933003426,0.0,0.0,0.0,0.0,0.016400473192334175,-0.011014158837497234,-0.0046594091691076756,-21.257449666666602,-48.30320716666615,578.7000122070312,0,0,1,-21.2574465,-48.303192499999994,2.0,0.0,0.0,0.0,0.0,-32,98,1,0,0,0,0,0,0,0,0,0,0,0,0,1,0
2024-07-25 20:01:51.033980370,0.0,0.0,0.0,0.0,0.016400473192334175,-0.011014158837497234,-0.0046594091691076756,-21.257449666666602,-48.30320716666615,578.7000122070312,0,0,1,-21.2574465,-48.303192499999994,2.0,0.0,0.0,0.0,0.0,-32,98,1,0,0,0,0,0,0,0,0,0,0,0,0,1,0
2024-07-25 20:01:51.135128021,0.0,0.0,0.0,0.0,0.016400473192334175,-0.011014158837497234,-0.0046594091691076756,-21.257449666666602,-48.30320716666615,578.7000122070312,0,0,1,-21.2574465,-48.303192499999994,2.0,0.0,0.0,0.0,0.0,-32,98,1,0,0,0,0,0,0,0,0,0,0,0,0,1,0
2024-07-25 20:01:51.236187220,0.0,0.0,0.0,0.0,0.016400473192334175,-0.011014158837497234,-0.0046594091691076756,-21.257449666666602,-48.30320716666615,578.7000122070312,0,0,1,-21.2574465,-48.303192499999994,2.0,0.0,0.0,0.0,0.0,-32,98,1,0,0,0,0,0,0,0,0,0,0,0,0,1,0
2024-07-25 20:01:51.336712599,0.0,0.0,0.0,0.0,0.016400473192334175,-0.011014158837497234,-0.0046594091691076756,-21.257449666666602,-48.30320716666615,578.7000122070312,0,0,1,-21.2574465,-48.303192499999994,2.0,0.0,0.0,0.0,0.0,-32,98,1,0,0,0,0,0,0,0,0,0,0,0,0,1,0
2024-07-25 20:01:51.446926117,0.0,0.0,0.0,0.0,0.01657346822321415,-0.01135328784584999,-0.00490378774702549,-21.257448833332987,-48.30320749999999,578.7999877929688,0,0,1,-21.2574465,-48.303192499999994,2.0,0.0,0.0,0.0,0.0,-32,98,1,0,0,0,0,0,0,0,0,0,0,0,0,1,0
2024-07-25 20:01:51.547549248,0.0,0.0,0.0,0.0,0.016574064269661903,-0.011378791183233261,-0.004940792918205261,-21.257448833332987,-48.30320749999999,578.7999877929688,0,0,1,-21.2574465,-48.303192499999994,2.0,0.0,0.0,0.0,0.0,-32,98,1,0,0,0,0,0,0,0,0,0,0,0,0,1,0
2024-07-25 20:01:51.655837536,0.0,0.0,0.0,0.0,0.016574064269661903,-0.011378791183233261,-0.004940792918205261,-21.257448833332987,-48.30320749999999,578.7999877929688,0,0,1,-21.2574465,-48.303192499999994,2.0,0.0,0.0,0.0,0.0,-32,98,1,0,0,0,0,0,0,0,0,0,0,0,0,1,0
2024-07-25 20:01:51.756326914,0.0,0.0,0.0,0.0,0.016574064269661903,-0.011378791183233261,-0.004940792918205261,-21.257448833332987,-48.30320749999999,578.7999877929688,0,0,1,-21.2574465,-48.303192499999994,2.0,0.0,0.0,0.0,0.0,-32,98,1,0,0,0,0,0,0,0,0,0,0,0,0,1,0
2024-07-25 20:01:51.857100964,0.0,0.0,0.0,0.0,0.016574064269661903,-0.011378791183233261,-0.004940792918205261,-21.257448833332987,-48.30320749999999,578.7999877929688,0,0,1,-21.2574465,-48.303192499999994,2.0,0.0,0.0,0.0,0.0,-32,98,1,0,0,0,0,0,0,0,0,0,0,0,0,1,0
2024-07-25 20:01:51.959622622,0.0,0.0,0.0,0.0,0.016574064269661903,-0.011378791183233261,-0.004940792918205261,-21.257448833332987,-48.30320749999999,578.7999877929688,0,0,1,-21.2574465,-48.303192499999994,2.0,0.0,0.0,0.0,0.0,-32,98,1,0,0,0,0,0,0,0,0,0,0,0,0,1,0
2024-07-25 20:01:52.061299801,0.0,0.0,0.0,0.0,0.016574064269661903,-0.011378791183233261,-0.004940792918205261,-21.257448833332987,-48.30320749999999,578.7999877929688,0,0,1,-21.2574465,-48.303192499999994,2.0,0.0,0.0,0.0,0.0,-32,98,1,0,0,0,0,0,0,0,0,0,0,0,0,1,0
2024-07-25 20:01:52.163029909,0.0,0.0,0.0,0.0,0.016574064269661903,-0.011378791183233261,-0.004940792918205261,-21.257448833332987,-48.30320749999999,578.7999877929688,0,0,1,-21.2574465,-48.303192499999994,2.0,0.0,0.0,0.0,0.0,-32,98,1,0,0,0,0,0,0,0,0,0,0,0,0,1,0
2024-07-25 20:01:52.264890909,0.0,0.0,0.0,0.0,0.016574064269661903,-0.011378791183233261,-0.004940792918205261,-21.257448833332987,-48.30320749999999,578.7999877929688,0,0,1,-21.2574465,-48.303192499999994,2.0,0.0,0.0,0.0,0.0,-32,98,1,0,0,0,0,0,0,0,0,0,0,0,0,1,0
2024-07-25 20:01:52.367843390,0.0,0.0,0.0,0.0,0.01489855907857418,-0.01213354617357254,-0.003957086708396673,-21.25744799999994,-48.30320749999999,578.9000244140625,0,0,1,-21.2574465,-48.303192499999994,2.0,0.0,0.0,0.0,0.0,-32,98,1,0,0,0,0,0,0,0,0,0,0,0,0,1,0
2024-07-25 20:01:52.468620062,0.0,0.0,0.0,0.0,0.01489855907857418,-0.01213354617357254,-0.003957086708396673,-21.25744799999994,-48.30320749999999,578.9000244140625,0,0,1,-21.2574465,-48.303192499999994,2.0,0.0,0.0,0.0,0.0,-32,98,0,0,0,0,0,0,0,0,1,0,0,0,0,1,0
2024-07-25 20:01:52.572360516,0.0,0.0,0.0,0.0,0.016824865713715553,-0.011752394028007984,-0.006257805973291397,-21.25744799999994,-48.30320749999999,578.9000244140625,0,0,1,-21.2574465,-48.303192499999994,2.0,0.0,0.0,0.0,0.0,-32,98,0,0,0,0,0,0,0,0,1,0,0,0,0,1,0
2024-07-25 20:01:52.674334049,0.0,0.0,0.0,0.0,0.016824865713715553,-0.011752394028007984,-0.006257805973291397,-21.25744799999994,-48.30320749999999,578.9000244140625,0,0,1,-21.2574465,-48.303192499999994,2.0,0.0,0.0,0.0,0.0,-32,98,0,0,0,0,0,0,0,0,1,0,0,0,0,1,0
2024-07-25 20:01:52.775431395,0.0,0.0,0.0,0.0,0.016824865713715553,-0.011752394028007984,-0.006257805973291397,-21.25744799999994,-48.30320749999999,578.9000244140625,0,0,1,-21.2574465,-48.303192499999994,2.0,0.0,0.0,0.0,0.0,-32,98,0,0,0,0,0,0,0,0,1,0,0,0,0,1,0
2024-07-25 20:01:52.875974417,0.0,0.0,0.0,0.0,0.016824865713715553,-0.011752394028007984,-0.006257805973291397,-21.25744799999994,-48.30320749999999,578.9000244140625,0,0,1,-21.2574465,-48.303192499999994,2.0,0.0,0.0,0.0,0.0,-32,98,0,0,0,0,0,0,0,0,1,0,0,0,0,1,0
2024-07-25 20:01:52.977416515,0.0,0.0,0.0,0.0,0.016824865713715553,-0.011752394028007984,-0.006257805973291397,-21.25744799999994,-48.30320749999999,578.9000244140625,0,0,1,-21.2574465,-48.303192499999994,2.0,0.0,0.0,0.0,0.0,-32,98,0,0,0,0,0,0,0,0,1,0,0,0,0,1,0
2024-07-25 20:01:53.078829288,0.0,0.0,0.0,0.0,0.016824865713715553,-0.011752394028007984,-0.006257805973291397,-21.25744799999994,-48.30320749999999,578.9000244140625,0,0,1,-21.2574465,-48.303192499999994,2.0,0.0,0.0,0.0,0.0,-32,98,0,0,0,0,0,0,0,0,1,0,0,0,0,1,0
2024-07-25 20:01:53.179905891,0.0,0.0,0.0,0.0,0.016824865713715553,-0.011752394028007984,-0.006257805973291397,-21.25744799999994,-48.30320749999999,578.9000244140625,0,0,1,-21.2574465,-48.303192499999994,2.0,0.0,0.0,0.0,0.0,-32,98,0,0,0,0,0,0,0,0,1,0,0,0,0,1,0
2024-07-25 20:01:53.281226158,0.0,0.0,0.0,0.0,0.016824865713715553,-0.011752394028007984,-0.006257805973291397,-21.25744799999994,-48.30320749999999,578.9000244140625,0,0,1,-21.2574465,-48.303192499999994,2.0,0.0,0.0,0.0,0.0,-32,98,0,0,0,0,0,0,0,0,1,0,0,0,0,1,0
2024-07-25 20:01:53.385304213,0.027524013072252274,-0.017419952899217606,-0.19358372688293457,0.015785664319992065,-0.019988352432847023,0.006606577895581722,-0.004790355451405048,-21.257447333333275,-48.30320799999903,579.0999755859375,0,0,1,-21.2574465,-48.303192499999994,2.0,0.0,0.0,0.0,0.0,-31,98,0,0,1,0,0,0,0,0,0,0,0,0,0,1,0
2024-07-25 20:01:53.487689495,0.07743029296398163,-0.04623423144221306,-0.4353645443916321,0.015785664319992065,-0.019988352432847023,0.006606577895581722,-0.004790355451405048,-21.257447333333275,-48.30320799999903,579.0999755859375,0,0,1,-21.2574465,-48.303192499999994,2.0,0.0,0.0,0.0,0.0,-31,98,0,0,1,0,0,0,0,0,0,0,0,0,0,1,0
2024-07-25 20:01:53.589020491,0.07743029296398163,-0.04623423144221306,-0.4353645443916321,0.07663077861070633,-0.019988352432847023,0.006606577895581722,-0.004790355451405048,-21.257447333333275,-48.30320799999903,579.0999755859375,0,0,1,-21.2574465,-48.303192499999994,2.0,0.0,0.0,0.0,0.0,-31,98,0,0,1,0,0,0,0,0,0,0,0,0,0,1,0
2024-07-25 20:01:53.690376043,0.07743029296398163,-0.04623423144221306,-0.4353645443916321,0.07663077861070633,-0.019988352432847023,0.006606577895581722,-0.004790355451405048,-21.257447333333275,-48.30320799999903,579.0999755859375,0,0,1,-21.2574465,-48.303192499999994,2.0,0.0,0.0,0.0,0.0,-31,98,0,0,1,0,0,0,0,0,0,0,0,0,0,1,0
2024-07-25 20:01:53.791892767,0.07743029296398163,-0.04623423144221306,-0.4353645443916321,0.07663077861070633,-0.019988352432847023,0.006606577895581722,-0.004790355451405048,-21.257447333333275,-48.30320799999903,579.0999755859375,0,0,1,-21.2574465,-48.303192499999994,2.0,0.0,0.0,0.0,0.0,-31,98,0,0,1,0,0,0,0,0,0,0,0,0,0,1,0
2024-07-25 20:01:53.893113136,0.07743029296398163,-0.04623423144221306,-0.4353645443916321,0.07663077861070633,-0.019988352432847023,0.006606577895581722,-0.004790355451405048,-21.257447333333275,-48.30320799999903,579.0999755859375,0,0,1,-21.2574465,-48.303192499999994,2.0,0.0,0.0,0.0,0.0,-31,98,0,0,1,0,0,0,0,0,0,0,0,0,0,1,0
2024-07-25 20:01:53.994405270,0.07743029296398163,-0.04623423144221306,-0.4353645443916321,0.07663077861070633,-0.019988352432847023,0.006606577895581722,-0.004790355451405048,-21.257447333333275,-48.30320799999903,579.0999755859375,0,0,1,-21.2574465,-48.303192499999994,2.0,0.0,0.0,0.0,0.0,-31,98,0,0,1,0,0,0,0,0,0,0,0,0,0,1,0
2024-07-25 20:01:54.094796896,0.07743029296398163,-0.04623423144221306,-0.4353645443916321,0.07663077861070633,-0.019988352432847023,0.006606577895581722,-0.004790355451405048,-21.257447333333275,-48.30320799999903,579.0999755859375,0,0,1,-21.2574465,-48.303192499999994,2.0,0.0,0.0,0.0,0.0,-31,98,0,0,1,0,0,0,0,0,0,0,0,0,0,1,0
2024-07-25 20:01:54.196202993,0.07743029296398163,-0.04623423144221306,-0.4353645443916321,0.07663077861070633,-0.019988352432847023,0.006606577895581722,-0.004790355451405048,-21.257447333333275,-48.30320799999903,579.0999755859375,0,0,1,-21.2574465,-48.303192499999994,2.0,0.0,0.0,0.0,0.0,-31,98,0,0,1,0,0,0,0,0,0,0,0,0,0,1,0
2024-07-25 20:01:54.298606157,0.045666854828596115,0.012005937285721302,-0.8383261561393738,0.5265275835990906,0.0006275618798099458,0.032250504940748215,-0.000610048184171319,-21.257445666666726,-48.30320749999999,579.5999755859375,0,0,1,-21.2574465,-48.303192499999994,2.0,0.0,0.0,0.0,0.0,-32,95,0,0,1,0,0,0,0,0,0,0,0,0,0,1,0
2024-07-25 20:01:54.401078463,0.0013533225283026695,0.006015478167682886,-0.5875986814498901,0.6712499260902405,-0.00017850633594207466,0.02081393450498581,-0.0011580655118450522,-21.257445666666726,-48.30320749999999,579.5999755859375,0,0,1,-21.2574465,-48.303192499999994,2.0,0.0,0.0,0.0,0.0,-32,95,0,0,1,0,0,0,0,0,0,0,0,0,0,1,0
2024-07-25 20:01:54.501488209,0.0002293032594025135,0.0027603209018707275,-0.3646250367164612,0.6712499260902405,-0.00017850633594207466,0.02081393450498581,-0.0011580655118450522,-21.257445666666726,-48.30320749999999,579.5999755859375,0,0,1,-21.2574465,-48.303192499999994,2.0,0.0,0.0,0.0,0.0,-32,95,0,0,1,0,0,0,0,0,0,0,0,0,0,1,0
2024-07-25 20:01:54.622135401,0.0002293032594025135,0.0027603209018707275,-0.3646250367164612,0.7877665162086487,-0.001007430488243699,0.013007208704948425,-0.0011202982859686017,-21.257445666666726,-48.30320749999999,579.5999755859375,0,0,1,-21.2574465,-48.303192499999994,2.0,0.0,0.0,0.0,0.0,-32,95,0,0,1,0,0,0,0,0,0,0,0,0,0,1,0
2024-07-25 20:01:54.726781368,0.007656102068722248,-0.0008277026354335248,-0.21880698204040527,0.8504946231842041,-0.001007430488243699,0.013007208704948425,-0.0011202982859686017,-21.257445500000117,-48.30320716666615,579.9000244140625,0,0,1,-21.2574465,-48.303192499999994,2.0,0.0,0.0,0.0,0.0,-32,94,0,0,1,0,0,0,0,0,0,0,0,0,0,1,0
2024-07-25 20:01:54.827189684,0.007656102068722248,-0.0008277026354335248,-0.21880698204040527,0.8504946231842041,0.00045973536907695234,0.011860095895826817,-0.0012208054540678859,-21.257445500000117,-48.30320716666615,579.9000244140625,0,0,1,-21.2574465,-48.303192499999994,2.0,0.0,0.0,0.0,0.0,-32,94,0,0,0,1,0,0,0,0,0,0,0,0,0,1,0
2024-07-25 20:01:54.929411650,0.012727709487080574,-0.0040988614782691,-0.11207989603281021,0.8928309082984924,0.0018475425895303488,0.013196930289268494,-0.0012774403439834714,-21.257445500000117,-48.30320716666615,579.9000244140625,0,0,1,-21.257445500000117,-48.30320716666615,2.0,0.0,0.0,0.0,0.0,-32,94,0,0,0,1,0,0,0,0,0,0,0,1,0,0,0
2024-07-25 20:01:55.030827284,0.012727709487080574,-0.0040988614782691,-0.11207989603281021,0.8928309082984924,0.0018475425895303488,0.013196930289268494,-0.0012774403439834714,-21.257445500000117,-48.30320716666615,579.9000244140625,0,0,1,-21.257445500000117,-48.30320716666615,2.0,0.0,0.0,0.0,0.0,-32,94,0,0,0,1,0,0,0,0,0,0,0,1,0,0,0
2024-07-25 20:01:55.134895086,0.013958931900560856,0.0005687422235496342,-0.039199840277433395,0.9033502340316772,0.001086747390218079,0.01368920411914587,-0.0017282443586736917,-21.257445500000117,-48.30320716666615,579.9000244140625,0,0,1,-21.257445500000117,-48.30320716666615,2.0,0.0,0.0,0.0,0.0,-32,93,0,0,0,1,0,0,0,0,0,0,0,1,0,0,0
2024-07-25 20:01:55.244485378,0.013958931900560856,0.0005687422235496342,-0.039199840277433395,0.9033502340316772,0.001086747390218079,0.01368920411914587,-0.0017282443586736917,-21.257445500000117,-48.30320716666615,579.9000244140625,0,0,1,-21.257445500000117,-48.30320716666615,2.0,0.0,0.0,0.0,0.0,-31,93,0,0,0,1,0,0,0,0,0,0,0,1,0,0,0
2024-07-25 20:01:55.353162766,0.014368200674653053,-0.0004522661620285362,-0.027691921219229698,0.9016915559768677,0.001086747390218079,0.01368920411914587,-0.0017282443586736917,-21.257445500000117,-48.30320716666615,580.0999755859375,0,0,1,-21.257445500000117,-48.30320716666615,2.0,0.0,0.0,0.0,0.0,-31,93,0,0,0,1,0,0,0,0,0,0,0,1,0,0,0
2024-07-25 20:01:55.464760303,0.014368200674653053,-0.0004522661620285362,-0.027691921219229698,0.9016915559768677,0.00130239047575742,0.015628771856427193,-0.001648538513109088,-21.257445500000117,-48.30320716666615,580.0999755859375,0,0,1,-21.257445500000117,-48.30320716666615,2.0,0.0,0.0,0.0,0.0,-31,93,0,0,0,1,0,0,0,0,0,0,0,1,0,0,0
2024-07-25 20:01:55.566544294,0.011865525506436825,0.0028183639515191317,-0.03706270828843117,0.9038603901863098,-0.00015155859000515193,0.015588067471981049,-0.0007800687453709543,-21.257445500000117,-48.30320716666615,580.0999755859375,0,0,1,-21.257445500000117,-48.30320716666615,2.0,0.0,0.0,0.0,0.0,-31,93,0,0,0,1,0,0,0,0,0,0,0,1,0,0,0
2024-07-25 20:01:55.667291641,0.011865525506436825,0.0028183639515191317,-0.03706270828843117,0.9038603901863098,-0.00015155859000515193,0.015588067471981049,-0.0007800687453709543,-21.257445500000117,-48.30320716666615,580.0999755859375,0,0,1,-21.257445500000117,-48.30320716666615,2.0,0.0,0.0,0.0,0.0,-31,92,0,0,0,1,0,0,0,0,0,0,0,1,0,0,0
2024-07-25 20:01:55.770106554,0.008707262575626373,0.006437311414629221,-0.056322865188121796,0.9152307510375977,0.00029200364951975644,0.01527759525924921,-0.0007728775963187218,-21.257445333333507,-48.30320716666615,580.2000122070312,0,0,1,-21.257445500000117,-48.30320716666615,2.0,0.0,0.0,0.0,0.0,-31,92,0,0,0,1,0,0,0,0,0,0,0,1,0,0,0
2024-07-25 20:01:55.873870373,0.008707262575626373,0.006437311414629221,-0.056322865188121796,0.9152307510375977,0.00029200364951975644,0.01527759525924921,-0.0007728775963187218,-21.257445333333507,-48.30320716666615,580.2000122070312,0,0,1,-21.257445500000117,-48.30320716666615,2.0,0.0,0.0,0.0,0.0,-31,92,0,0,0,1,0,0,0,0,0,0,0,1,0,0,0
2024-07-25 20:01:55.975897551,0.007109001744538546,0.004421214573085308,-0.034714940935373306,0.9275900721549988,-0.00092637276975438,0.013749630190432072,-0.0007315721595659852,-21.257445333333507,-48.30320716666615,580.2000122070312,0,0,1,-21.257445500000117,-48.30320716666615,2.0,0.0,0.0,0.0,0.0,-31,92,0,0,0,1,0,0,0,0,0,0,0,1,0,0,0
2024-07-25 20:01:56.078628302,0.007109001744538546,0.004421214573085308,-0.034714940935373306,0.9275900721549988,-0.00092637276975438,0.013749630190432072,-0.0007315721595659852,-21.257445333333507,-48.30320716666615,580.2000122070312,0,0,1,-21.257445500000117,-48.30320716666615,2.0,0.0,0.0,0.0,0.0,-31,92,0,0,0,1,0,0,0,0,0,0,0,1,0,0,0
2024-07-25 20:01:56.179447889,0.004996446426957846,0.008312924765050411,-0.02857060916721821,0.9172301292419434,-0.0012204903177917004,0.017477285116910934,-0.00047813920537009835,-21.257445333333507,-48.30320716666615,580.2000122070312,0,0,1,-21.257445500000117,-48.30320716666615,2.0,0.0,0.0,0.0,0.0,-31,91,0,0,0,1,0,0,0,0,0,0,0,1,0,0,0
2024-07-25 20:01:56.289722443,0.004996446426957846,0.008312924765050411,-0.02857060916721821,0.9172301292419434,-0.0012204903177917004,0.017477285116910934,-0.00047813920537009835,-21.257445333333507,-48.30320716666615,580.2000122070312,0,0,1,-21.257445500000117,-48.30320716666615,2.0,0.0,0.0,0.0,0.0,-31,91,0,0,0,1,0,0,0,0,0,0,0,1,0,0,0
2024-07-25 20:01:56.390485287,-0.0017350323032587767,0.00592452846467495,-0.04446565359830856,0.9232350587844849,-0.00254736072383821,0.022532518953084946,-0.000567685579881072,-21.25744516666667,-48.30320749999999,580.2999877929688,0,0,1,-21.257445500000117,-48.30320716666615,2.0,0.0,0.0,0.0,0.0,-31,91,0,0,0,1,0,0,0,0,0,0,0,1,0,0,0
2024-07-25 20:01:56.492195129,-0.01151262503117323,0.005948688834905624,-0.04371057078242302,0.9232350587844849,-0.00254736072383821,0.022532518953084946,-0.000567685579881072,-21.25744516666667,-48.30320749999999,580.2999877929688,0,0,1,-21.257445500000117,-48.30320716666615,2.0,0.0,0.0,0.0,0.0,-31,91,0,0,0,1,0,0,0,0,0,0,0,1,0,0,0
2024-07-25 20:01:56.592468977,-0.01151262503117323,0.005948688834905624,-0.04371057078242302,0.9141297340393066,-0.004639889113605022,0.022970808669924736,-0.000680275319609791,-21.25744516666667,-48.30320749999999,580.2999877929688,0,0,1,-21.257445500000117,-48.30320716666615,2.0,0.0,0.0,0.0,0.0,-31,91,0,0,0,1,0,0,0,0,0,0,0,1,0,0,0
2024-07-25 20:01:56.693384171,-0.01151262503117323,0.005948688834905624,-0.04371057078242302,0.9141297340393066,-0.004639889113605022,0.022970808669924736,-0.000680275319609791,-21.25744516666667,-48.30320749999999,580.2999877929688,0,0,1,-21.257445500000117,-48.30320716666615,2.0,0.0,0.0,0.0,0.0,-31,90,0,0,0,1,0,0,0,0,0,0,0,1,0,0,0
2024-07-25 20:01:56.794280767,-0.019097911193966866,0.004882571287453175,-0.04815862700343132,0.922687828540802,-0.004921681713312864,0.022598937153816223,0.00010124022810487077,-21.25744483333345,-48.303207833332685,580.4000244140625,0,0,1,-21.257445500000117,-48.30320716666615,2.0,0.0,0.0,0.0,0.0,-31,90,0,0,0,1,0,0,0,0,0,0,0,1,0,0,0
2024-07-25 20:01:56.897924423,-0.022737765684723854,-0.005066466983407736,-0.04316083341836929,0.922687828540802,-0.004921681713312864,0.022598937153816223,0.00010124022810487077,-21.25744483333345,-48.303207833332685,580.4000244140625,0,0,1,-21.257445500000117,-48.30320716666615,2.0,0.0,0.0,0.0,0.0,-31,90,0,0,0,1,0,0,0,0,0,0,0,1,0,0,0
2024-07-25 20:01:57.001499176,-0.022737765684723854,-0.005066466983407736,-0.04316083341836929,0.9274607300758362,-0.0045079500414431095,0.02192135527729988,-0.00020178058184683323,-21.25744483333345,-48.303207833332685,580.4000244140625,0,0,1,-21.257445500000117,-48.30320716666615,2.0,0.0,0.0,0.0,0.0,-31,90,0,0,0,1,0,0,0,0,0,0,0,1,0,0,0
2024-07-25 20:01:57.104643822,-0.021529419347643852,-0.0009573438437655568,-0.05163081735372543,0.9274607300758362,-0.0045079500414431095,0.02192135527729988,-0.00020178058184683323,-21.25744483333345,-48.303207833332685,580.4000244140625,0,0,1,-21.257445500000117,-48.30320716666615,2.0,0.0,0.0,0.0,0.0,-31,90,0,0,0,1,0,0,0,0,0,0,0,1,0,0,0
2024-07-25 20:01:57.205207109,-0.021529419347643852,-0.0009573438437655568,-0.05163081735372543,0.934023380279541,-0.0009394012158736587,0.020313452929258347,-0.00048543192679062486,-21.25744483333345,-48.303207833332685,580.4000244140625,0,0,1,-21.257445500000117,-48.30320716666615,2.0,0.0,0.0,0.0,0.0,-31,89,0,0,0,1,0,0,0,0,0,0,0,1,0,0,0
2024-07-25 20:01:57.306772709,-0.021529419347643852,-0.0009573438437655568,-0.05163081735372543,0.934023380279541,-0.0009394012158736587,0.020313452929258347,-0.00048543192679062486,-21.25744483333345,-48.303207833332685,580.4000244140625,0,0,1,-21.257445500000117,-48.30320716666615,2.0,0.0,0.0,0.0,0.0,-31,89,0,0,0,1,0,0,0,0,0,0,0,1,0,0,0
2024-07-25 20:01:57.407690763,-0.021875742822885513,-0.003275900613516569,-0.04151993989944458,0.9301518201828003,-0.0012327325530350208,0.020683083683252335,-0.0004993912880308926,-21.257444666666842,-48.30320816666653,580.5,0,0,1,-21.257445500000117,-48.30320716666615,2.0,0.0,0.0,0.0,0.0,-31,89,0,0,0,1,0,0,0,0,0,0,0,1,0,0,0
2024-07-25 20:01:57.508361815,-0.02330327033996582,0.001021466450765729,-0.05090878903865814,0.9301518201828003,-0.0012327325530350208,0.020683083683252335,-0.0004993912880308926,-21.257444666666842,-48.30320816666653,580.5,0,0,1,-21.257445500000117,-48.30320716666615,2.0,0.0,0.0,0.0,0.0,-31,89,0,0,0,1,0,0,0,0,0,0,0,1,0,0,0
2024-07-25 20:01:57.614999533,-0.02330327033996582,0.001021466450765729,-0.05090878903865814,0.9276096224784851,-0.0026247194036841393,0.022072549909353256,-0.00028671702602878213,-21.257444666666842,-48.30320816666653,580.5,0,0,1,-21.257445500000117,-48.30320716666615,2.0,0.0,0.0,0.0,0.0,-31,89,0,0,0,1,0,0,0,0,0,0,0,1,0,0,0
2024-07-25 20:01:57.718810558,-0.02330327033996582,0.001021466450765729,-0.05090878903865814,0.9276096224784851,-0.0026247194036841393,0.022072549909353256,-0.00028671702602878213,-21.25744483333345,-48.303208666665576,580.5999755859375,0,0,1,-21.257445500000117,-48.30320716666615,2.0,0.0,0.0,0.0,0.0,-31,89,0,0,0,1,0,0,0,0,0,0,0,1,0,0,0
2024-07-25 20:01:57.821253777,-0.024160955101251602,-0.007350553292781115,-0.06983539462089539,0.9584605097770691,-0.002121020806953311,0.022021953016519547,-0.001140650361776352,-21.25744483333345,-48.303208666665576,580.5999755859375,0,0,1,-21.257445500000117,-48.30320716666615,2.0,0.0,0.0,0.0,0.0,-31,89,0,0,0,1,0,0,0,0,0,0,0,1,0,0,0
2024-07-25 20:01:57.922594070,-0.022279806435108185,-0.0029769474640488625,-0.07061228156089783,0.9584605097770691,-0.002121020806953311,0.022021953016519547,-0.001140650361776352,-21.25744483333345,-48.303208666665576,580.5999755859375,0,0,1,-21.257445500000117,-48.30320716666615,2.0,0.0,0.0,0.0,0.0,-31,88,0,0,0,1,0,0,0,0,0,0,0,1,0,0,0
2024-07-25 20:01:58.024560928,-0.022279806435108185,-0.0029769474640488625,-0.07061228156089783,0.9898542761802673,-0.00035177820245735347,0.022761059924960136,-0.001851712237112224,-21.25744483333345,-48.303208666665576,580.5999755859375,0,0,1,-21.257445500000117,-48.30320716666615,2.0,0.0,0.0,0.0,0.0,-31,88,0,0,0,1,0,0,0,0,0,0,0,1,0,0,0
2024-07-25 20:01:58.126582383,-0.02510235086083412,-0.0013575375778600574,-0.03958507254719734,1.003605842590332,-0.00035177820245735347,0.022761059924960136,-0.001851712237112224,-21.25744483333345,-48.303208666665576,580.5999755859375,0,0,1,-21.257445500000117,-48.30320716666615,2.0,0.0,0.0,0.0,0.0,-31,88,0,0,0,1,0,0,0,0,0,0,0,1,0,0,0
2024-07-25 20:01:58.228766203,-0.02510235086083412,-0.0013575375778600574,-0.03958507254719734,1.003605842590332,-3.9085167372832075e-05,0.022878848016262054,-0.001434281817637384,-21.25744483333345,-48.303208666665576,580.5999755859375,0,0,1,-21.257445500000117,-48.30320716666615,2.0,0.0,0.0,0.0,0.0,-31,88,0,0,0,1,0,0,0,0,0,0,0,1,0,0,0
2024-07-25 20:01:58.330819368,-0.02510235086083412,-0.0013575375778600574,-0.03958507254719734,1.003605842590332,-3.9085167372832075e-05,0.022878848016262054,-0.001434281817637384,-21.25744516666667,-48.30320899999942,580.7999877929688,0,0,1,-21.257445500000117,-48.30320716666615,2.0,0.0,0.0,0.0,0.0,-31,88,0,0,0,1,0,0,0,0,0,0,0,1,0,0,0
2024-07-25 20:01:58.431693316,-0.02545939013361931,-0.0016932397847995162,-0.02890721894800663,1.0156022310256958,-0.0021165162324905396,0.020367473363876343,-0.0014379003550857306,-21.25744516666667,-48.30320899999942,580.7999877929688,0,0,1,-21.257445500000117,-48.30320716666615,2.0,0.0,0.0,0.0,0.0,-31,88,0,0,0,1,0,0,0,0,0,0,0,1,0,0,0
2024-07-25 20:01:58.532299042,-0.021198805421590805,-0.002954247407615185,-0.010749226436018944,1.0253878831863403,-0.0021165162324905396,0.020367473363876343,-0.0014379003550857306,-21.25744516666667,-48.30320899999942,580.7999877929688,0,0,1,-21.257445500000117,-48.30320716666615,2.0,0.0,0.0,0.0,0.0,-31,88,0,0,0,0,1,0,0,0,0,0,0,1,0,0,0
2024-07-25 20:01:58.654307842,-0.021198805421590805,-0.002954247407615185,-0.010749226436018944,1.0253878831863403,0.0004850178665947169,0.02093394473195076,-0.002025661990046501,-21.25744516666667,-48.30320899999942,580.7999877929688,0,0,1,-21.257445500000117,-48.30320716666615,2.0,0.0,0.0,0.0,0.0,-31,88,0,0,0,0,1,0,0,0,0,0,0,1,0,0,0
2024-07-25 20:01:58.755690813,-0.020495623350143433,0.02244523912668228,-0.08993744850158691,1.0253878831863403,0.0004850178665947169,0.02093394473195076,-0.002025661990046501,-21.257445336233204,-48.303209167574536,580.9000244140625,0,0,1,-21.257445500000117,-48.30320716666615,2.0,0.0,0.0,0.0,0.0,-31,87,0,0,0,0,1,0,0,0,0,0,0,1,0,0,0
2024-07-25 20:01:58.860536575,-0.020495623350143433,0.02244523912668228,-0.08993744850158691,1.031433343887329,0.029467590153217316,0.02048545330762863,-0.0016962664667516947,-21.257445336233204,-48.303209167574536,580.9000244140625,0,0,1,-21.257445500000117,-48.30320716666615,2.0,0.0,0.0,0.0,0.0,-31,87,0,0,0,0,1,0,0,0,0,0,0,1,0,0,0
2024-07-25 20:01:58.966807604,-0.018486032262444496,0.07333143800497055,-0.07493828982114792,1.0392488241195679,0.0425439216196537,0.018344616517424583,-0.001419316278770566,-21.257445336233204,-48.303209167574536,580.9000244140625,0,0,1,-21.257445500000117,-48.30320716666615,2.0,0.0,0.0,0.0,0.0,-31,87,0,0,0,0,1,0,0,0,0,0,0,1,0,0,0
2024-07-25 20:01:59.117013693,-0.018486032262444496,0.07333143800497055,-0.07493828982114792,1.0392488241195679,0.0425439216196537,0.018344616517424583,-0.001419316278770566,-21.257445336233204,-48.303209167574536,580.9000244140625,0,0,1,-21.257445500000117,-48.30320716666615,2.0,0.0,0.0,0.0,0.0,-31,87,0,0,0,0,1,0,0,0,0,0,0,1,0,0,0
2024-07-25 20:01:59.217522621,-0.015911640599370003,0.13201554119586945,-0.04543765261769295,1.0405761003494263,0.03601263836026192,0.017556123435497284,-0.00024751125602051616,-21.257445336233204,-48.303209167574536,580.9000244140625,0,0,1,-21.257445500000117,-48.30320716666615,2.0,0.0,0.0,0.0,0.0,-31,87,0,0,0,0,1,0,0,0,0,0,0,1,0,0,0
2024-07-25 20:01:59.331602097,-0.015911640599370003,0.13201554119586945,-0.04543765261769295,1.0405761003494263,0.03601263836026192,0.017556123435497284,-0.00024751125602051616,-21.257445459689038,-48.30320892132514,581.0999755859375,0,0,1,-21.257445500000117,-48.30320716666615,2.0,0.0,0.0,0.0,0.0,-31,87,0,0,0,0,1,0,0,0,0,0,0,1,0,0,0
2024-07-25 20:01:59.432938337,-0.013363296166062355,0.15975482761859894,-0.039233770221471786,1.0509507656097412,0.02703366056084633,0.014136869460344315,0.00015778497618157417,-21.257445459689038,-48.30320892132514,581.0999755859375,0,0,1,-21.257445500000117,-48.30320716666615,2.0,0.0,0.0,0.0,0.0,-31,87,0,0,0,0,1,0,0,0,0,0,0,1,0,0,0
2024-07-25 20:01:59.534101485,-0.005178318824619055,0.18587112426757812,-0.03324626386165619,1.0617775917053223,0.02703366056084633,0.014136869460344315,0.00015778497618157417,-21.257445459689038,-48.30320892132514,581.0999755859375,0,0,1,-21.257445500000117,-48.30320716666615,2.0,0.0,0.0,0.0,0.0,-32,87,0,0,0,0,1,0,0,0,0,0,0,1,0,0,0
2024-07-25 20:01:59.657517910,-0.005178318824619055,0.18587112426757812,-0.03324626386165619,1.0617775917053223,0.020422963425517082,0.01347740925848484,0.0011492884950712323,-21.257445459689038,-48.30320892132514,581.0999755859375,0,0,1,-21.257445500000117,-48.30320716666615,2.0,0.0,0.0,0.0,0.0,-32,87,0,0,0,0,1,0,0,0,0,0,0,1,0,0,0
2024-07-25 20:01:59.759673834,-0.001612108200788498,0.20643354952335358,-0.01302797719836235,1.0689201354980469,0.020422963425517082,0.01347740925848484,0.0011492884950712323,-21.257445529727406,-48.30320836638109,581.2999877929688,0,0,1,-21.257445500000117,-48.30320716666615,2.0,0.0,0.0,0.0,0.0,-32,87,0,0,0,0,1,0,0,0,0,0,0,1,0,0,0
2024-07-25 20:01:59.860875368,-0.001612108200788498,0.20643354952335358,-0.01302797719836235,1.0689201354980469,0.012933827005326748,0.01440436951816082,0.0016303850570693612,-21.257445529727406,-48.30320836638109,581.2999877929688,0,0,1,-21.257445500000117,-48.30320716666615,2.0,0.0,0.0,0.0,0.0,-32,87,0,0,0,0,1,0,0,0,0,0,0,1,0,0,0
2024-07-25 20:01:59.962581396,0.0026898663491010666,0.2156418114900589,0.012657496146857738,1.053221583366394,0.012933827005326748,0.01440436951816082,0.0016303850570693612,-21.257445529727406,-48.30320836638109,581.2999877929688,0,0,1,-21.257445500000117,-48.30320716666615,2.0,0.0,0.0,0.0,0.0,-32,87,0,0,0,0,1,0,0,0,0,0,0,1,0,0,0
2024-07-25 20:02:00.064391136,0.0026898663491010666,0.2156418114900589,0.012657496146857738,1.053221583366394,0.0018796802032738924,0.013240540400147438,0.0016514677554368973,-21.257445529727406,-48.30320836638109,581.2999877929688,0,0,1,-21.257445500000117,-48.30320716666615,2.0,0.0,0.0,0.0,0.0,-32,86,0,0,0,0,1,0,0,0,0,0,0,1,0,0,0
2024-07-25 20:02:00.177263498,0.008332773111760616,0.1999855488538742,-0.004670666065067053,1.0517607927322388,-7.214880315586925e-05,0.015057678334414959,0.001252270769327879,-21.257445529727406,-48.30320836638109,581.2999877929688,0,0,1,-21.257445500000117,-48.30320716666615,2.0,0.0,0.0,0.0,0.0,-32,86,0,0,0,0,1,0,0,0,0,0,0,1,0,0,0
2024-07-25 20:02:00.277859926,0.008332773111760616,0.1999855488538742,-0.004670666065067053,1.0517607927322388,-7.214880315586925e-05,0.015057678334414959,0.001252270769327879,-21.257445529727406,-48.30320836638109,581.2999877929688,0,0,1,-21.257445500000117,-48.30320716666615,2.0,0.0,0.0,0.0,0.0,-32,86,0,0,0,0,1,0,0,0,0,0,0,1,0,0,0
2024-07-25 20:02:00.379034519,0.006832812447100878,0.18260453641414642,-0.021507607772946358,1.064004898071289,-7.214880315586925e-05,0.015057678334414959,0.001252270769327879,-21.257445567642023,-48.303207205711104,581.4000244140625,0,0,1,-21.257445500000117,-48.30320716666615,2.0,0.0,0.0,0.0,0.0,-32,86,0,0,0,0,1,0,0,0,0,0,0,1,0,0,0
2024-07-25 20:02:00.480216503,0.006832812447100878,0.18260453641414642,-0.021507607772946358,1.064004898071289,-0.004514187108725309,0.015033876523375511,0.0019568558782339096,-21.257445567642023,-48.303207205711104,581.4000244140625,0,0,1,-21.257445500000117,-48.30320716666615,2.0,0.0,0.0,0.0,0.0,-32,86,0,0,0,0,1,0,0,0,0,0,0,1,0,0,0
2024-07-25 20:02:00.583819628,0.008281547576189041,0.1695142537355423,0.03182787820696831,1.022396206855774,-0.0044843959622085094,0.013455149717628956,0.001664546667598188,-21.257445567642023,-48.303207205711104,581.4000244140625,0,0,1,-21.257445500000117,-48.30320716666615,2.0,0.0,0.0,0.0,0.0,-32,86,0,0,0,0,1,0,0,0,0,0,0,1,0,0,0
2024-07-25 20:02:00.687655449,0.008281547576189041,0.1695142537355423,0.03182787820696831,1.022396206855774,-0.0044843959622085094,0.013455149717628956,0.001664546667598188,-21.257445567642023,-48.303207205711104,581.4000244140625,0,0,1,-21.257445500000117,-48.30320716666615,2.0,0.0,0.0,0.0,0.0,-32,86,0,0,0,0,1,0,0,0,0,0,0,1,0,0,0
2024-07-25 20:02:00.789022207,0.011438941583037376,0.15129835903644562,-0.02371138148009777,1.024507761001587,-0.006060655694454908,0.014302445575594902,0.0009099185117520392,-21.25744556391946,-48.3032064967775,581.4000244140625,0,0,1,-21.257445500000117,-48.30320716666615,2.0,0.0,0.0,0.0,0.0,-32,86,0,0,0,0,1,0,0,0,0,0,0,1,0,0,0
2024-07-25 20:02:00.891735554,0.011438941583037376,0.15129835903644562,-0.02371138148009777,1.024507761001587,-0.006060655694454908,0.014302445575594902,0.0009099185117520392,-21.25744556391946,-48.3032064967775,581.4000244140625,0,0,1,-21.257445500000117,-48.30320716666615,2.0,0.0,0.0,0.0,0.0,-32,86,0,0,0,0,1,0,0,0,0,0,0,1,0,0,0
2024-07-25 20:02:00.995981693,0.010996407829225063,0.13553892076015472,-0.01463104598224163,1.0462520122528076,-0.005985282361507416,0.013635998591780663,0.000771534105297178,-21.25744556391946,-48.3032064967775,581.4000244140625,0,0,1,-21.257445500000117,-48.30320716666615,2.0,0.0,0.0,0.0,0.0,-32,86,0,0,0,0,1,0,0,0,0,0,0,1,0,0,0
2024-07-25 20:02:01.098478556,0.010996407829225063,0.13553892076015472,-0.01463104598224163,1.0462520122528076,-0.005985282361507416,0.013635998591780663,0.000771534105297178,-21.25744556391946,-48.3032064967775,581.4000244140625,0,0,1,-21.257445500000117,-48.30320716666615,2.0,0.0,0.0,0.0,0.0,-32,86,0,0,0,0,1,0,0,0,0,0,0,1,0,0,0
2024-07-25 20:02:01.199382067,0.01454380713403225,0.14755015075206757,-0.03521814942359924,1.1226972341537476,-0.010670555755496025,0.013883545994758606,-0.0003329213650431484,-21.25744556391946,-48.3032064967775,581.4000244140625,0,0,1,-21.257445500000117,-48.30320716666615,2.0,0.0,0.0,0.0,0.0,-32,86,0,0,0,0,1,0,0,0,0,0,0,1,0,0,0
2024-07-25 20:02:01.301529884,0.01454380713403225,0.14755015075206757,-0.03521814942359924,1.1226972341537476,-0.010670555755496025,0.013883545994758606,-0.0003329213650431484,-21.25744556391946,-48.3032064967775,581.4000244140625,0,0,1,-21.257445500000117,-48.30320716666615,2.0,0.0,0.0,0.0,0.0,-32,86,0,0,0,0,1,0,0,0,0,0,0,1,0,0,0
2024-07-25 20:02:01.402247429,0.015243764966726303,0.1267257034778595,0.00934087298810482,1.1346402168273926,-0.010670555755496025,0.013883545994758606,-0.0003329213650431484,-21.257445544151537,-48.30320557604958,581.5999755859375,0,0,1,-21.257445500000117,-48.30320716666615,2.0,0.0,0.0,0.0,0.0,-32,86,0,0,0,0,1,0,0,0,0,0,0,1,0,0,0
2024-07-25 20:02:01.503089428,0.015243764966726303,0.1267257034778595,0.00934087298810482,1.1346402168273926,-0.01914944313466549,0.014238223433494568,-0.0003108176460955292,-21.257445544151537,-48.30320557604958,581.5999755859375,0,0,1,-21.257445500000117,-48.30320716666615,2.0,0.0,0.0,0.0,0.0,-32,86,0,0,0,0,1,0,0,0,0,0,0,1,0,0,0
2024-07-25 20:02:01.604689598,0.014673839323222637,0.09509251266717911,0.042903728783130646,1.117901086807251,-0.018407585099339485,0.014415524899959564,-0.0005888526211492717,-21.257445544151537,-48.30320557604958,581.5999755859375,0,0,1,-21.257445500000117,-48.30320716666615,2.0,0.0,0.0,0.0,0.0,-32,86,0,0,0,0,1,0,0,0,0,0,0,1,0,0,0
2024-07-25 20:02:01.712405205,0.014673839323222637,0.09509251266717911,0.042903728783130646,1.117901086807251,-0.018407585099339485,0.014415524899959564,-0.0005888526211492717,-21.257445544151537,-48.30320557604958,581.5999755859375,0,0,1,-21.257445500000117,-48.30320716666615,2.0,0.0,0.0,0.0,0.0,-32,86,0,0,0,0,1,0,0,0,0,0,0,1,0,0,0
2024-07-25 20:02:01.816907883,0.017599692568182945,0.06204669922590256,0.0309507604688406,1.1247246265411377,-0.013298340141773224,0.012280602008104324,-6.140037294244394e-05,-21.25744547723933,-48.30320492842352,581.5999755859375,0,0,1,-21.257445500000117,-48.30320716666615,2.0,0.0,0.0,0.0,0.0,-32,86,0,0,0,0,1,0,0,0,0,0,0,1,0,0,0
2024-07-25 20:02:01.921003819,0.017599692568182945,0.06204669922590256,0.0309507604688406,1.1247246265411377,-0.013298340141773224,0.012280602008104324,-6.140037294244394e-05,-21.25744547723933,-48.30320492842352,581.5999755859375,0,0,1,-21.257445500000117,-48.30320716666615,2.0,0.0,0.0,0.0,0.0,-32,85,0,0,0,0,1,0,0,0,0,0,0,1,0,0,0
2024-07-25 20:02:02.022489548,0.019702494144439697,0.05034898966550827,0.03643852099776268,1.117675542831421,-0.0068889195099473,0.015229538083076477,0.0015244085807353258,-21.25744547723933,-48.30320492842352,581.5999755859375,0,0,1,-21.257445500000117,-48.30320716666615,2.0,-0.012380650267004967,0.4533551335334778,-0.0834510326385498,0.003800294129177928,-32,85,0,0,0,1,0,0,0,0,0,0,0,1,0,0,0
2024-07-25 20:02:02.124703407,0.019702494144439697,0.05034898966550827,0.03643852099776268,1.117675542831421,-0.0068889195099473,0.015229538083076477,0.0015244085807353258,-21.25744547723933,-48.30320492842352,581.5999755859375,0,0,1,-21.257445500000117,-48.30320716666615,2.0,-0.012380650267004967,0.4533551335334778,-0.0834510326385498,0.003800294129177928,-32,85,0,0,0,0,1,0,0,0,0,0,0,1,0,0,0
2024-07-25 20:02:02.225176334,0.014876803383231163,0.04391889646649361,-0.021606240421533585,1.0877788066864014,0.006023369263857603,0.017715254798531532,0.002203853102400899,-21.25744547723933,-48.30320492842352,581.5999755859375,0,0,1,-21.257445500000117,-48.30320716666615,2.0,-0.012380650267004967,0.4533551335334778,-0.0834510326385498,0.003800294129177928,-32,85,0,0,0,0,1,0,0,0,0,0,0,1,0,0,0
2024-07-25 20:02:02.328144550,0.014876803383231163,0.04391889646649361,-0.021606240421533585,1.0877788066864014,0.006023369263857603,0.017715254798531532,0.002203853102400899,-21.25744547723933,-48.30320492842352,581.5999755859375,0,0,1,-21.257445500000117,-48.30320716666615,2.0,-0.012380650267004967,0.4533551335334778,-0.0834510326385498,0.003800294129177928,-32,85,0,0,0,0,1,0,0,0,0,0,0,1,0,0,0
2024-07-25 20:02:02.428930759,0.010193154215812683,0.0916019007563591,-0.03361932560801506,1.0714174509048462,0.006023369263857603,0.017715254798531532,0.002203853102400899,-21.257445375367055,-48.30320454445386,581.7999877929688,0,0,1,-21.257445500000117,-48.30320716666615,2.0,-0.012380650267004967,0.4533551335334778,-0.0834510326385498,0.003800294129177928,-32,85,0,0,0,0,1,0,0,0,0,0,0,1,0,0,0
2024-07-25 20:02:02.529557228,0.010193154215812683,0.0916019007563591,-0.03361932560801506,1.0714174509048462,0.02879105508327484,0.017099469900131226,0.0015634727897122502,-21.257445375367055,-48.30320454445386,581.7999877929688,0,0,1,-21.257445500000117,-48.30320716666615,2.0,-0.012380650267004967,0.4533551335334778,-0.0834510326385498,0.003800294129177928,-32,85,0,0,0,0,1,0,0,0,0,0,0,1,0,0,0
2024-07-25 20:02:02.629741430,0.0077390121296048164,0.13370124995708466,-0.011720189824700356,1.050635576248169,0.030684690922498703,0.016750721260905266,0.0017133349319919944,-21.257445375367055,-48.30320454445386,581.7999877929688,0,0,1,-21.257445500000117,-48.30320716666615,2.0,-0.012380650267004967,0.4533551335334778,-0.0834510326385498,0.003800294129177928,-32,85,0,0,0,0,1,0,0,0,0,0,0,1,0,0,0
2024-07-25 20:02:02.731826067,0.0077390121296048164,0.13370124995708466,-0.011720189824700356,1.050635576248169,0.030684690922498703,0.016750721260905266,0.0017133349319919944,-21.25744533599662,-48.303204047299616,582.0,0,0,1,-21.257445500000117,-48.30320716666615,2.0,-0.012380650267004967,0.4533551335334778,-0.0834510326385498,0.003800294129177928,-29,85,0,0,0,0,1,0,0,0,0,0,0,1,0,0,0
2024-07-25 20:02:02.832034111,0.005077611654996872,0.1821567714214325,-0.02007311023771763,1.0423375368118286,0.02011103369295597,0.017902743071317673,0.0018837002571672201,-21.25744533599662,-48.303204047299616,582.0,0,0,1,-21.257445500000117,-48.30320716666615,2.0,-0.012380650267004967,0.4533551335334778,-0.0834510326385498,0.003800294129177928,-29,85,0,0,0,0,1,0,0,0,0,0,0,1,0,0,0
2024-07-25 20:02:02.932441950,0.005077611654996872,0.1821567714214325,-0.02007311023771763,1.0423375368118286,0.02011103369295597,0.017902743071317673,0.0018837002571672201,-21.25744533599662,-48.303204047299616,582.0,0,0,1,-21.257445500000117,-48.30320716666615,2.0,-0.012380650267004967,0.4533551335334778,-0.0834510326385498,0.003800294129177928,-29,85,0,0,0,0,1,0,0,0,0,0,0,1,0,0,0
2024-07-25 20:02:03.033370733,0.0009277156786993146,0.20662572979927063,-0.011924995109438896,1.0319926738739014,0.00849275290966034,0.01804625801742077,0.0021524953190237284,-21.25744533599662,-48.303204047299616,582.0,0,0,1,-21.257445500000117,-48.30320716666615,2.0,-0.012380650267004967,0.4533551335334778,-0.0834510326385498,0.003800294129177928,-29,85,0,0,0,0,1,0,0,0,0,0,0,1,0,0,0
2024-07-25 20:02:03.134232044,0.0009277156786993146,0.20662572979927063,-0.011924995109438896,1.0319926738739014,0.00849275290966034,0.01804625801742077,0.0021524953190237284,-21.25744533599662,-48.303204047299616,582.0,0,0,1,-21.257445500000117,-48.30320716666615,2.0,-0.012380650267004967,0.4533551335334778,-0.0834510326385498,0.003800294129177928,-29,85,0,0,0,0,1,0,0,0,0,0,0,1,0,0,0
2024-07-25 20:02:03.237471581,-0.0005127594922669232,0.20087634027004242,-0.022712530568242073,1.0523288249969482,-0.00015253240417223424,0.017420724034309387,0.002072830218821764,-21.25744533599662,-48.303204047299616,582.0,0,0,1,-21.257445500000117,-48.30320716666615,2.0,-0.012380650267004967,0.4533551335334778,-0.0834510326385498,0.003800294129177928,-29,85,0,0,0,0,1,0,0,0,0,0,0,1,0,0,0
2024-07-25 20:02:03.337886095,-0.0005127594922669232,0.20087634027004242,-0.022712530568242073,1.0523288249969482,-0.00015253240417223424,0.017420724034309387,0.002072830218821764,-21.25744532115924,-48.303202953219554,582.0999755859375,0,0,1,-21.257445500000117,-48.30320716666615,2.0,-0.012380650267004967,0.4533551335334778,-0.0834510326385498,0.003800294129177928,-29,85,0,0,0,0,1,0,0,0,0,0,0,1,0,0,0
2024-07-25 20:02:03.446743011,0.002077114302664995,0.174289733171463,-0.016061538830399513,1.0686631202697754,0.0002648301306180656,0.017883911728858948,0.0023147379979491234,-21.25744532115924,-48.303202953219554,582.0999755859375,0,0,1,-21.257445500000117,-48.30320716666615,2.0,-0.012380650267004967,0.4533551335334778,-0.0834510326385498,0.003800294129177928,-29,85,0,0,0,0,1,0,0,0,0,0,0,1,0,0,0
