timestamp,rollspeed_integ,pitchspeed_integ,yawspeed_integ,baro_pressure_pa,xyz[0],xyz[1],xyz[2],q[0],q[1],q[2],q[3],roll_body,pitch_body,yaw_body,thrust_body[2],lat,lon,alt,eph,hdop,vdop,noise_per_ms,jamming_indicator,vel_m_s,cog_rad,x,y,z,vx,vy,vz,z_deriv,ax,ay,az,heading,evh,magnetometer_ga[0],magnetometer_ga[1],magnetometer_ga[2],class
258725029,0.0,0.7265494890879775,0.9988100768573084,0.7182539682539755,0.5852517959159408,0.5500668727082245,0.4208555870021041,0.6453678185845981,0.3111770039788997,0.769475331584942,0.9613355629598072,0.6176203137442304,0.4769187470988977,0.6917408439151371,1.0,0.143521594669437,0.3166904421523213,0.5032654073492333,0.1883933496861683,0.0376811594202898,0.0054127200748552,0.08,0.6610169491525424,0.0019732848360655,0.0,0.0894987421703749,0.3187788585116668,0.9230395281224602,0.3345172712008043,0.6369428007955148,0.6578520767856281,0.5514570820955583,0.4440760542550583,0.51951360073015,0.6240737798477569,0.1522053468654689,0.033000634824063,0.7031473328461727,0.7455172430999063,0.9738955589713764,2
258925029,0.0,0.7265494890879775,0.9988100768573084,0.7142857142853245,0.5854046892551198,0.5480315259554273,0.4215237267363795,0.6453379104979386,0.3113977542199398,0.7695346117065534,0.9613266611016764,0.6176203137442304,0.4769187470988977,0.6916505031512292,1.0,0.143521594669437,0.3166904421523213,0.5032654073492333,0.1883933496861683,0.0376811594202898,0.0054127200748552,0.08,0.6610169491525424,0.0019732848360655,0.0,0.0896457189526029,0.3185437572065518,0.9235933558051024,0.3346763397649576,0.6360673003322359,0.6591959034678984,0.5541719054508452,0.4226859547638935,0.5071615694011155,0.6354578852199535,0.1522175847137814,0.0408070517844418,0.7052932553336981,0.7434482797293134,0.9769075917705718,2
259125029,0.0,0.7265494890879775,0.9988100768573084,0.6825396825393,0.58492912187744,0.5515714300422587,0.4204643160346096,0.6452740540668835,0.3115189378705423,0.7695018019441714,0.9613083174683676,0.6176203137442304,0.4769187470988977,0.6919941048413039,1.0,0.143521594669437,0.3166904421523213,0.5032654073492333,0.1883933496861683,0.0376811594202898,0.0054127200748552,0.08,0.6610169491525424,0.0019732848360655,0.0,0.0898202118963368,0.3183533701797896,0.9241419064565376,0.3352497711772894,0.6361028799442758,0.6591266525996907,0.554852775413749,0.4294713984986524,0.5205390890011752,0.6136503272566618,0.1522624178812266,0.041003504597459,0.703862638731172,0.7462068962895381,0.9748995699044416,2
259325029,0.0,0.7265494890879775,0.9988100768573084,0.7142857142853245,0.5852699955442325,0.5494786449421908,0.4209434778332191,0.6451881761710483,0.3115603396881026,0.7695125057039177,0.9612845920812626,0.6176203137442304,0.4769187470988977,0.6923153433574702,1.0,0.1421926910115871,0.3181169757153839,0.5022940519985117,0.1858204892490481,0.0376811594202898,0.0054127200748552,0.08,0.6949152542372882,0.0025804494535519,0.0,0.0899300363785316,0.318237818306592,0.9243534180799932,0.3351683432259378,0.6357061066391985,0.6602259982069852,0.5557032316259872,0.4229091923696964,0.5418322482579373,0.6309410666426943,0.1522912162545824,0.038063733185446,0.7067238690367077,0.7448275899102746,0.970883494818395,2
259525029,0.0,0.7265494890879775,0.9988100768573084,0.6984126984125396,0.5852136622648271,0.5505657918361861,0.4208024041516292,0.6451005653512291,0.3116114814532203,0.7695255812735123,0.9612603616104682,0.6176203137442304,0.4769187470988977,0.6925698960193145,1.0,0.1421926910115871,0.3181169757153839,0.5022940519985117,0.1858204892490481,0.0376811594202898,0.0054127200748552,0.08,0.6949152542372882,0.0025804494535519,0.0,0.0898938215295766,0.3181400258460859,0.9248435077936696,0.334832624244917,0.6344540219714386,0.6597111784589688,0.5555449467092172,0.4464285859826573,0.5123069630448609,0.6133611988565125,0.1523720911996351,0.0367897918909114,0.7052932553336981,0.7462068962895381,0.9688754729522646,2
259725029,0.0,0.7265494890879775,0.9988100768573084,0.642857142856883,0.5851732267619099,0.5504111798314429,0.4209310811325246,0.6450141906030626,0.3114361371410006,0.7695462776004501,0.96123757478884,0.6164143075121213,0.4760200114993215,0.6923245469741692,0.9832683704853532,0.1421926910115871,0.3181169757153839,0.5022940519985117,0.1858204892490481,0.0376811594202898,0.0054127200748552,0.08,0.6949152542372882,0.0025804494535519,0.0,0.0902040621463051,0.3173876881428051,0.925793830437833,0.335272028604513,0.633546534903253,0.6612410595552902,0.5584327446609969,0.4328610790622061,0.5204673671178625,0.6087509968560703,0.1524337769648758,0.0362512413269318,0.7052932553336981,0.7448275899102746,0.9738955589713764,2
259925029,0.0,0.7265494890879775,0.9988100768573084,0.6587301587301226,0.5844212040647719,0.5565624693466259,0.4204096793226169,0.6449438605496844,0.3114000330878387,0.769582412141009,0.9612186699514316,0.6170376103181265,0.475760610024907,0.6917010423095906,0.9057391375399598,0.1421926910115871,0.3181169757153839,0.5022940519985117,0.1858204892490481,0.0376811594202898,0.0054127200748552,0.08,0.6949152542372882,0.0025804494535519,0.0,0.0903687507208105,0.3171521383137376,0.9270597740360628,0.3362733561468489,0.6321273659164464,0.6638663135114353,0.5627490258223885,0.4571195401360962,0.473629311221948,0.6558069198696009,0.1524504105081069,0.037751978129889,0.7067238690367077,0.7448275899102746,0.970883494818395,2
260125029,0.0,0.7265494890879775,0.9988100768573084,0.7695238095238892,0.5852783921733082,0.5452318965599663,0.421060608627743,0.6449180630071882,0.3118036553255662,0.7696193576093513,0.961209828084084,0.6109509647761593,0.4754422638394163,0.6917010423095906,0.8059935048717227,0.1421926910115871,0.3181169757153839,0.5022940519985117,0.1858204892490481,0.0376811594202898,0.0054127200748552,0.08,0.6949152542372882,0.0025804494535519,0.0,0.0906804494336312,0.3168393768660999,0.9279961094875196,0.3360253690071326,0.6325564544126763,0.6602547842933969,0.5592345890672938,0.4396629847685538,0.5220337569089379,0.5915893721241536,0.1524885260022543,0.0382123316942736,0.7067238690367077,0.7448275899102746,0.9769075917705718,2
260325029,0.0,0.7265494890879775,0.9988100768573084,0.7619047619045887,0.5851285852350246,0.5416931146757082,0.4206086226900898,0.6448704330461643,0.3122239734667896,0.7696083237612359,0.9611945168880992,0.6138796050062464,0.4696790304897951,0.6917010423095906,0.6834545609172038,0.1421926910115871,0.3138373752590269,0.5002273384863392,0.1829616749607704,0.0376811594202898,0.0054127200748552,0.08,0.5084745762711864,0.0092592597146326,0.0,0.0909756290518335,0.3159042905701626,0.9289385659398216,0.3375991493086014,0.6320489048856615,0.6642848415760393,0.563380968365489,0.5094833576227634,0.610233266674898,0.5549165222997439,0.1524925566062331,0.038971835183837,0.7052932553336981,0.7448275899102746,0.9698794838853296,2
260525029,0.0145964521392407,0.7314443280727437,0.9989408390039942,0.7619047619045887,0.5833947240050362,0.5475439065257726,0.4206804400177951,0.6449859693906588,0.3139477984584964,0.7691949865868095,0.9612141396797176,0.6072946092037008,0.4751602008481799,0.6917010423095906,0.5431703521218472,0.1421926910115871,0.3138373752590269,0.5002273384863392,0.1829616749607704,0.0376811594202898,0.0054127200748552,0.08,0.5084745762711864,0.0092592597146326,0.0,0.0910773564163614,0.3153259153736683,0.9300526305388568,0.3363622115645324,0.6298343194738932,0.6654104429894456,0.5649332475998592,0.4470776303975498,0.4177627013972746,0.635001486563897,0.1524301114518371,0.0429310727422707,0.7052932553336981,0.7434482797293134,0.9738955589713764,2
260725029,0.0717785985121977,0.7450800524336235,0.996547454566096,0.6904761904761472,0.5754987963312883,0.534601562996429,0.4251051554070377,0.6439714429803747,0.3195129159017729,0.7659698962258114,0.9608659918785988,0.6115581246765008,0.4797113461925897,0.6917010423095906,0.386531393003458,0.1421926910115871,0.3138373752590269,0.5002273384863392,0.1829616749607704,0.0376811594202898,0.0054127200748552,0.08,0.5084745762711864,0.0092592597146326,0.0,0.0910697729824381,0.3151319971107084,0.9309926478695512,0.3336853024073912,0.6355810656158393,0.658159906642612,0.5573691746031347,0.408467570547314,0.6004947876240948,0.5744027684808832,0.1529438382154817,0.0815849067944219,0.7067238690367077,0.7406896612682398,0.9769075917705718,2
260925029,0.1988169984027546,0.7762165720029192,0.9776832549971562,0.6587301587301226,0.5784401205614713,0.5203059320785408,0.4379111650179733,0.6362801107275797,0.3378478555732378,0.7604957895233029,0.9584548887705376,0.6282129698655542,0.4807657572217509,0.6917010423095906,0.231987995744649,0.1421926910115871,0.3138373752590269,0.5002273384863392,0.1829616749607704,0.0376811594202898,0.0054127200748552,0.08,0.5084745762711864,0.0092592597146326,0.0,0.0909798310486683,0.3150130236405015,0.9310285713631408,0.3200616145883813,0.6411116532151433,0.6376117696879968,0.5351819474414572,0.466453610074671,0.6854972355568157,0.514357156655861,0.1571796671135273,0.1541969459463765,0.7153075618863255,0.7365517288245069,0.9748995699044416,2
261125029,0.3357226225224796,0.8088184314561829,0.9365750176930524,0.642857142856883,0.5949692043475384,0.5730050770225912,0.4412483079486093,0.6217377059185792,0.3317517811310542,0.7621745581136956,0.9543217502348886,0.6427688891932658,0.5142407052335246,0.6917010423095906,0.2206948392976724,0.1421926910115871,0.3138373752590269,0.5002273384863392,0.1829616749607704,0.0376811594202898,0.0054127200748552,0.08,0.5084745762711864,0.0092592597146326,0.0,0.0900440152888803,0.3153774500638705,0.9260797693252316,0.2924625185716371,0.6432820474835808,0.5264836194838385,0.417583277414107,0.2267594848803168,0.691205447747645,0.5815293214374221,0.1662903362802705,0.2344904482566742,0.7095850954762213,0.7572413862910488,0.9608433541339576,2
261325029,0.4294797572251052,0.8325559173072371,0.88919941421279,0.5631746031745024,0.5919912198399638,0.5927360914971544,0.4330513552859121,0.6097913012185984,0.3116638036433009,0.7665931067883841,0.950903481221986,0.6335925550201204,0.5197444104510615,0.6917010423095906,0.2423315813926242,0.1375415282382164,0.3195435092784464,0.5038647542677634,0.1808652581603527,0.0376811594202898,0.0054127200748552,0.08,0.4576271186440678,0.0396174893746205,0.0,0.088497396781891,0.3156151834214498,0.913602334654947,0.284340130256034,0.6404151819617752,0.4711704736531244,0.3602420419909619,0.7082236500682656,0.4222524180974778,0.5746519386523851,0.1743387076404003,0.2986053544947596,0.6967095605510691,0.7806896650699376,0.9397589991244456,2
261525029,0.4969976747339624,0.8484958730293738,0.8428073939229418,0.603174603174466,0.5955181895175823,0.5679970289681859,0.4275393360465951,0.6028414277586103,0.2953161688672403,0.7691048958022335,0.9487994535157036,0.6415394613028218,0.5218303978021538,0.6917010423095906,0.2315850827323863,0.1375415282382164,0.3195435092784464,0.5038647542677634,0.1808652581603527,0.0376811594202898,0.0054127200748552,0.08,0.4576271186440678,0.0396174893746205,0.0,0.0875126920202043,0.3149137275568403,0.901677008140862,0.2832121767880811,0.6388970213554157,0.4420806499053985,0.3354764679045318,0.3451076109944025,0.5891545397087672,0.5385367378277601,0.179120245268444,0.3308883361532942,0.6924177155760185,0.7958620751596629,0.9126505785165426,2
261725029,0.5308234753867009,0.8618814890253973,0.7991628091349062,0.4761904761903679,0.5816605442687312,0.5573922976160525,0.4212415457593548,0.6000449440985056,0.2884723327869503,0.7717498737507013,0.9479264521591976,0.6306491547996409,0.5166404665526448,0.6917010423095906,0.2278943963125599,0.1375415282382164,0.3195435092784464,0.5038647542677634,0.1808652581603527,0.0376811594202898,0.0054127200748552,0.08,0.4576271186440678,0.0396174893746205,0.0,0.0869195363834764,0.3136616921658229,0.8878138631775375,0.2946534835647401,0.6351346358375325,0.4041960229303125,0.3033315022207601,0.3894225807934071,0.5123842123365627,0.6360462659463841,0.1812154291555358,0.3705433661756965,0.6909870989734924,0.8027586308165918,0.8875501797747701,2
261925029,0.6052040677955254,0.8720286244998978,0.7696544570967356,0.5631746031745024,0.6041554874795192,0.5517783815642474,0.4302954837655402,0.5969948233825724,0.2858917018766955,0.774446689737575,0.9469284764552828,0.6511553677058636,0.5187826058920361,0.7723076090901047,0.234068912823669,0.1375415282382164,0.3195435092784464,0.5038647542677634,0.1808652581603527,0.0376811594202898,0.0054127200748552,0.08,0.4576271186440678,0.0396174893746205,0.0,0.0860652719062233,0.3141949672109768,0.8701938312985834,0.3073107699443945,0.6351296471443424,0.3709885646470646,0.2732482965277574,0.4814916805793781,0.5846562066232105,0.6282953773769411,0.1826784507780116,0.4160339098343242,0.6866952588309693,0.7958620751596629,0.872489937394328,2
262125029,0.6186953309473989,0.884438210865102,0.7416132740097113,0.5076190476188458,0.6163309980163443,0.7877453302020061,0.4299500300966777,0.5869318937701611,0.2098281707677571,0.7837917294508148,0.942525540016371,0.6944589948221426,0.686748883242553,0.8529141758706191,0.3444979949426152,0.1375415282382164,0.3195435092784464,0.5038647542677634,0.1808652581603527,0.0376811594202898,0.0054127200748552,0.08,0.4576271186440678,0.0396174893746205,0.0,0.0864485930996425,0.3151918707867137,0.8514846807863017,0.3434539774971874,0.6372219412558006,0.380516488073814,0.2876057558947756,0.6857658811993741,0.5150364674997138,0.6316305448592631,0.1900587641322942,0.4470343477213823,0.6652360242906608,0.8096551769692759,0.8453815011095321,2
262325029,0.5835936940609113,0.8759754496021439,0.7172306867963056,0.4682539682539754,0.5919144651397985,0.644881928800857,0.422684946659258,0.5835844905507039,0.1263557491594941,0.7862810757220047,0.9387926890130616,0.6899082502765388,0.7286370303421066,0.8529141758706191,0.434313761720464,0.1362126245803665,0.325249643297866,0.5037820857272766,0.1820087876873654,0.0376811594202898,0.0054127200748552,0.08,0.3050847457627118,0.0012143292349726,0.0,0.0887068089081298,0.3170530138082869,0.8406558133684829,0.402023417694471,0.6506021726883765,0.5726844813885646,0.494409116931467,0.5782281250245798,0.6766687747032235,0.7637901589652979,0.1951015608370792,0.4536399686508308,0.6452074160179333,0.8193103539385518,0.8242971774538062,2
262525029,0.5709400226966446,0.8598875514512075,0.6969256323470927,0.4365079365074962,0.5698023558795886,0.3732056654407886,0.421847491356515,0.581987478704191,0.1407630510670693,0.7853183887516844,0.9387838723031392,0.6749616494333318,0.5846623223824449,0.8529141758706191,0.3656065163437095,0.1362126245803665,0.325249643297866,0.5037820857272766,0.1820087876873654,0.0376811594202898,0.0054127200748552,0.08,0.3050847457627118,0.0012143292349726,0.0,0.0936578453974338,0.318765239758194,0.8485459548179917,0.4687798664437048,0.6587282982760821,0.8283941993987805,0.768255831118494,0.4876419513769026,0.5138281301850245,0.640017116381951,0.196228100045514,0.4437509130044418,0.6552217225705608,0.8151724243460925,0.8343373181382435,2
262725029,0.5822210950791002,0.874477943919195,0.6748994301787823,0.603174603174466,0.5237365533168474,0.2651012991826115,0.4247694569445254,0.5796193714292415,0.2816843632068418,0.7821277492905154,0.9408828201447276,0.5934725619998051,0.3824187351530109,0.8529141758706191,0.250286655778158,0.1362126245803665,0.325249643297866,0.5037820857272766,0.1820087876873654,0.0376811594202898,0.0054127200748552,0.08,0.3050847457627118,0.0012143292349726,0.0,0.1000408505909452,0.3202448113503272,0.8705177004518209,0.5113689550931373,0.6580366662015023,0.9565431202694904,0.9007621260172892,0.4874676506264623,0.4775128670424034,0.62295190086336,0.1947591055352578,0.4363355294612321,0.7167381736563241,0.7889655290069788,0.8664658247652581,2
262925029,0.6633303185810477,0.8971536745652122,0.6439723697799962,0.579047619047742,0.5202475640762155,0.3423083460636116,0.4260706589916054,0.5770799906729329,0.4272485933310168,0.7573098854266518,0.9375151968990292,0.5209519898400637,0.2519587445291514,0.8529141758706191,0.0,0.1362126245803665,0.325249643297866,0.5037820857272766,0.1820087876873654,0.0376811594202898,0.0054127200748552,0.08,0.3050847457627118,0.0012143292349726,0.0,0.1026140928895491,0.3199629168939366,0.8855778776585956,0.45198316253357,0.6414778003602497,0.7504261445712566,0.6686720415002104,0.4272272161927646,0.6491386934235054,0.3551666056198491,0.1983777701045075,0.4133149299505791,0.7711015542940286,0.742068971449201,0.8895582141824148,2
263125029,0.7369878104538169,0.9168224590590572,0.6181145343682523,0.5314285714284779,0.6231474560108098,0.6678531009268308,0.4177255443087395,0.5762680588302234,0.44564549648454,0.7529905068869581,0.9365045728158228,0.5838858886271039,0.3501561225271008,0.8529141758706191,0.3117181079040342,0.1362126245803665,0.325249643297866,0.5037820857272766,0.1820087876873654,0.0376811594202898,0.0054127200748552,0.08,0.3050847457627118,0.0012143292349726,0.0,0.0984890540590028,0.3173682101002383,0.8740763940784247,0.3189740384564265,0.6204396368059795,0.48166166130904,0.3663048760310655,0.160743494631161,0.6201440663947764,0.6763443826394926,0.2007645010127317,0.3871537969065591,0.7711015542940286,0.7365517288245069,0.87650597799121,2
263325029,0.7261821435728775,0.9046807999271126,0.6025466068917784,0.5314285714284779,0.677209522633337,0.6547995529539065,0.4131396285346111,0.5765273745446451,0.3426787390341774,0.7934376086589136,0.939318103772548,0.7028749332827209,0.4234191189050587,0.8529141758706191,0.3468241885621601,0.1395348836958874,0.3266761768609285,0.5093622122101436,0.1823899197265179,0.0376811594202898,0.0054127200748552,0.08,0.0338983050847457,0.0300546478445658,0.0,0.0905901066467086,0.3137350521739436,0.8594311038564161,0.2544863079033281,0.5916068575885404,0.6195979620002503,0.4997576779857918,0.4981346319770299,0.3958223037555949,0.6405353923042338,0.1970596165670662,0.3847394705964674,0.7381974052971161,0.7875862112226217,0.8594377168800161,2
263525029,0.7067523917679263,0.9049578332473018,0.5847163189363789,0.5473015873017175,0.6435617305835757,0.6885850848035013,0.4153952697650744,0.5775083500923986,0.2479761135038925,0.8306850333980083,0.937934598268925,0.7981362794919361,0.5381683430062416,0.8529141758706191,0.2280562150861842,0.1395348836958874,0.3266761768609285,0.5093622122101436,0.1823899197265179,0.0376811594202898,0.0054127200748552,0.08,0.0338983050847457,0.0300546478445658,0.0,0.0851526975078201,0.307878239216847,0.859288273198835,0.2643136586442102,0.549018927793867,0.7125926938114859,0.5949147390309497,0.4863399205570968,0.3348191421230395,0.6376652792568653,0.196456340297632,0.3857003333774541,0.7138769452837995,0.8317241474680525,0.8393574041573553,2
263725029,0.6600913065931073,0.8988062840330917,0.5653848472822081,0.4761904761903679,0.5623979007385825,0.6451485378959033,0.4128198973411043,0.5790230831928891,0.1746596527779546,0.8368810842832387,0.9364805436044292,0.7406571740417429,0.5953423310244672,0.8529141758706191,0.2361686300893032,0.1395348836958874,0.3266761768609285,0.5093622122101436,0.1823899197265179,0.0376811594202898,0.0054127200748552,0.08,0.0338983050847457,0.0300546478445658,0.0,0.0850603057869815,0.300058409921646,0.8601394258570304,0.3439597878048601,0.5005998798260178,0.687162631453765,0.5648072620141843,0.4847569772896608,0.4540414115285162,0.5587475121183179,0.1979326366266901,0.3602811115155549,0.6838340256259171,0.845517244525543,0.8323292962721133,2
263925029,0.6584731006360581,0.8969755730671205,0.5503200446859425,0.3571428571426622,0.4708547398832863,0.5253909607070574,0.4131826002015866,0.5782108023417128,0.2215089663706954,0.7796134447831555,0.9396027155288526,0.5481620751134807,0.5500240610983772,0.8529141758706191,0.2513421423638348,0.1395348836958874,0.3266761768609285,0.5093622122101436,0.1823899197265179,0.0376811594202898,0.0054127200748552,0.08,0.0338983050847457,0.0300546478445658,0.0,0.0905588386505195,0.2955681960521833,0.8576655572792716,0.4235669960180119,0.4957517466108561,0.688435521883378,0.5579164008202122,0.4598352038345751,0.6143733849409335,0.672884318927586,0.1966543364162712,0.3270169310142196,0.6881258754334952,0.784827594662397,0.8554216574708625,2
264125029,0.7037205856646329,0.8926343575275444,0.538229871979579,0.5473015873017175,0.505840927762757,0.3842569985293491,0.4102985625246479,0.5807302605313811,0.3259297067148867,0.7218700367655767,0.9393335368852856,0.4456571918273966,0.4164440876180462,0.8529141758706191,0.2428882444288913,0.1395348836958874,0.3266761768609285,0.5093622122101436,0.1823899197265179,0.0376811594202898,0.0054127200748552,0.08,0.0338983050847457,0.0300546478445658,0.0,0.0952708471588997,0.3009115822169394,0.8527359935045727,0.4284865501065121,0.5535948608138805,0.686374469880352,0.5429908036992732,0.5503834124738292,0.769169668587516,0.6369712277696055,0.1944120792948664,0.2976320802601738,0.7095850954762213,0.7213793139826592,0.872489937394328,2
264325029,0.7740900641578221,0.9044344269953628,0.5317599289187566,0.5234920634920854,0.637725396786857,0.5601873952482332,0.4118049798806702,0.5854041479859369,0.3705486108494227,0.7202092700078297,0.9402303429715448,0.5448429356953388,0.4531857683990558,0.8529141758706191,0.2836758813401073,0.1395348836958874,0.3437945791520178,0.5173397263671311,0.182771108941194,0.0376811594202898,0.0054127200748552,0.08,0.0338983050847457,0.0107771712204007,0.0,0.0960713909325026,0.31746859403247,0.8464417147362489,0.3613807782175399,0.6315519145452062,0.6781093245765171,0.5216183675633733,0.2355966308501335,0.5175147902924342,0.628022080803098,0.1928809317029666,0.2699743906036807,0.7224606400664284,0.7131034528968914,0.87650597799121,2
264525029,0.742701172713305,0.9025059709047928,0.528529868230302,0.4841269841267603,0.659416671347677,0.5627380261227812,0.4146297470191425,0.5885029650776531,0.3111014202603872,0.7734145734775136,0.9439999547785608,0.6647764118101334,0.4545523711899915,0.8529141758706191,0.2529600476938409,0.1395348836958874,0.3437945791520178,0.5173397263671311,0.182771108941194,0.0376811594202898,0.0054127200748552,0.08,0.0338983050847457,0.0107771712204007,0.0,0.0925932107491055,0.3372434811421949,0.8402435346940914,0.3147984541578588,0.6770685718146258,0.6960179578970482,0.5300359940032928,0.5858306595588,0.3590059044808183,0.6118841458402369,0.1891523017425566,0.2501424694457531,0.7195994020288488,0.7682758667883146,0.8644578028991279,2
264725029,0.7126057580035273,0.9014975686505714,0.5235773343794321,0.4679365079364288,0.6002983367675014,0.5409750375334367,0.4172095254459791,0.5904590823996927,0.2887238095519074,0.797376704149751,0.9444650555788384,0.6713534232850598,0.4503905819280882,0.8529141758706191,0.2669406894725034,0.1395348836958874,0.3437945791520178,0.5173397263671311,0.182771108941194,0.0376811594202898,0.0054127200748552,0.08,0.0338983050847457,0.0107771712204007,0.0,0.0890151946363541,0.3514019192809811,0.8356032589349585,0.3080157777636007,0.6792770162591102,0.6971545074392521,0.5250541661424774,0.6398841188671444,0.5010015468814013,0.6219971064522598,0.1876231840562835,0.2343786644756229,0.7210300186313748,0.7889655290069788,0.8604417278130813,2
264925029,0.7040693555696982,0.9020618699514196,0.5198854832818873,0.4523809523807358,0.5833039025846325,0.5520949693193997,0.4168724363696393,0.5921459905867477,0.2882882974858651,0.7984610365235258,0.944992680321365,0.6564798383716879,0.4559266145581165,0.8529141758706191,0.2674136123356334,0.1395348836958874,0.3437945791520178,0.5173397263671311,0.182771108941194,0.0376811594202898,0.0054127200748552,0.08,0.0338983050847457,0.0107771712204007,0.0,0.0880614652074476,0.3552416310307267,0.8323096432405109,0.3213700882799423,0.6581550064074941,0.7025771055219384,0.5292379728546438,0.5184057049122827,0.6927112577433512,0.6582065125547211,0.1865396525605935,0.206406588987322,0.7195994020288488,0.7875862112226217,0.8624497716268618,2
265125029,0.6968019491753566,0.9039614674962828,0.5194341921709913,0.5,0.5783652062200969,0.5565606851166847,0.4145886718489973,0.5947305727868326,0.2901704591534385,0.7929565522480883,0.9459929318046626,0.6399756627217605,0.4659238943157013,0.8529141758706191,0.2488671610013016,0.1395348836958874,0.3437945791520178,0.5173397263671311,0.182771108941194,0.0376811594202898,0.0054127200748552,0.08,0.0338983050847457,0.0107771712204007,0.0,0.0885631021826641,0.3522793083099969,0.8306601756550551,0.3322835398501428,0.6363908538381855,0.7105483776941937,0.5390531219488035,0.207226948250875,0.6886359845335789,0.6596611319333004,0.1850060369539383,0.1803547703454189,0.7167381736563241,0.7806896650699376,0.8624497716268618,2
265325029,0.7011550728040676,0.906455920169842,0.529531322566579,0.4761904761903679,0.5793340928756542,0.5311584641833325,0.4080418259156068,0.6007653072684367,0.2993686105928377,0.7868894830862266,0.9480532339708444,0.6320773180987928,0.4523302020605993,0.8529141758706191,0.2397812244607263,0.1408637873537372,0.3452211127150804,0.5144463274500888,0.1812464092580132,0.0376811594202898,0.0054127200748552,0.08,0.4745762711864407,0.0124468737097753,0.0,0.0895002620477418,0.3495576834765898,0.8288930592943848,0.3476174684164594,0.6286061317958345,0.7152998863323424,0.5434779566747454,0.5006012646343709,0.284280853811344,0.7125180400300907,0.1816328887400928,0.1665038625040771,0.7181687926751139,0.7724138011328964,0.8684738466313885,2
265525029,0.6479052005076944,0.9037775778205948,0.5555368778914992,0.515555555555693,0.5472814357276558,0.5475581435962,0.4068037172256354,0.6111802531218951,0.3084426722797087,0.781449891582877,0.9513216111743183,0.5799419925923837,0.4273034289365544,0.8529141758706191,0.2641014309604699,0.1408637873537372,0.3452211127150804,0.5144463274500888,0.1812464092580132,0.0376811594202898,0.0054127200748552,0.08,0.4745762711864407,0.0124468737097753,0.0,0.0898358991191445,0.3505364837712714,0.8263075651207465,0.3498531309643428,0.6519123102592191,0.7019584001386094,0.5267792460164158,0.4918347075819221,0.7187816086717321,0.4739341171772089,0.174712998872199,0.156772879388964,0.7195994020288488,0.7682758667883146,0.872489937394328,2
265725029,0.6636180467525278,0.9002806321619918,0.5745178740363717,0.4203174603176194,0.5256472125903278,0.5808154746142438,0.4194626737556616,0.6159358449127053,0.3375389330812542,0.7347710845574017,0.9514740961337242,0.4685652181492326,0.4738034744014484,0.8529141758706191,0.2731851216990678,0.1408637873537372,0.3452211127150804,0.5144463274500888,0.1812464092580132,0.0376811594202898,0.0054127200748552,0.08,0.4745762711864407,0.0124468737097753,0.0,0.0895023179429282,0.3542847656931518,0.8229806131191655,0.3289066637467329,0.6732759712378107,0.6808275523341814,0.5033834617860703,0.5710036297957075,0.3444861315444371,0.5582493620581697,0.1715384747334098,0.1469191536150442,0.7138769452837995,0.7117241436663546,0.8805220593480138,2
265925029,0.7089075729750726,0.9019229149397998,0.5831552668989676,0.4758730158728212,0.6654964352349543,0.5524973924280132,0.4261997293774798,0.6126634542768877,0.3282014251909311,0.7468264667736708,0.9510210012308038,0.6241336610101141,0.4660912431221083,0.8529141758706191,0.2715079782989364,0.1408637873537372,0.3452211127150804,0.5144463274500888,0.1812464092580132,0.0376811594202898,0.0054127200748552,0.08,0.4745762711864407,0.0124468737097753,0.0,0.087515586168366,0.3607522077025289,0.8197220680647792,0.2872638531735467,0.7123591778965449,0.6908051293842238,0.5149488608639853,0.447098858023731,0.5430281986975811,0.6595183438877639,0.1731442615171056,0.1330273961130265,0.7195994020288488,0.7310344861998127,0.8785140374818834,2
266125029,0.6775088412510916,0.8964168080733792,0.5826428564692214,0.4761904761903679,0.6703762848157817,0.5425055882076978,0.4305668867253452,0.6064364718745444,0.2678635340770989,0.8100806978561453,0.9488233685510904,0.7577607860414207,0.4610824240171577,0.8529141758706191,0.2673157652985779,0.1408637873537372,0.3452211127150804,0.5144463274500888,0.1812464092580132,0.0376811594202898,0.0054127200748552,0.08,0.4745762711864407,0.0124468737097753,0.0,0.0854181658439226,0.3651502819371729,0.8182210695450526,0.282596287778687,0.7096796930998276,0.7019504463476668,0.5298151531397903,0.5102143065984821,0.4996293684174052,0.557165390680546,0.1766856582397904,0.1170463342158485,0.7138769452837995,0.8027586308165918,0.8664658247652581,2
266325029,0.6018690930822436,0.8968640235022292,0.5722386327709168,0.5234920634920854,0.5195930985833793,0.5511592755484067,0.4297794051088867,0.5988469482998874,0.2665806017650631,0.8137365197855977,0.9462907570147314,0.6306493167976377,0.465028781470118,0.8529141758706191,0.2757434129014249,0.1408637873537372,0.3452211127150804,0.5141983218286281,0.1791499924575955,0.0376811594202898,0.0054127200748552,0.08,0.2372881355932203,0.000455373406193,0.0,0.0855097375851207,0.3636003917564829,0.8172672377639751,0.3153946917629652,0.6686766519206488,0.6989900572843015,0.5299295165579886,0.4317172757470507,0.6025391184200034,0.6238883425976148,0.1817524341175217,0.1038461319333645,0.7153075618863255,0.8027586308165918,0.8684738466313885,2
266525029,0.6404636291670684,0.9023290561042,0.5604395810306555,0.4841269841267603,0.4805625436040106,0.5478847790832777,0.423901766356773,0.5941086784779066,0.3323913231903596,0.7446714859845704,0.9448997662095324,0.4685279927359376,0.460181018673234,0.8529141758706191,0.2154672308981901,0.1408637873537372,0.3452211127150804,0.5141983218286281,0.1791499924575955,0.0376811594202898,0.0054127200748552,0.08,0.2372881355932203,0.000455373406193,0.0,0.0872223092974017,0.3570688934072575,0.8178086645219901,0.3240377159636537,0.6552175823645793,0.7277133714860886,0.5644460503411326,0.4434985452599246,0.6010789578124385,0.6670214051389985,0.1853868122008334,0.0921075598841742,0.7181687926751139,0.7227586246388327,0.8875501797747701,2
266725029,0.7343373351803192,0.906044499412488,0.5554247513438328,0.4523809523807358,0.6565906464472739,0.5532911753801388,0.4177105609103377,0.5936415936606575,0.3399330009261644,0.738473681477659,0.9445260313718472,0.6082886068306369,0.464567672902872,0.8529141758706191,0.2521503890132461,0.1408637873537372,0.3452211127150804,0.5141983218286281,0.1791499924575955,0.0376811594202898,0.0054127200748552,0.08,0.2372881355932203,0.000455373406193,0.0,0.0873853732854315,0.3553075754428323,0.819061677123434,0.2907541081504183,0.6838017640644762,0.7167930213293088,0.5568054770655371,0.5432129864245187,0.2663455596091031,0.6087912799456454,0.186164324470525,0.0838553151178494,0.7167381736563241,0.725517246426392,0.8875501797747701,2
266925029,0.7061906158134892,0.9146147899998308,0.551363421751889,0.5555555555552019,0.6743923721060383,0.6861734201562172,0.4191618115407096,0.5940757941246005,0.2587159015226887,0.79969940805756,0.94521167183694,0.7460324883911272,0.5698614225907105,0.8529141758706191,0.2527864619936878,0.1408637873537372,0.3452211127150804,0.5141983218286281,0.1791499924575955,0.0376811594202898,0.0054127200748552,0.08,0.2372881355932203,0.000455373406193,0.0,0.086197270355011,0.35778916093599,0.8191898983211044,0.2808504644289505,0.6961340298823596,0.7034562379311332,0.5449623870747283,0.3839049757625787,0.3603856709849393,0.6634300546209968,0.1854274979351989,0.0777118554027244,0.7067238690367077,0.8013793177843571,0.872489937394328,2
267125029,0.632018509325665,0.9044547219444248,0.5458752300890297,0.4841269841267603,0.5199909661216,0.6656879767933631,0.4161766938186972,0.5934677729022255,0.1836935929347405,0.7890200013854051,0.9439457037588136,0.6043226630090691,0.6520456797136709,0.8529141758706191,0.2685115270963942,0.1408637873537372,0.3452211127150804,0.5141983218286281,0.1791499924575955,0.0376811594202898,0.0054127200748552,0.08,0.2372881355932203,0.000455373406193,0.0,0.0869501091227861,0.358083050916311,0.8188716418127314,0.3355783863665269,0.687220396800153,0.6941680585627982,0.5386795741091348,0.65445065365801,0.4611981303419718,0.5675967929965939,0.1871883607466149,0.0734839558721016,0.6709584858682375,0.7986207012241324,0.8684738466313885,2
267325029,0.6432742689892393,0.9008661632389112,0.541785098167004,0.4285714285711037,0.4835055657751081,0.4923017804114995,0.4167031550068981,0.5907083907810661,0.2375032445258781,0.7214780007039628,0.942338123004548,0.4459893780543196,0.5942094158590453,0.8529141758706191,0.2389648552700313,0.1382059800671413,0.3623395150061697,0.5178770718802959,0.175719461052081,0.0376811594202898,0.0054127200748552,0.08,0.423728813559322,0.0163934433819064,0.0,0.0899700897879968,0.3587347590671004,0.8201861506813322,0.3731228077493568,0.7200418796992202,0.7098976290070669,0.5599194029460463,0.4181824152585343,0.4471219553301603,0.6235146145236272,0.1866168181816948,0.0674494232055351,0.6723891024707636,0.7241379352950063,0.8835341046887235,2
267525029,0.7006790192841477,0.9032851225768908,0.5342427672134513,0.4206349206347113,0.5437522394088081,0.3650877443599278,0.4139968566213812,0.5900986875317752,0.345670333373162,0.683779039439639,0.9386494232823808,0.4076161517406771,0.439254960957775,0.8529141758706191,0.22691366669211,0.1382059800671413,0.3623395150061697,0.5178770718802959,0.175719461052081,0.0376811594202898,0.0054127200748552,0.08,0.423728813559322,0.0163934433819064,0.0,0.0918340320043292,0.3666300685360262,0.8228390897754885,0.3440152923604065,0.8031663254169206,0.7067979837896969,0.5626389278109993,0.3321210277644046,0.723207520297056,0.6175653269558633,0.1880137437403733,0.0618657378014416,0.7081544861224864,0.6717241398646566,0.8945782876600121,2
267725029,0.7526275346219833,0.9115029785380672,0.5276537725359406,0.55523809523811,0.6789663514856108,0.5276864573935879,0.4156838386759373,0.5892326060559905,0.3661959244383191,0.7158854736607447,0.9411088421930396,0.5678407841451408,0.4450407514415851,0.8529141758706191,0.2599287577821072,0.1382059800671413,0.3623395150061697,0.5178770718802959,0.175719461052081,0.0376811594202898,0.0054127200748552,0.08,0.423728813559322,0.0163934433819064,0.0,0.0900670257681308,0.3800197672337248,0.8260666527538354,0.2742374280291552,0.8640906061641053,0.7006201696275024,0.5644298916002514,0.3834370848053118,0.4025666989233717,0.6679816497947406,0.1899425337806015,0.0602356733291856,0.7224606400664284,0.7034482792541011,0.8965863095261424,2
267925029,0.744107052640295,0.9126984188490962,0.5201071599536917,0.4761904761903679,0.70464902534916,0.5689679909192382,0.4182281556291819,0.5888533453415123,0.2935024048135697,0.7902063853870714,0.9437353586567446,0.7559984907327149,0.4663415186575956,0.8529141758706191,0.2398408121766684,0.1382059800671413,0.3623395150061697,0.5178770718802959,0.175719461052081,0.0376811594202898,0.0054127200748552,0.08,0.423728813559322,0.0163934433819064,0.0,0.0865293151208431,0.3900053243352879,0.8307904273153507,0.2445377584437816,0.8609122674582657,0.7077491902999339,0.5802612242393819,0.6641866863176057,0.1205529529172299,0.6014353755088444,0.188705634882791,0.0600345077145416,0.7195994020288488,0.7875862112226217,0.8835341046887235,2
268125029,0.7209701235515089,0.909340028599894,0.511398952675615,0.6666666666665151,0.6928400432852215,0.5139143460970563,0.4203804453329275,0.5909758621447269,0.2256635924300639,0.8655629100751366,0.93857053733785,0.8947996330486416,0.4322444313255921,0.8529141758706191,0.2312502834148303,0.1382059800671413,0.3623395150061697,0.5178770718802959,0.175719461052081,0.0376811594202898,0.0054127200748552,0.08,0.423728813559322,0.0163934433819064,0.0,0.0850029997390312,0.390659186824935,0.8340989329045322,0.2870653142956927,0.7860188855579426,0.6784057785421528,0.555437331156937,0.6048025479499866,0.2052829505949254,0.6360221177974307,0.1884070781156082,0.0601691776349996,0.7181687926751139,0.867586219776442,0.8554216574708625,2
268325029,0.6471653794967778,0.9079519679101496,0.505125703913943,0.4920634920631528,0.5797702968257036,0.4678815690915556,0.424164707950007,0.5936487216738556,0.2251287607299117,0.9063973634154896,0.9335559097174864,0.8713948570329337,0.3738053695759628,0.8529141758706191,0.2479592518461701,0.1382059800671413,0.3766048501711339,0.5170090522051831,0.1766723864425017,0.0376811594202898,0.0054127200748552,0.08,0.6610169491525424,0.0104735883424408,0.0,0.0875682858856934,0.3806316080126198,0.835891412280234,0.381612562268404,0.6527871953929789,0.6697226239330253,0.5517942807963608,0.5067724049075284,0.5725825998704117,0.6658207098667736,0.1864123088406838,0.063063305886052,0.7396280190001256,0.8979310494601375,0.8524096089947741,2
268525029,0.6403806268098015,0.9100610442037068,0.495556330794611,0.5473015873017175,0.4734276764907414,0.5311270662242431,0.4227806377362582,0.591025789744823,0.2877446800302734,0.8598457989234174,0.9398135695849842,0.6839081692735256,0.3725041414902363,0.8529141758706191,0.2488836750421901,0.1382059800671413,0.3766048501711339,0.5170090522051831,0.1766723864425017,0.0376811594202898,0.0054127200748552,0.08,0.6610169491525424,0.0104735883424408,0.0,0.0931276782356591,0.3622085934540877,0.8391591788133969,0.4540248336476147,0.5211628306349578,0.7152115157743687,0.6033984811898854,0.3741817415293894,0.4420922999079218,0.6539397055755679,0.1862171166204644,0.0699704331414927,0.7525035563415415,0.8413793244373284,0.8684738466313885,2
268725029,0.6753377395918044,0.9179131890577192,0.4854920907537212,0.5631746031745024,0.4728860026850089,0.6184948842039073,0.4221317337067176,0.5904232072377207,0.3538059266389599,0.7827417859145545,0.9439808486817508,0.5278134200136235,0.4220360030464107,0.8529141758706191,0.2123334361292034,0.1382059800671413,0.3766048501711339,0.5170090522051831,0.1766723864425017,0.0376811594202898,0.0054127200748552,0.08,0.6610169491525424,0.0104735883424408,0.0,0.09881520552935,0.3393818141022566,0.8431187778585246,0.4651069711985755,0.4471555902751662,0.692726975787001,0.5812363196350111,0.3516206411508654,0.411427591337192,0.6171218298956022,0.1876349545881926,0.0815245926174383,0.7639484780469368,0.7544827649787016,0.8955822985930773,2
268925029,0.722194270317277,0.9215699610729317,0.4785408107180211,0.4682539682539754,0.5270269842459355,0.7536690943412232,0.4232408511938964,0.591598801055383,0.3363609903768567,0.7194579657969892,0.9427284830298857,0.4518422552716336,0.5696933997515323,0.8529141758706191,0.2554222266403109,0.1382059800671413,0.3766048501711339,0.5170090522051831,0.1766723864425017,0.0376811594202898,0.0054127200748552,0.08,0.6610169491525424,0.0104735883424408,0.0,0.1022110788423227,0.3210626008013087,0.843197604030412,0.4242953755754498,0.4630496145493552,0.6475473199748083,0.5324148095219636,0.482656237487633,0.6340898099583578,0.5265254577388171,0.1875441199622938,0.094326821398166,0.7339055574225489,0.692413796380774,0.901606395545254,2
269125029,0.7777444479423216,0.906024054309865,0.472514958185574,0.5393650793648703,0.6015207429334174,0.5361676371722763,0.4197599810423949,0.5919952577078553,0.3019876540610583,0.6933868341369631,0.9408710329234508,0.4867332352769696,0.5422756262906406,0.8529141758706191,0.2454551288495937,0.1382059800671413,0.3766048501711339,0.5170090522051831,0.1766723864425017,0.0376811594202898,0.0054127200748552,0.08,0.6610169491525424,0.0104735883424408,0.0,0.102635104323988,0.3155999108248949,0.8410124050507012,0.3648660319389218,0.5435661132895908,0.6653714038235686,0.5473441021078252,0.1540704469175023,0.6454978161915834,0.6784326909742747,0.1856428577789498,0.1032918774105395,0.7110157169112749,0.6744827630778527,0.8935742579146754,2
269325029,0.7754381824443815,0.9107033284830504,0.4662680693640493,0.5314285714284779,0.6592735351068965,0.4732218073291307,0.4169364562074161,0.5896719859025261,0.304665815421445,0.7406152569651343,0.9435865428110376,0.6231104547629447,0.4744520393072434,0.8529141758706191,0.261943390083001,0.1428571428405121,0.3766048501711339,0.5164717066920184,0.1804840689456767,0.0376811594202898,0.0054127200748552,0.08,0.3389830508474576,0.0136612030965391,0.0,0.1009189568391537,0.3238722068117461,0.8387587972483075,0.3311899009706939,0.6193845486143773,0.6757369459520928,0.5519777913410279,0.675262190358195,0.3700683035280799,0.599342270498753,0.187844575202365,0.1115082758329841,0.7367667901443483,0.7241379352950063,0.8955822985930773,2
269525029,0.7512759762377251,0.9101835646658832,0.4585379647916558,0.579047619047742,0.6205787882257299,0.5324636467115222,0.4186513225597614,0.5888800105578357,0.2856277020487057,0.7794284028736028,0.944254607911882,0.6464120434746897,0.4732465467621654,0.8529141758706191,0.2598813673260072,0.1428571428405121,0.3766048501711339,0.5164717066920184,0.1804840689456767,0.0376811594202898,0.0054127200748552,0.08,0.3389830508474576,0.0136612030965391,0.0,0.0986045621284123,0.3354742449501507,0.8363423291678611,0.316255746574701,0.6438561262835905,0.6691947662417136,0.539365101303644,0.4349541304724358,0.2504543296972772,0.5583744479433035,0.1885364517411448,0.1243985145701185,0.7381974052971161,0.7558620732588139,0.8905622251154799,2
269725029,0.7181479954030695,0.9086983522002898,0.4511447908892592,0.579047619047742,0.5869180361321836,0.5405366964221293,0.4181846073987433,0.5886149967954611,0.2811120593281666,0.7889502282981552,0.9440561351792982,0.6402645900635271,0.4629590233596543,0.8529141758706191,0.2580848333273355,0.1428571428405121,0.3766048501711339,0.5164717066920184,0.1804840689456767,0.0376811594202898,0.0054127200748552,0.08,0.3389830508474576,0.0136612030965391,0.0,0.096980081522138,0.3434008300654804,0.8344340900282845,0.324595041950532,0.6412866635015622,0.6636901868180608,0.5320560413551583,0.4970938201093701,0.4127202921857375,0.6413594787036824,0.1887968930141803,0.128091914609393,0.7410586346361462,0.7641379371958552,0.8885541907078353,2
269925029,0.7184296834030087,0.90732650567331,0.4455395432209998,0.6111111111108585,0.5820524817648615,0.543860285374247,0.4163558151292206,0.5892428945347481,0.2873955235846511,0.7860370050283679,0.9443278798802308,0.6398159804732633,0.4665165589983329,0.8529141758706191,0.2426881528862374,0.1428571428405121,0.3766048501711339,0.5164717066920184,0.1804840689456767,0.0376811594202898,0.0054127200748552,0.08,0.3389830508474576,0.0136612030965391,0.0,0.0971869588757986,0.3460019422083864,0.8337085599309552,0.33246023190367,0.6296545306851054,0.6759154045994936,0.5475427860362904,0.2100499844661389,0.5450614221263324,0.6387094344697666,0.1883682324395806,0.1206974642980664,0.7424892483391557,0.7586206945711611,0.8905622251154799,2
270125029,0.724598258590544,0.9067461234104368,0.4407613870758845,0.6666666666665151,0.572657852677061,0.541537767188075,0.4162179958896069,0.5901123134039956,0.2937505613869034,0.7827727812995156,0.944658659382062,0.6275689704564393,0.4627087858074962,0.8529141758706191,0.2623993551240137,0.1428571428405121,0.3766048501711339,0.5164717066920184,0.1804840689456767,0.0376811594202898,0.0054127200748552,0.08,0.3389830508474576,0.0136612030965391,0.0,0.0976656117665815,0.3462551695767257,0.8343829295759555,0.3420941069787642,0.6194783915989832,0.6731190871030741,0.5474223674024119,0.359279291865996,0.6328919508138775,0.600288490137086,0.1878045174244164,0.108881308559082,0.7439198649416818,0.7544827649787016,0.8905622251154799,2
270325029,0.7286332531843904,0.9064570923363512,0.4371694058984687,0.5234920634920854,0.5840163179141982,0.566182023551494,0.4169959377322933,0.5909860948790766,0.2932598152892188,0.7797864030115415,0.944975412651778,0.6277375122087673,0.4713263690709755,0.8529141758706191,0.264575106906898,0.1441860464983619,0.3780313837341964,0.5137849791261937,0.1778158969110065,0.0376811594202898,0.0054127200748552,0.08,0.423728813559322,0.0083485124468731,0.0,0.0975548881202955,0.3477496428432244,0.834033856429334,0.3436654489541198,0.6092888861076902,0.6627783526099902,0.5382424232151124,0.3778772005048603,0.3817380667180081,0.6414876651538479,0.1872820576854843,0.1008423503458317,0.7424892483391557,0.7531034566985894,0.8905622251154799,2
270525029,0.7224169166404326,0.90461904322054,0.4347101128384478,0.579047619047742,0.5858134184807902,0.5550090081160693,0.4172454473082521,0.5920113242156727,0.2902944882464191,0.7799291979651028,0.9453117790371796,0.6293002651298962,0.4711265604593171,0.8529141758706191,0.2541028112545717,0.1441860464983619,0.3780313837341964,0.5137849791261937,0.1778158969110065,0.0376811594202898,0.0054127200748552,0.08,0.423728813559322,0.0083485124468731,0.0,0.0973701690703693,0.3487737775184217,0.8330611615813728,0.3428321064193147,0.6059421033698373,0.6598628905399496,0.5357192158580434,0.2284955289297768,0.4105215500775904,0.6000256827488163,0.1865633688680629,0.0997925737834689,0.7424892483391557,0.7517241436663545,0.8885541907078353,2
270725029,0.7145954945120442,0.9010830237304142,0.433421081979998,0.5314285714284779,0.5852233957802019,0.5437811927463406,0.4173933873764226,0.5930419874202015,0.2896100834897987,0.7796644914429124,0.9456508933874824,0.6229010888650189,0.4677298343534974,0.8529141758706191,0.2565333069108678,0.1441860464983619,0.3780313837341964,0.5137849791261937,0.1778158969110065,0.0376811594202898,0.0054127200748552,0.08,0.423728813559322,0.0083485124468731,0.0,0.0972823543848074,0.3495122544076841,0.830928358112249,0.347232945941149,0.6007723536711744,0.6526405758922109,0.5273878671388978,0.3114244322998719,0.3425657225185623,0.6539641956063548,0.1859021161573394,0.0940985087549732,0.7424892483391557,0.7503448306341198,0.8905622251154799,2
270925029,0.7158964114580855,0.9006940775705891,0.4316263721567436,0.5393650793648703,0.5855357912926769,0.5430942243422191,0.417842693953678,0.593554802041267,0.2948410514494435,0.7790140733950202,0.945822906314366,0.6205930665965455,0.4585131768120778,0.8529141758706191,0.2518867022756724,0.1441860464983619,0.3780313837341964,0.5137849791261937,0.1778158969110065,0.0376811594202898,0.0054127200748552,0.08,0.423728813559322,0.0083485124468731,0.0,0.0974416209998434,0.3510356482138644,0.8286442900143427,0.3554810879595266,0.5989299607534648,0.6637811913563467,0.5377834018604396,0.6872951968778888,0.3213824207674594,0.6582326875297368,0.1855135133606885,0.0845009689407166,0.7453504791279442,0.7475862140738951,0.8895582141824148,2
271125029,0.7264227904072477,0.8990958236918198,0.4289042987894343,0.6269841269840981,0.5907335042284249,0.5490297610698093,0.4183174915734099,0.5933989552188698,0.2961332256659888,0.7779483596167038,0.945775391679,0.631177469612488,0.4608043902394594,0.8529141758706191,0.2646025272076892,0.1441860464983619,0.3780313837341964,0.5137849791261937,0.1778158969110065,0.0376811594202898,0.0054127200748552,0.08,0.423728813559322,0.0083485124468731,0.0,0.0973887939492786,0.3523482478653855,0.8274017288170185,0.3505231228384209,0.6007762883282828,0.6685052220837389,0.5420833381272689,0.4363000025837253,0.6007680918227786,0.7031445685692617,0.185605019753917,0.0770920735696095,0.746781096213723,0.7462068962895381,0.8905622251154799,2
271325029,0.6925403881470233,0.9026501425417442,0.4267324333253708,0.5393650793648703,0.5487459322146061,0.6030890539255572,0.4181907486649735,0.5935487283244786,0.2967774525019425,0.7694536166639743,0.9457455781950084,0.5636385792331641,0.5000597420748989,0.8529141758706191,0.267826597837005,0.1441860464983619,0.3666191156953573,0.5103129004257432,0.1743853655054921,0.0376811594202898,0.0054127200748552,0.08,0.3220338983050848,0.0033394052823315,0.0,0.0971450943758221,0.3534992934608639,0.8254753074127323,0.3448328295783149,0.6046485341212784,0.6532454645451523,0.5251000061447115,0.3747424374743713,0.6279799683585723,0.6284635391184805,0.1855127101606202,0.0748104158532579,0.7453504791279442,0.7337931122642822,0.8935742579146754,2
271525029,0.6965069007959827,0.8926277313962039,0.424134192106268,0.6666666666665151,0.513806685378487,0.5406962668503452,0.4178771733498853,0.5937055349201592,0.3113570149414255,0.7212838284083779,0.943782617847486,0.4504947772126865,0.503018338695942,0.8529141758706191,0.2460598278419306,0.1441860464983619,0.3666191156953573,0.5103129004257432,0.1743853655054921,0.0376811594202898,0.0054127200748552,0.08,0.3220338983050848,0.0033394052823315,0.0,0.0965805655132789,0.3560760514650907,0.8236113200196448,0.3284483963317208,0.6372192134494594,0.6597680138432049,0.5330407175149027,0.5350177071544988,0.7732163292889327,0.6565642868269101,0.1853102745361492,0.0701776511554863,0.7310443251840023,0.6882758654672246,0.8945782876600121,2
271725029,0.7848090885781157,0.9006866062200096,0.4209735682658005,0.515555555555693,0.6574434237703147,0.5184678258542538,0.4158810688687486,0.5926051136483503,0.3365674165608253,0.7258352249818005,0.9435100371459638,0.573913659700801,0.4707598574639813,0.8529141758706191,0.2483641417020897,0.1441860464983619,0.3666191156953573,0.5103129004257432,0.1743853655054921,0.0376811594202898,0.0054127200748552,0.08,0.3220338983050848,0.0033394052823315,0.0,0.0950660834209591,0.3624647533147451,0.8227298889882809,0.2861135746347731,0.6868519528888506,0.6658661252129531,0.5403836907824332,0.2787019433792573,0.5742335169460779,0.5527008352759722,0.186672647888256,0.0654454011521412,0.7410586346361462,0.692413796380774,0.8975903392714791,2
271925029,0.7660702363947137,0.8983961129408587,0.4205696803693052,0.5,0.7062747686516179,0.536181966683798,0.4171936707512071,0.5933319043908765,0.2749304342718487,0.7977182634558884,0.944974061891566,0.7554330976497347,0.4549112592933327,0.8529141758706191,0.2362716814698636,0.1441860464983619,0.3666191156953573,0.5103129004257432,0.1743853655054921,0.0376811594202898,0.0054127200748552,0.08,0.3220338983050848,0.0033394052823315,0.0,0.0925306654750333,0.3707049079327698,0.8232956664913118,0.2733184284826855,0.7034078021553729,0.6696933636783073,0.548462673498545,0.5296055038811779,0.517545872434002,0.6858307482910819,0.1858913094655122,0.0655654807552342,0.7381974052971161,0.7737930999087639,0.8855421265548539,2
272125029,0.6506267177987854,0.8995441822251993,0.4169790022962752,0.55523809523811,0.5436992301793324,0.5692179239972633,0.4191553562467974,0.5936533339176898,0.2511268156906804,0.8246286039143258,0.9439048616466726,0.6680854739090202,0.4763388681411025,0.8529141758706191,0.2711758282208389,0.1441860464983619,0.3666191156953573,0.5103129004257432,0.1743853655054921,0.0376811594202898,0.0054127200748552,0.08,0.3220338983050848,0.0033394052823315,0.0,0.0917090423946053,0.3732943648603952,0.8231973139220184,0.3078916039024055,0.6626206964736034,0.6449414568839613,0.5260237638540675,0.5157680184327215,0.5152445974984659,0.5737318018587094,0.185723718120365,0.0643664762345115,0.7367667901443483,0.7986207012241324,0.882530081214144,2
272325029,0.6967477076348968,0.9011513436007048,0.4132921402269504,0.4920634920631528,0.5364390492024251,0.5402094541430243,0.4174750769175376,0.5926857806538843,0.2870104718852383,0.7817130652945696,0.9454646800616938,0.5999719327931617,0.4836406327571544,0.8529141758706191,0.2508062832536706,0.1421926910115871,0.3637660485692322,0.5067168189145619,0.1724795147246507,0.0376811594202898,0.0054127200748552,0.08,0.4745762711864407,0.0145719489981785,0.0,0.0931500862749685,0.3685809676079846,0.8230245814695342,0.3333968288558971,0.6277417826567584,0.6736414398792333,0.5590701561860272,0.1750513845091916,0.6887621835649018,0.6402695021246058,0.1861405205412299,0.0606608745581486,0.7353361725753167,0.7517241436663545,0.8925702657938818,2
272525029,0.7182395980045833,0.9044239889010364,0.4113956691206299,0.6349206349204906,0.578347953610999,0.5600469537410883,0.4169960060026387,0.5936139444343518,0.3000877461589699,0.7672850189476841,0.9458096057772069,0.6005932450954534,0.481538697544126,0.8529141758706191,0.2485964544515586,0.1421926910115871,0.3637660485692322,0.5067168189145619,0.1724795147246507,0.0376811594202898,0.0054127200748552,0.08,0.4745762711864407,0.0145719489981785,0.0,0.0949571691248668,0.3637491664395925,0.8238648731762384,0.341023191133789,0.6196864408313032,0.6413900642104253,0.5278612778177462,0.3306096464541776,0.5027830563408331,0.583468638296482,0.1855578207971799,0.0567484745008138,0.7353361725753167,0.7379310394806804,0.8975903392714791,2
272725029,0.7172940511510527,0.904795958021133,0.4116451652094938,0.603174603174466,0.5892579433654301,0.5551647970134853,0.4172466925044482,0.5951676040972278,0.2971490132855137,0.7674262456548486,0.946324146723468,0.6066722602748224,0.4816424074016302,0.8529141758706191,0.2702908477625436,0.1421926910115871,0.3637660485692322,0.5067168189145619,0.1724795147246507,0.0376811594202898,0.0054127200748552,0.08,0.4745762711864407,0.0145719489981785,0.0,0.0956513995070241,0.3608239686871617,0.8215883830372882,0.3335543939634665,0.6289005809102586,0.6310088375846673,0.5183538013952511,0.1902118843851285,0.7137405915760382,0.5783468358727055,0.1845080237043559,0.0570199932054958,0.7324749451692976,0.7379310394806804,0.8985943502045444,2
272925029,0.7090913381940047,0.9030933135117716,0.4119470833262213,0.579047619047742,0.5877150690912,0.5452486106446248,0.4179380828914263,0.5961356275529952,0.2946625004241027,0.7692065079853838,0.9466547830214946,0.6137194956467183,0.4781265272263991,0.8529141758706191,0.2609689271914225,0.1421926910115871,0.3637660485692322,0.5067168189145619,0.1724795147246507,0.0376811594202898,0.0054127200748552,0.08,0.4745762711864407,0.0145719489981785,0.0,0.0952403596951522,0.3611640950795028,0.8207888595060229,0.3280617320860636,0.6391454340827627,0.6371816303330167,0.5277028162053236,0.2121047269547276,0.8500013946964422,0.5881938885314272,0.1838481145282919,0.0562688500969005,0.7324749451692976,0.7448275899102746,0.8925702657938818,2
273125029,0.709080457885004,0.9009003449705412,0.4110461095075569,0.4838095238096684,0.5922022963074727,0.5548308253202029,0.4173799549999649,0.596447444804955,0.2929336170877006,0.7712834057907395,0.946768724870381,0.6102827295031643,0.4727193123259642,0.8529141758706191,0.2620339349016508,0.1421926910115871,0.3637660485692322,0.5067168189145619,0.1724795147246507,0.0376811594202898,0.0054127200748552,0.08,0.4745762711864407,0.0145719489981785,0.0,0.0948723379237698,0.3619687491861604,0.819159393013878,0.3294574917053844,0.6427353815834702,0.6223002816575293,0.5138248452571559,0.4630572193639549,0.8303047032847248,0.6535370743722642,0.1837892180578337,0.0635645091111125,0.7296137163135201,0.7475862140738951,0.8915662360485451,2
273325029,0.7105124985549589,0.8994733049007071,0.411285322241239,0.5711111111108949,0.5841790991470267,0.5343498809980088,0.4179733590845347,0.5969963914970027,0.2944468490449384,0.7718371722854155,0.9469478205800382,0.6135552954407051,0.4768776597353844,0.8529141758706191,0.2641351717817966,0.1421926910115871,0.3637660485692322,0.5025420576199728,0.1751476867593208,0.0376811594202898,0.0054127200748552,0.1733333333333333,0.3728813559322034,0.0166970264116575,0.0,0.0945692601642123,0.3631410227795633,0.8165297001009664,0.329940871725963,0.6434182384994718,0.6252057760823885,0.5180835923568863,0.5380765707433923,0.7562103815009715,0.6151567704845429,0.1833057500313051,0.0746509553050644,0.7281830992277414,0.7475862140738951,0.8905622251154799,2
273525029,0.706485584190591,0.9009834380137764,0.4111478261127583,0.5711111111108949,0.5877183174502789,0.5579708995572096,0.4197887411299285,0.5971619160333408,0.2956622722244043,0.7725399090032641,0.9470034842859668,0.6138804439286311,0.4801343145074608,0.8529141758706191,0.2606659321952846,0.1421926910115871,0.3637660485692322,0.5025420576199728,0.1751476867593208,0.0376811594202898,0.0054127200748552,0.1733333333333333,0.3728813559322034,0.0166970264116575,0.0,0.0938474031103819,0.3649275314154364,0.814514090354422,0.327304744897375,0.6419740660123742,0.6296095329513217,0.5233356117614476,0.5719014017725382,0.5784947943336521,0.6706774553825466,0.183051164816949,0.0799842650528701,0.7267524782759406,0.7489655223540075,0.8905622251154799,2
273725029,0.7054645151922315,0.8991341758175171,0.4106308287555741,0.4996825396824533,0.5928393082933598,0.5612981627236743,0.4192759834112348,0.5973265971325512,0.2888077985291243,0.7736831410160774,0.947058530667386,0.6140796837192062,0.4808145062199481,0.8529141758706191,0.2718640522196566,0.1421926910115871,0.3637660485692322,0.5025420576199728,0.1751476867593208,0.0376811594202898,0.0054127200748552,0.1733333333333333,0.3728813559322034,0.0166970264116575,0.0,0.0929787212620601,0.3661137128110814,0.8127550256615137,0.3255369279853971,0.640762924491426,0.6186946691733171,0.5142841145433832,0.4810808939204288,0.5561724396581476,0.6681617995652678,0.1830789701429476,0.087396662745734,0.7224606400664284,0.7517241436663545,0.8855421265548539,2
273925029,0.7063279797146239,0.8965593570831383,0.4092757491205404,0.4285714285711037,0.5848730012679763,0.5367158129215545,0.4197874963429441,0.5971222841830122,0.2891232815143448,0.7740906890197585,0.9469926569172188,0.6150540136250312,0.4728472407972279,0.8529141758706191,0.2682420712028425,0.1421926910115871,0.3637660485692322,0.5025420576199728,0.1751476867593208,0.0376811594202898,0.0054127200748552,0.1733333333333333,0.3728813559322034,0.0166970264116575,0.0,0.0926317790875557,0.366450448219953,0.8109542787395007,0.3284206397727073,0.6438981586690802,0.6240732259644837,0.522119270489365,0.4500561499303852,0.7749306986012192,0.644403870563634,0.1832195155512516,0.0942280946599777,0.7224606400664284,0.7544827649787016,0.8845381469755746,2
274125029,0.7157035259801379,0.8962655792190571,0.4073746315162955,0.5234920634920854,0.5878282752380043,0.5548947109952999,0.4203529924711381,0.596727526523145,0.2922501694108965,0.7733952518971673,0.9468660202445632,0.6122881571065325,0.474206866804414,0.8529141758706191,0.2593559034549364,0.1421926910115871,0.3637660485692322,0.5025420576199728,0.1751476867593208,0.0376811594202898,0.0054127200748552,0.1733333333333333,0.3728813559322034,0.0166970264116575,0.0,0.0923409981220766,0.3669743697608398,0.8091493336854776,0.3334647001894685,0.6421646051216523,0.6285332597490143,0.5272796943556654,0.6228919047496457,0.6631113723407133,0.6208595602048613,0.1834013016321501,0.0952287418793545,0.7210300186313748,0.7503448306341198,0.8845381469755746,2
274325029,0.7218997819538076,0.8973384118819709,0.4055640610510881,0.4841269841267603,0.5894677708862571,0.5413074416121613,0.4204010887163825,0.5965518225731948,0.2934690409761278,0.7738434680232258,0.9468094915102464,0.6100859475052457,0.4766274104402633,0.8529141758706191,0.2609794703575924,0.1428571428405121,0.3623395150061697,0.501384698053156,0.1783876521452589,0.0376811594202898,0.0054127200748552,0.1733333333333333,0.0847457627118644,0.0065270192774741,0.0,0.0923373231514203,0.3677261998489172,0.8068367976526628,0.3342540076716248,0.638448484352489,0.6320843500773871,0.5293686598458373,0.6161325639231042,0.5662962044808442,0.6845416300397,0.183485272548375,0.0989197855178156,0.7195994020288488,0.7517241436663545,0.882530081214144,2
274525029,0.7197635132837773,0.8997868206925751,0.4037884137834204,0.5234920634920854,0.5831654872644756,0.551197655969242,0.4187158276955309,0.5966504538200839,0.2951567791827518,0.7729750065516325,0.946840021013262,0.6134097775181742,0.4782823365324159,0.8529141758706191,0.2450009389334975,0.1428571428405121,0.3623395150061697,0.501384698053156,0.1783876521452589,0.0376811594202898,0.0054127200748552,0.1733333333333333,0.0847457627118644,0.0065270192774741,0.0,0.0929336661798248,0.3679870984007302,0.8052924190935663,0.3320614215108325,0.6375344024702456,0.6446812551463722,0.5416903127628131,0.4158664004861604,0.5820839406440654,0.6033418487106663,0.1835690828245861,0.1072513409252156,0.7195994020288488,0.7558620732588139,0.8815260828225933,2
