timestamp,rollspeed_integ,pitchspeed_integ,yawspeed_integ,baro_pressure_pa,xyz[0],xyz[1],xyz[2],q[0],q[1],q[2],q[3],roll_body,pitch_body,yaw_body,thrust_body[2],lat,lon,alt,eph,hdop,vdop,noise_per_ms,jamming_indicator,vel_m_s,cog_rad,x,y,z,vx,vy,vz,z_deriv,ax,ay,az,heading,evh,magnetometer_ga[0],magnetometer_ga[1],magnetometer_ga[2],class
285925029,0.6842966340244063,0.9052130216461858,0.4393368408076206,0.5238095238091773,0.5799521555926594,0.5436641485694976,0.4202938381782641,0.6001204389924568,0.2981044193095477,0.7754476659985733,0.947944368116279,0.5996401981933678,0.4639622952818152,0.8529141758706191,0.2551315499352591,0.1980066444957628,0.3366619115695357,0.452568924895631,0.2367066860390045,0.0463768115942029,0.0064276017059405,0.0666666666666666,0.3220338983050848,0.0546448132969034,0.931254442913399,0.1211830321902461,0.366370514844128,0.8569267342159564,0.3153111526233805,0.6672527786172241,0.7297738155477925,0.5849447180015155,0.4166713210289033,0.6814777954825113,0.5782992015918537,0.1812783708336103,0.1780580542594858,0.7281830992277414,0.7434482797293134,0.8614457606937966,2
286125029,0.6720581264507912,0.9047185562822287,0.4390897349845158,0.579047619047742,0.5151568075278105,0.5604093542739758,0.4205247120106173,0.6002180741110137,0.3275801216740229,0.7399211951929306,0.9468654803275156,0.4863546979503387,0.4822533978263516,0.8529141758706191,0.2505053592366015,0.1980066444957628,0.3366619115695357,0.452568924895631,0.2367066860390045,0.0463768115942029,0.0064276017059405,0.0666666666666666,0.3220338983050848,0.0546448132969034,0.931254442913399,0.1216656425632416,0.3692674805055472,0.8593740688818602,0.3032132753415688,0.678210638144238,0.7264018566906479,0.5829894991473984,0.4984949788086673,0.6932431379586097,0.7116716284332631,0.1814421068184298,0.2017359281997571,0.7281830992277414,0.7048275908606991,0.872489937394328,2
286325029,0.7450677199232458,0.9083785493335096,0.4395236315134389,0.4996825396824533,0.6440432115156046,0.530571878920809,0.4187952176292103,0.5998948244080998,0.3397306228841518,0.7379090917903992,0.9465725898431496,0.596077353605863,0.466543175604981,0.8529141758706191,0.2489398335395436,0.2019933554693125,0.3480741798412055,0.4548423097590213,0.2631979928341916,0.0463768115942029,0.0064276017059405,0.0666666666666666,0.3220338983050848,0.0549483910139647,0.931254442913399,0.1210562094459881,0.373918457462622,0.8624481083540931,0.2697882531762458,0.7071586257655293,0.7371137931552266,0.5961579066612377,0.3565344316647936,0.7492421590201213,0.5909411515172119,0.1818879704781274,0.2243151060511906,0.7353361725753167,0.7075862097969849,0.8714859107843698,2
286525029,0.7358229773725574,0.9038998076629756,0.4397887201770678,0.5079365079363924,0.6802675336531359,0.5447681980999567,0.4213622566800378,0.5990133065786738,0.2823412956030052,0.7955624020154086,0.9470746933454528,0.738869125668587,0.4591935361462141,0.8529141758706191,0.2314816817060091,0.2019933554693125,0.3480741798412055,0.4548423097590213,0.2631979928341916,0.0463768115942029,0.0064276017059405,0.0666666666666666,0.3220338983050848,0.0549483910139647,0.931254442913399,0.1187100959968003,0.3792672031326394,0.865676577588024,0.2582616398106378,0.7081376259843112,0.743907113555371,0.6024948759149177,0.5154605667843876,0.5124672944857316,0.6129210257659014,0.1819306569108448,0.24492267043028,0.7296137163135201,0.7655172502280899,0.8614457606937966,2
286725029,0.6571354626471392,0.9050592595559784,0.436383343547701,0.579047619047742,0.5788312544979978,0.6053394407825274,0.420536017519007,0.597968193454156,0.2389266916626915,0.827449312564246,0.9450001191784636,0.7116347154022805,0.4986267240125118,0.8529141758706191,0.2659452881756614,0.2019933554693125,0.3480741798412055,0.4548423097590213,0.2631979928341916,0.0463768115942029,0.0064276017059405,0.0666666666666666,0.3220338983050848,0.0549483910139647,0.931254442913399,0.1168412298418838,0.3828440841178622,0.867055427049525,0.2921134901345909,0.669052775090929,0.7138008404346755,0.5680373096587839,0.5014879557669951,0.651806425142466,0.6405502155477659,0.1832257367008711,0.2630044313731268,0.7238912518364269,0.8000000095042448,0.8544176465377974,2
286925029,0.6912459513850193,0.9036892051844052,0.4330465325479604,0.4758730158728212,0.5252008390759954,0.5332121285772007,0.4201184295584395,0.5961340909462738,0.2709232023306139,0.7856007341874839,0.9464471781435804,0.5915077313754757,0.492020741918275,0.8529141758706191,0.2476339198615015,0.2019933554693125,0.3480741798412055,0.4548423097590213,0.2631979928341916,0.0463768115942029,0.0064276017059405,0.0666666666666666,0.3220338983050848,0.0549483910139647,0.931254442913399,0.1182109787114095,0.3824286655046906,0.8680731996484111,0.330108583884297,0.6340190657765388,0.7387470190912966,0.5927388061493182,0.3266694325987391,0.6297439297450229,0.7576852388410587,0.1840414082756226,0.2746246346307736,0.7224606400664284,0.7531034566985894,0.8624497716268618,2
287125029,0.7108320276295846,0.9065894115293038,0.4320569550773713,0.5314285714284779,0.5713276093011233,0.5257703000054108,0.4190470864151048,0.5963868991069937,0.3002338515410989,0.7684260407423081,0.9467186867517536,0.5996166950743302,0.4706554658492979,0.8529141758706191,0.2454932805873791,0.2019933554693125,0.3480741798412055,0.4548423097590213,0.2631979928341916,0.0463768115942029,0.0064276017059405,0.0666666666666666,0.3220338983050848,0.0549483910139647,0.931254442913399,0.1210552870776624,0.3804194490636479,0.8699335563926989,0.3415164517458463,0.6275197145390858,0.739458631908137,0.5907583100308424,0.3741133794705304,0.6457689472913365,0.6124474583687433,0.1836902784130645,0.2784973470881075,0.7310443251840023,0.7365517288245069,0.8634537825599269,2
287325029,0.7318229437716032,0.9025225362331442,0.4315198899126454,0.4679365079364288,0.5864054072367935,0.5040539444852068,0.4171286511146187,0.5969982625701713,0.3088276316711141,0.769065007293391,0.9468911776697152,0.6046591808255526,0.4185330401172019,0.8529141758706191,0.2622388004544964,0.2066445182717871,0.3580599145498127,0.4493448518166412,0.2569086852574151,0.0376811594202898,0.0054127200748552,0.0666666666666666,0.288135593220339,0.0233758348512446,0.931254442913399,0.1229589189770825,0.3805108767556847,0.8704041741968336,0.3398760087624593,0.6245391371700187,0.7267558107575985,0.5730358087981483,0.6643428955056272,0.172451664970783,0.5889755255441784,0.1833862744890554,0.2727004719693293,0.7353361725753167,0.7351724181683333,0.865461813832193,2
287525029,0.7202446949493365,0.9119091439207836,0.4327299154137609,0.4917460317460609,0.5970354932708198,0.3974219098162933,0.4185883717352786,0.5978253059947545,0.3731442346810167,0.7908268415706625,0.9461065214495972,0.6412234483777666,0.3013224751975814,0.8529141758706191,0.2548364219700002,0.2066445182717871,0.3580599145498127,0.4493448518166412,0.2569086852574151,0.0376811594202898,0.0054127200748552,0.0666666666666666,0.288135593220339,0.0233758348512446,0.931254442913399,0.1237402780696161,0.3818777428218619,0.869469564589253,0.3198764253846521,0.6187061059881308,0.7257935264935487,0.5663976560097074,0.6773221546794451,0.5701174435282249,0.6111667175814448,0.1828742563510103,0.2503046091893918,0.7782546310243732,0.7489655223540075,0.8714859107843698,2
287725029,0.7079370174112944,0.9184947822364076,0.4325214931751381,0.4996825396824533,0.5733271596356599,0.8744576311248344,0.4177374068087336,0.5972337124070131,0.3058116262225726,0.7809004529200834,0.9467398886555972,0.6152045915861075,0.5930648774888604,0.8529141758706191,0.2566473855825752,0.2066445182717871,0.3580599145498127,0.4493448518166412,0.2569086852574151,0.0376811594202898,0.0054127200748552,0.0666666666666666,0.288135593220339,0.0233758348512446,0.931254442913399,0.1236019112186399,0.3799998869434863,0.8671620149857026,0.3013953303451042,0.5943744214310808,0.730512395552829,0.5634528753501202,0.5151199304863511,0.346198114975678,0.6087275937376811,0.1831465265705052,0.2153501468772065,0.7339055574225489,0.7489655223540075,0.8664658247652581,2
287925029,0.7188993447413906,0.893660085565249,0.4340291477179739,0.4761904761903679,0.5825686605242045,0.5931964852377624,0.4171252976449799,0.5981969539620529,0.2142494024676947,0.7552669541777143,0.9462804502111654,0.6128146261057729,0.5919460638589249,0.8529141758706191,0.2386914994808296,0.2066445182717871,0.3580599145498127,0.4493448518166412,0.2569086852574151,0.0376811594202898,0.0054127200748552,0.0666666666666666,0.288135593220339,0.0233758348512446,0.931254442913399,0.1236183427172727,0.3815584898799398,0.8644061640107221,0.3126455015947172,0.610746741544664,0.7456218995511075,0.5701044842341514,0.4571686944631791,0.5667478241503853,0.6205951193114644,0.18269784440875,0.1790039232298172,0.6909870989734924,0.7393103453847315,0.8604417278130813,2
288125029,0.7271390827499502,0.8968438254264325,0.4352583102377839,0.579047619047742,0.5907989774043259,0.3535455418981025,0.4171266156782712,0.5986265227928027,0.2799777194397131,0.7700087139845236,0.947391208587223,0.6110854436693941,0.41711798865518,0.8529141758706191,0.2714961979244916,0.2066445182717871,0.3580599145498127,0.4493448518166412,0.2569086852574151,0.0376811594202898,0.0054127200748552,0.0666666666666666,0.288135593220339,0.0233758348512446,0.931254442913399,0.1263721806733127,0.385489953255688,0.8619297369710879,0.3395545661204469,0.638823519674833,0.7377024825699982,0.5534939926526045,0.6174533845880338,0.5472506155490988,0.6552934572671498,0.1822573548876911,0.1497026601457202,0.7267524782759406,0.7406896612682398,0.8694778889182395,2
288325029,0.7282105691801647,0.9120150506179764,0.4358188982982515,0.539682539682417,0.5912439230146215,0.6162732667892862,0.4198473578847828,0.5987631232524637,0.3037581124322256,0.7751434668281055,0.947471766532933,0.6144515985195494,0.5030908842598195,0.8529141758706191,0.2600292137148732,0.2139534883608576,0.3609129814431071,0.4440540652254785,0.2458547888455509,0.0376811594202898,0.0054127200748552,0.0666666666666666,0.1694915254237288,0.0030358230115361,0.931254442913399,0.1294404273067228,0.3903764351894351,0.8598252613675257,0.3410467741224761,0.6494151336389465,0.7378750030954453,0.5509520076375165,0.2734492203789599,0.7884465692731413,0.7322117384349663,0.1822577345822688,0.1279577773000776,0.7381974052971161,0.7393103453847315,0.872489937394328,2
288525029,0.685843749962499,0.9032232205604206,0.4387314929730779,0.55523809523811,0.5573576804969775,0.5111310405300757,0.4200405952816986,0.5994658178687687,0.2958511099557336,0.7692239344875036,0.9476865896566792,0.5694031605162793,0.469991234959252,0.8529141758706191,0.2512875572726571,0.2139534883608576,0.3609129814431071,0.4440540652254785,0.2458547888455509,0.0376811594202898,0.0054127200748552,0.0666666666666666,0.1694915254237288,0.0030358230115361,0.931254442913399,0.1313248925083555,0.3922134469104197,0.8588877422856683,0.3370722705137611,0.6459809935515157,0.7392442528727288,0.552012785718189,0.2453095094093698,0.5086212016896917,0.601025970654095,0.181667499361215,0.1083508762800966,0.7353361725753167,0.7351724181683333,0.8755019858704164,2
288725029,0.7601931094843094,0.9052176473445996,0.4390857437619399,0.55523809523811,0.630019733033429,0.5501253429704379,0.4201903165760311,0.5992507704852089,0.3035447487092189,0.7666652725906831,0.9475261665620442,0.6401522501738558,0.4697222761300738,0.8529141758706191,0.2536442911095128,0.2139534883608576,0.3609129814431071,0.4440540652254785,0.2458547888455509,0.0376811594202898,0.0054127200748552,0.0666666666666666,0.1694915254237288,0.0030358230115361,0.931254442913399,0.1322074481685503,0.3911412340272255,0.8591986102593817,0.3289018316960848,0.6505176094076419,0.7509309305653338,0.5657537815897021,0.1013907887880136,0.6711221802645503,0.6377228233015412,0.181944632592032,0.0961517569897424,0.7353361725753167,0.7282758677387391,0.8805220593480138,2
288925029,0.6983871141940432,0.906982096997166,0.439270978188806,0.603174603174466,0.5441403300469859,0.5519910046385085,0.4216666521997759,0.5987172456047831,0.3034362660414218,0.7697551251668311,0.9474051032266532,0.56910854457571,0.4707806771719015,0.8529141758706191,0.2573418763102639,0.2139534883608576,0.3609129814431071,0.4440540652254785,0.2458547888455509,0.0376811594202898,0.0054127200748552,0.0666666666666666,0.1694915254237288,0.0030358230115361,0.931254442913399,0.1328288865766849,0.3899539491202687,0.8601244904570329,0.3247468048911752,0.6487756452738136,0.7386027749667008,0.555233018662814,0.3456835250117568,0.3602766125265605,0.590408730782962,0.1820881863496827,0.0883020532692164,0.7410586346361462,0.7296551750684269,0.8835341046887235,2
289125029,0.71831736021303,0.9047137489464429,0.4392394802942231,0.4996825396824533,0.5986894382078336,0.5612953463219332,0.4189732351020213,0.5982470778794116,0.3025812043374303,0.764084485169808,0.9472652782576584,0.5949564463065931,0.477336075105623,0.8529141758706191,0.2646725908502207,0.2139534883608576,0.3609129814431071,0.4440540652254785,0.2458547888455509,0.0376811594202898,0.0054127200748552,0.0666666666666666,0.1694915254237288,0.0030358230115361,0.931254442913399,0.1333038134474953,0.3879543353634667,0.8608546551815461,0.3223419320064402,0.6492871953865581,0.7342864278751273,0.5546075593248477,0.5444897388642544,0.3604915975345708,0.5960410991186457,0.1825842573154636,0.081676322234196,0.7381974052971161,0.7268965566073533,0.8845381469755746,2
289325029,0.7164243064503032,0.9017862025442698,0.4378355528604981,0.5076190476188458,0.5499568561571635,0.5379491249650274,0.4193666537283159,0.5976837976035305,0.316168105084687,0.7483932835794702,0.9465967835453998,0.5366484354482387,0.4676525755701087,0.8529141758706191,0.2501283738064502,0.2106312292162329,0.3723252497147769,0.4467821270615466,0.2363254968243285,0.0376811594202898,0.0054127200748552,0.0666666666666666,0.2372881355932203,0.0083485124468731,0.931254442913399,0.1336989496570718,0.3872851931578369,0.8631136750502892,0.3086789909645637,0.6654641474468064,0.7403624319577553,0.5665863942472379,0.571013644940726,0.4749968876803448,0.5926683379418952,0.182885194475576,0.0742343081338486,0.7410586346361462,0.7062069010416604,0.8905622251154799,2
289525029,0.6979344213375661,0.901651439723202,0.4381570845598099,0.6269841269840981,0.6162140611336915,0.5653849520458889,0.41812516915511,0.5971838138909558,0.3046205650528499,0.7622953773063977,0.9468590826007808,0.614500794400437,0.4762452869251967,0.8529141758706191,0.2514583592541914,0.2106312292162329,0.3723252497147769,0.4467821270615466,0.2363254968243285,0.0376811594202898,0.0054127200748552,0.0666666666666666,0.2372881355932203,0.0083485124468731,0.931254442913399,0.133586791989087,0.3881322811901171,0.864705320054904,0.2951214423020691,0.6766450247256087,0.7422054248711868,0.5703253201772923,0.6827433029640184,0.3228315068518539,0.5785635331248843,0.1832172665910606,0.0659335150548754,0.7396280190001256,0.7337931122642822,0.8875501797747701,2
289725029,0.7505573158277695,0.9008175328597748,0.4382676622748349,0.6111111111108585,0.6581885503059999,0.5431204176396758,0.4172987683850103,0.5973729619378833,0.2801544560606509,0.7891680801680558,0.9467375799780428,0.7178712785517053,0.4682997652585018,0.8529141758706191,0.2565686211383702,0.2106312292162329,0.3723252497147769,0.4467821270615466,0.2363254968243285,0.0376811594202898,0.0054127200748552,0.0666666666666666,0.2372881355932203,0.0083485124468731,0.931254442913399,0.1337212953350007,0.3882139025822777,0.8666027286456384,0.294364424441808,0.6770006591706398,0.7311845582924937,0.5623508275177598,0.5686681031121613,0.6550982817597892,0.5394405123868979,0.1832117464160461,0.0622974110627757,0.7396280190001256,0.7586206945711611,0.8855421265548539,2
289925029,0.6589689547183141,0.8982557532668934,0.4392897428919617,0.6269841269840981,0.5449441160975764,0.557307413545793,0.4189841399226204,0.597834183897626,0.2631158212482483,0.8045190455772555,0.9464307019652924,0.6402507331121986,0.4769096558499474,0.8529141758706191,0.2465621612974247,0.2106312292162329,0.3723252497147769,0.4467821270615466,0.2363254968243285,0.0376811594202898,0.0054127200748552,0.0666666666666666,0.2372881355932203,0.0083485124468731,0.931254442913399,0.1351778512462003,0.3859399146206891,0.8697481843350509,0.3194501169813774,0.6475516573670799,0.7449103878417791,0.5824048973168232,0.4714628233779111,0.5629286847017847,0.6939097882177225,0.1828537236365386,0.0715439117147644,0.7353361725753167,0.7710344928527841,0.8865461688417049,2
290125029,0.6914832861253261,0.8980535787623966,0.4384740740095483,0.6269841269840981,0.5544668582397503,0.5355560758392632,0.4183201100310668,0.5970422279422948,0.2938249129432678,0.7744767280662114,0.9469476386725024,0.5925845073691504,0.4701266770972122,0.8529141758706191,0.2551820603078788,0.2106312292162329,0.3723252497147769,0.4467821270615466,0.2363254968243285,0.0376811594202898,0.0054127200748552,0.0666666666666666,0.2372881355932203,0.0083485124468731,0.931254442913399,0.1376618616606135,0.3841664324018943,0.8732209032188726,0.3410660357421968,0.6251890043490161,0.7361641965876805,0.5784661751832263,0.5012476592720229,0.4039850899560437,0.5810153883553837,0.1831760697293787,0.0922799160779148,0.7396280190001256,0.7393103453847315,0.8985943502045444,2
290325029,0.706344100172445,0.8963492147525777,0.4373861680051608,0.6190476190472509,0.5883650194885056,0.5380046977691045,0.4189102812184575,0.5966683089962931,0.304769921733091,0.7674197280229816,0.9467932785173292,0.5962153702783998,0.4582650553218972,0.8529141758706191,0.2601632490939736,0.2285714285681024,0.3466476462781429,0.4356218740958129,0.246045373923635,0.0376811594202898,0.0054127200748552,0.0666666666666666,0.4745762711864407,0.0619307832422586,0.931254442913399,0.1407106167369517,0.3829003204781954,0.8767701779469016,0.3424232155074652,0.6274323253424138,0.7306925458066804,0.5774878132141947,0.421114268790201,0.4747438491599552,0.5975050438208503,0.1835359909817748,0.1120089303071702,0.7439198649416818,0.7310344861998127,0.8975903392714791,2
290525029,0.7027007567014903,0.8948840889585257,0.4367928459625216,0.5314285714284779,0.5843957892020489,0.5431656763025345,0.4188413738037751,0.5966160013523476,0.3086292314560477,0.7669303841907318,0.9467570034454468,0.5940717894986065,0.457216453633017,0.8529141758706191,0.268471828848265,0.2285714285681024,0.3466476462781429,0.4356218740958129,0.246045373923635,0.0376811594202898,0.0054127200748552,0.0666666666666666,0.4745762711864407,0.0619307832422586,0.931254442913399,0.1438171126505862,0.3801673543962744,0.879897145667047,0.3366386975153164,0.6306115199389071,0.7211545712562397,0.5721517652408221,0.3727580806127448,0.4934376764117982,0.6292863368220638,0.1835900098372732,0.1276937797103205,0.7424892483391557,0.7310344861998127,0.901606395545254,2
290725029,0.7012168745592375,0.8980133037023847,0.4360210656358224,0.5711111111108949,0.5771451201781884,0.545716622368719,0.4185173012269128,0.5964376410601788,0.3158675850799326,0.7641994610025545,0.9466286580030674,0.5888416386032739,0.4613846399821438,0.8529141758706191,0.2486170835547532,0.2285714285681024,0.3466476462781429,0.4356218740958129,0.246045373923635,0.0376811594202898,0.0054127200748552,0.0666666666666666,0.4745762711864407,0.0619307832422586,0.931254442913399,0.1462510193214189,0.3741220545877002,0.8837795599872,0.331501132615547,0.6300162183894958,0.7417654360890393,0.5986377197091461,0.6101546195083961,0.5263420849498929,0.529381407886892,0.1836805377867824,0.1388106654380673,0.7439198649416818,0.7268965566073533,0.9036144174113844,2
290925029,0.7129070465601224,0.8974462802627843,0.4335458523633623,0.6111111111108585,0.5821666832634403,0.5713139698746004,0.4188681142235895,0.5958510984005249,0.3117419651914326,0.7607975535229511,0.9464056567809604,0.5850498966276129,0.4745195034481764,0.8529141758706191,0.2373632488142568,0.2285714285681024,0.3466476462781429,0.4356218740958129,0.246045373923635,0.0376811594202898,0.0054127200748552,0.0666666666666666,0.4745762711864407,0.0619307832422586,0.931254442913399,0.1479503234324561,0.3674983140838956,0.8888911435326626,0.3210652914453712,0.6291336962455243,0.7417739265275457,0.6020655606967594,0.6559665535701377,0.3039156999957982,0.5895368171014796,0.184039991722775,0.1466523315722573,0.7367667901443483,0.7227586246388327,0.9076305050389452,2
291125029,0.7058948474136666,0.8962154569916366,0.4320724061722317,0.6269841269840981,0.5875663455656065,0.5597348645666486,0.4188534278936796,0.5958146052027264,0.3050443485215989,0.7610341332852926,0.9464267561199168,0.5873357248975151,0.4784140578875916,0.8529141758706191,0.2596933923556989,0.2259136212524026,0.353780313860625,0.4392179556069937,0.2351819863558236,0.0376811594202898,0.0054127200748552,0.08,0.1864406779661016,0.0109289632665452,0.931254442913399,0.1487822706569677,0.3631510348309035,0.8925137060175588,0.3086821170367907,0.6358810883441344,0.7251316093150982,0.5867957870147235,0.5490475891169939,0.3364099042637665,0.6004247498078684,0.1840962011239141,0.1478476239547124,0.7324749451692976,0.7296551750684269,0.9126505785165426,2
291325029,0.6943051582664949,0.895837663366469,0.4300000606516907,0.6111111111108585,0.5832456546329144,0.5436423432198155,0.4192050627643587,0.5957800921432425,0.3027987832955317,0.7620850163479957,0.9464412138986328,0.5901457545961842,0.4730817001982152,0.8529141758706191,0.2491785340491281,0.2259136212524026,0.353780313860625,0.4392179556069937,0.2351819863558236,0.0376811594202898,0.0054127200748552,0.08,0.1864406779661016,0.0109289632665452,0.931254442913399,0.1496572327313866,0.3599286579225,0.8966514246079159,0.3039946190815622,0.643882997397643,0.7348824411032668,0.600277740198516,0.6650563584722653,0.5210791863127471,0.6273155375600389,0.1840642629684734,0.1415604722091657,0.725321868438953,0.7351724181683333,0.91767065199414,2
291525029,0.7505823565389258,0.9083562684825108,0.4245933316287219,0.7222222222221717,0.6264589143694775,0.5986371764659946,0.4198541544793667,0.5947993153364213,0.2943579933392508,0.770271541275659,0.9461361627019858,0.6488592088618452,0.5196335282711768,0.8529141758706191,0.1726062077409322,0.2259136212524026,0.353780313860625,0.4392179556069937,0.2351819863558236,0.0376811594202898,0.0054127200748552,0.08,0.1864406779661016,0.0109289632665452,0.931254442913399,0.1506605635321942,0.3579836494651181,0.9001928939493813,0.304237489883493,0.6402755550553622,0.6750022821780204,0.5405550951327178,0.6933085877639573,0.2532207575967614,0.5222391505308295,0.1846925114582112,0.1302923410566092,0.7224606400664284,0.7434482797293134,0.9156626301280096,2
291725029,0.682342298521278,0.8997724011070483,0.4230913362820758,0.5473015873017175,0.6010223179255512,0.6036659806674672,0.4169512079435751,0.5960598490896647,0.2247109138953142,0.7916256196711795,0.9458460782381176,0.6753896425201646,0.548525048914431,0.8529141758706191,0.3023521723037372,0.2259136212524026,0.353780313860625,0.4392179556069937,0.2351819863558236,0.0376811594202898,0.0054127200748552,0.08,0.1864406779661016,0.0109289632665452,0.931254442913399,0.1524292251004791,0.3552522183318346,0.8970570551706012,0.3219700018730106,0.636116782844438,0.6066400084872237,0.4719416857548678,0.2301397912121174,0.4170983918809852,0.5728085189157578,0.1847823092258402,0.1195937003335067,0.6909870989734924,0.7875862112226217,0.8955822985930773,2
291925029,0.6548995591474798,0.8924290927658872,0.42415474392401,0.5317460317460245,0.5304112711620989,0.3588385090825706,0.4177497114160419,0.5980408841620242,0.2879627052852971,0.7825120209309205,0.947064071106479,0.5839242320875402,0.3956659324886344,0.8529141758706191,0.2546431754166071,0.2259136212524026,0.353780313860625,0.4392179556069937,0.2351819863558236,0.0376811594202898,0.0054127200748552,0.08,0.1864406779661016,0.0109289632665452,0.931254442913399,0.1558781314015987,0.3525771645235551,0.8953659769207174,0.3581490636377875,0.6270270636220314,0.6457736492233428,0.5182098644169483,0.5878752630609358,0.5643742799395756,0.5718060498671121,0.1830070472277464,0.1079797915711833,0.7153075618863255,0.7641379371958552,0.8965863095261424,2
292125029,0.728013027569983,0.9069143825847832,0.4253477918365559,0.6904761904761472,0.6246630668465729,0.6035039115799827,0.4173586685923402,0.5993201092575948,0.3258736553707145,0.7756277230075705,0.9474717200884556,0.6555324249047747,0.462976520707225,0.8529141758706191,0.2401451250685775,0.2259136212524026,0.353780313860625,0.4392179556069937,0.2351819863558236,0.0376811594202898,0.0054127200748552,0.08,0.1864406779661016,0.0109289632665452,0.931254442913399,0.1586854087099443,0.3496170765912174,0.8952430110380765,0.359570274400156,0.6141976109876687,0.661767010462626,0.539443112816913,0.5976550285982454,0.4257949775585248,0.6848408841224385,0.1821049221183771,0.098827062759782,0.7210300186313748,0.7558620732588139,0.8965863095261424,2
292325029,0.6912632318757853,0.9036076863317296,0.4273212131184366,0.6984126984125396,0.6282292564345355,0.5989929090183967,0.4189604881427058,0.60039649984227,0.2592386176292559,0.8089027293855869,0.9470822096100138,0.717363480072524,0.4968088102109036,0.8529141758706191,0.2342233217955592,0.2285714285681024,0.3509272467344999,0.4357872111767866,0.2227939943973704,0.0376811594202898,0.0054127200748552,0.08,0.728813559322034,0.0059198547358834,0.931254442913399,0.1599774581998801,0.3468668067399851,0.8946534868946124,0.3628715094216936,0.5927996725194136,0.65697679838739,0.5352341923057348,0.4397665862039661,0.4445586322994382,0.6205874703588842,0.1814923725390641,0.0887758512300226,0.703862638731172,0.793103444343071,0.882530081214144,2
292525029,0.640673955140326,0.901395440010722,0.428636231601495,0.5473015873017175,0.5014613346158814,0.5371899595572475,0.4204894533656302,0.6006777473456855,0.274461644279628,0.7900642769397151,0.947718996290648,0.5671717607629321,0.4728321949678363,0.8529141758706191,0.2576227494845279,0.2285714285681024,0.3509272467344999,0.4357872111767866,0.2227939943973704,0.0376811594202898,0.0054127200748552,0.08,0.728813559322034,0.0059198547358834,0.931254442913399,0.1615235186450271,0.3435219991672263,0.8928387211927251,0.3897840481036584,0.5710745942798998,0.6473125270734806,0.5246599782059143,0.6825162922322688,0.50609472961223,0.6511682194986591,0.1810433983045567,0.0778779816600679,0.7010014103586474,0.7682758667883146,0.8845381469755746,2
292725029,0.7052937103413738,0.9022850756417938,0.4284297454036738,0.5238095238091773,0.51927698018959,0.5447290340136053,0.4207308443265308,0.6008240352139673,0.3335764659193249,0.7287114892027835,0.9464395109344688,0.4762224479247101,0.480336509342432,0.8529141758706191,0.2215997630154444,0.2285714285681024,0.3509272467344999,0.4357872111767866,0.2227939943973704,0.0376811594202898,0.0054127200748552,0.08,0.728813559322034,0.0059198547358834,0.931254442913399,0.1626965217098285,0.3423009190483609,0.8909352389818974,0.3747890818198957,0.5871266597585012,0.6634567881633984,0.5399568196172281,0.6021786359708579,0.5892175021007835,0.6427701787082315,0.181278969582752,0.0713100147244386,0.7010014103586474,0.6993103487112172,0.8905622251154799,2
292925029,0.729484477359157,0.9077418110485992,0.4307886994259868,0.4523809523807358,0.6403228133684892,0.7105195083722473,0.4218179323455912,0.6016300096760441,0.2923530473287068,0.7335756153059321,0.9471761493707178,0.5974111487559393,0.5991645244408352,0.8529141758706191,0.2470261412963931,0.2285714285681024,0.3509272467344999,0.4357872111767866,0.2227939943973704,0.0376811594202898,0.0054127200748552,0.08,0.728813559322034,0.0059198547358834,0.931254442913399,0.1617048481363827,0.346774146674993,0.8879331244776643,0.3336707689383669,0.6372552996742852,0.6478342848708193,0.5201521924703537,0.2966109496133642,0.382678878968102,0.6280143337816616,0.1803504557002319,0.0644592635514715,0.6824034138559185,0.7241379352950063,0.8805220593480138,2
293125029,0.7162969028320404,0.8960212503132033,0.4311397110696611,0.5076190476188458,0.6389320946000332,0.6357638780849257,0.4227683048689779,0.6035609208310446,0.1900448634795862,0.7595772530106504,0.9474721651813623,0.6700235602499296,0.6666758215205613,0.8529141758706191,0.2229715176903839,0.2285714285681024,0.3509272467344999,0.4357872111767866,0.2227939943973704,0.0376811594202898,0.0054127200748552,0.08,0.728813559322034,0.0059198547358834,0.931254442913399,0.1604219672196469,0.355629693954451,0.8847085662286467,0.3395941835810165,0.686001423590789,0.6630367860031198,0.5322127707269406,0.401676030200972,0.5899989403122239,0.6175688325515442,0.1795996680873562,0.058126274968185,0.6509298775955101,0.7613793206356305,0.8624497716268618,2
293325029,0.7034248172648104,0.8854670436909566,0.4323460580932532,0.55523809523811,0.607241295772503,0.2380327158946487,0.4243971959278199,0.6040038392356453,0.2316129708976767,0.7903801957993379,0.9482883146273976,0.6703204939462252,0.3989724454932075,0.8529141758706191,0.2298438062206939,0.2245847175945527,0.3366619115695357,0.4349605257719175,0.2191728588552641,0.0376811594202898,0.0054127200748552,0.08,0.3728813559322034,0.0036429872495446,0.931254442913399,0.1608504102074759,0.3638496030555901,0.8823145639289824,0.3799999762295313,0.6988367027023814,0.6632853316000774,0.5297251671064828,0.5330762639405928,0.2156727118292287,0.5648000942113418,0.1795006700280367,0.0528200315502702,0.6866952588309693,0.7793103425334581,0.8604417278130813,2
293525029,0.7200868184656445,0.9079467755031344,0.4315927148320357,0.55523809523811,0.6196309242239064,0.3806980588443929,0.4277613532493983,0.6025804251699327,0.3445126407657997,0.8296732533549843,0.9462714032140432,0.7399407173248815,0.2843987763606317,0.8529141758706191,0.2368870446596146,0.2245847175945527,0.3366619115695357,0.4349605257719175,0.2191728588552641,0.0376811594202898,0.0054127200748552,0.08,0.3728813559322034,0.0036429872495446,0.931254442913399,0.1621270984941004,0.3661899882248935,0.8797270319881866,0.3979934631722339,0.6647593508365391,0.6436940981751244,0.5078644457652335,0.366169491310222,0.7428072595439523,0.5597228790335076,0.178479861155857,0.057111925116681,0.748211710883238,0.7944827668795506,0.865461813832193,2
293725029,0.6796746627604224,0.915562404280132,0.4268642330261076,0.4920634920631528,0.5593200242905078,0.7249058417547198,0.4231977543945103,0.5984778742700309,0.3177741339106226,0.8288563673912768,0.9453106527586074,0.6953196036598362,0.4494503458322571,0.8529141758706191,0.2582707104227427,0.2245847175945527,0.3366619115695357,0.4349605257719175,0.2191728588552641,0.0376811594202898,0.0054127200748552,0.08,0.3728813559322034,0.0036429872495446,0.931254442913399,0.1628659735335934,0.3583247505071275,0.876389989367167,0.3983028613816685,0.5799197445524037,0.6410323394814028,0.5065055422092114,0.4997417138212104,0.2907014919592172,0.7147251756168826,0.181071919208798,0.0686108705708279,0.7339055574225489,0.793103444343071,0.8594377168800161,2
293925029,0.660637642109036,0.9066556098750864,0.4223836389059158,0.4841269841267603,0.4941537902995598,0.6574861902093192,0.4216772181271246,0.5959972650853113,0.2867829191922293,0.7778607101280129,0.9463337607302488,0.546130410659823,0.5164370418402305,0.8529141758706191,0.2289068899106794,0.2245847175945527,0.3366619115695357,0.4349605257719175,0.2191728588552641,0.0376811594202898,0.0054127200748552,0.08,0.3728813559322034,0.0036429872495446,0.931254442913399,0.1640547989858691,0.3452257679488286,0.874627108056009,0.4013169849251266,0.5379164118310569,0.6658089424336757,0.5346642632668346,0.4225958639715041,0.4196132707348839,0.6986711796490579,0.1838586145437295,0.0840196175855224,0.703862638731172,0.7503448306341198,0.8624497716268618,2
294125029,0.7532685928280364,0.9072590576624064,0.4179809331964419,0.5076190476188458,0.5258311278182649,0.5262051415054887,0.4198918633083089,0.5963459608985848,0.336614683624698,0.7138115280815078,0.9439082404823892,0.4497647102552007,0.4831896869559586,0.8529141758706191,0.2322059326718787,0.2245847175945527,0.3366619115695357,0.4349605257719175,0.2191728588552641,0.0376811594202898,0.0054127200748552,0.08,0.3728813559322034,0.0036429872495446,0.931254442913399,0.1650484130134341,0.3348567613127672,0.8730917630320412,0.3770790929884376,0.5601509652424026,0.6654352573653866,0.5332123435548133,0.496151960021763,0.4698187216027077,0.602714097206856,0.1842538912027654,0.0957893231769662,0.7010014103586474,0.6855172441928945,0.8694778889182395,2
294325029,0.7993140125179555,0.9067761202170096,0.4193749868220778,0.4996825396824533,0.6880106581520369,0.5564427078839561,0.41740516244599,0.5980992824884473,0.3158185321131511,0.7381372979904071,0.9460499888449074,0.6387493009495363,0.4889268416131302,0.8529141758706191,0.2364342802226179,0.2285714285681024,0.3323823111131787,0.4363245566899516,0.2172670080744226,0.0376811594202898,0.0054127200748552,0.08,0.3728813559322034,0.0129022465088038,0.931254442913399,0.1636390951228407,0.3354787102552781,0.8712469780704706,0.3281672089400682,0.617137833850808,0.6919227614516856,0.5580744621065471,0.2692635292740868,0.5812636252399752,0.6327326587661831,0.1829891285644058,0.102088644280138,0.703862638731172,0.7172413815389264,0.8644578028991279,2
294525029,0.7930765233732638,0.9054000597029934,0.4210599827023571,0.515555555555693,0.7099667783542192,0.5410468011620467,0.4192989050154967,0.6006874735330247,0.2454124855944749,0.8179063566537045,0.9462208329191146,0.8173146702968992,0.4759020433560707,0.8529141758706191,0.2202519725268757,0.2285714285681024,0.3323823111131787,0.4363245566899516,0.2172670080744226,0.0376811594202898,0.0054127200748552,0.08,0.3728813559322034,0.0129022465088038,0.931254442913399,0.161655124362144,0.3407213821463517,0.8706778444308694,0.3298687025382975,0.6281266811910818,0.6770909702343216,0.5398028472880679,0.3848816316522087,0.696297572432897,0.5552190239462473,0.1816397962606797,0.1038173063727295,0.7024320269611735,0.7889655290069788,0.8443774807703313,2
294725029,0.671856920736549,0.9021740588798612,0.421392088162971,0.4920634920631528,0.5360998983983977,0.54486753241758,0.4221710981826136,0.6020600341567363,0.2247899340196668,0.8439282821035057,0.9446679173145178,0.7175296574972106,0.4728072564405844,0.8529141758706191,0.2566086959281485,0.2285714285681024,0.3323823111131787,0.4363245566899516,0.2172670080744226,0.0376811594202898,0.0054127200748552,0.08,0.3728813559322034,0.0129022465088038,0.931254442913399,0.1623824349912135,0.341130521424188,0.8669716375464896,0.3825968807624217,0.5783224008979752,0.6521266666303024,0.5091063715509219,0.2556040804748994,0.7286227767934618,0.4613413420919736,0.1812117782461346,0.0967784950471763,0.703862638731172,0.8055172473768165,0.8403614150904204,2
294925029,0.6861071654434986,0.901881598492187,0.4210252084310328,0.3806349206347477,0.458462526205849,0.528118420223631,0.4206469571907066,0.6008255427366498,0.2951397848092489,0.7752195615728431,0.947737128988623,0.5021334654401904,0.465839805385903,0.8529141758706191,0.2336197927719173,0.2285714285681024,0.3323823111131787,0.4363245566899516,0.2172670080744226,0.0376811594202898,0.0054127200748552,0.08,0.3728813559322034,0.0129022465088038,0.931254442913399,0.16567604405168,0.334298437272779,0.8637086392937141,0.4248829905069438,0.5347920398239694,0.6845263943700681,0.5397479193779396,0.6533091535227904,0.286901672587069,0.6743216058381674,0.1810388273659866,0.0857922765864514,0.7067238690367077,0.7365517288245069,0.851405598061709,2
295125029,0.7695424950068582,0.9030288685720896,0.4230385419386734,0.5076190476188458,0.5409670495109504,0.5698892026686201,0.4194289094787507,0.6030487436351649,0.3490019273822517,0.7095506363942018,0.945606507948768,0.4497469446756245,0.4991540469234565,0.8529141758706191,0.2622119584140947,0.2285714285681024,0.3323823111131787,0.4363245566899516,0.2172670080744226,0.0376811594202898,0.0054127200748552,0.08,0.3728813559322034,0.0129022465088038,0.931254442913399,0.1675614200195211,0.3326539825801555,0.8607975994779115,0.3906489864476634,0.5693622749108709,0.6775368118451628,0.5281489623404297,0.6365860412871843,0.2752978005343858,0.6246086301176857,0.1803023367143257,0.0787911676739124,0.7024320269611735,0.6772413824893508,0.8634537825599269,2
295325029,0.8049304200239287,0.9031486039278912,0.4293506753352182,0.4761904761903679,0.6840310056806397,0.5494992487246463,0.4179928503900048,0.6044753036244175,0.3223008009965867,0.7404305349685025,0.948156472302922,0.6295048461168783,0.4789717994639101,0.8529141758706191,0.2613097915191092,0.2305647840548772,0.325249643297866,0.4331831521514486,0.2145988360397526,0.0376811594202898,0.0054127200748552,0.1733333333333333,0.3220338983050848,0.0044019430783242,0.931254442913399,0.165859946312548,0.3385420135162907,0.8581199812309049,0.3372597504673325,0.6286216928253519,0.7338770980016135,0.5810526840858238,0.5893279772340885,0.5358075115277116,0.584170673299584,0.1789328221834302,0.0771379911060073,0.7067238690367077,0.7117241436663546,0.8594377168800161,2
295525029,0.7172208490721137,0.9014601029152508,0.4320089636044194,0.4444444444443434,0.6328237218638151,0.5528877577978903,0.4231469099941161,0.6042151299308484,0.2645527738287979,0.8016696831426235,0.9486140529682658,0.7007146255573484,0.4779293105760964,0.8529141758706191,0.2408010337251678,0.2305647840548772,0.325249643297866,0.4331831521514486,0.2145988360397526,0.0376811594202898,0.0054127200748552,0.1733333333333333,0.3220338983050848,0.0044019430783242,0.931254442913399,0.1634895264276067,0.3468734783557932,0.8586014084599635,0.3246260932115222,0.6437276958138164,0.7319839505772378,0.5738864045573089,0.3872817717755474,0.5249158660221519,0.686742372540757,0.1786950311523191,0.075250691591534,0.7052932553336981,0.7724138011328964,0.8483935339087276,2
295725029,0.7325298438475653,0.904404672371953,0.4296235751788513,0.4682539682539754,0.5078699264388244,0.5361980355624362,0.4241509307005504,0.6022192910826936,0.2988075365084873,0.7692647081633279,0.9484259837985756,0.5496132897038,0.4737479538718582,0.8529141758706191,0.2614274473364815,0.2305647840548772,0.325249643297866,0.4331831521514486,0.2145988360397526,0.0376811594202898,0.0054127200748552,0.1733333333333333,0.3220338983050848,0.0044019430783242,0.931254442913399,0.1627293615028595,0.3508495962067005,0.856781046499055,0.3345694590219613,0.6351893081677253,0.726603148784505,0.5620438707778442,0.3895747591831422,0.7172423775733938,0.6036533208346353,0.1797912532090874,0.0764700160343391,0.7081544861224864,0.7268965566073533,0.8554216574708625,2
295925029,0.7546729207109483,0.906407759626042,0.4286183604556324,0.5158730158727849,0.6178352041553188,0.5613005779427119,0.4215754024739541,0.6011257554570921,0.3017295486692739,0.7651085366646705,0.9481718957397268,0.6215193455277717,0.4835582318999141,0.8529141758706191,0.2407571531751524,0.2305647840548772,0.325249643297866,0.4331831521514486,0.2145988360397526,0.0376811594202898,0.0054127200748552,0.1733333333333333,0.3220338983050848,0.0044019430783242,0.931254442913399,0.1628615908337815,0.3514409850053032,0.8555559194441148,0.3278663387313256,0.6349128159474119,0.7361815196747336,0.5672863419282128,0.3917159042953582,0.4385231790454988,0.6877239518775202,0.1806827760775559,0.0766523304424761,0.7095850954762213,0.7337931122642822,0.8534136356047323,2
296125029,0.7454665312494875,0.907323284637242,0.427261270316689,0.5711111111108949,0.5894201876307905,0.5499065583602292,0.4213667491351999,0.6006067241227138,0.2895107620631701,0.7745803357972706,0.9481122823180492,0.6230228777224587,0.4823796967535817,0.8529141758706191,0.2395500413362042,0.2305647840548772,0.325249643297866,0.4331831521514486,0.2145988360397526,0.0376811594202898,0.0054127200748552,0.1733333333333333,0.3220338983050848,0.0044019430783242,0.931254442913399,0.1630281566308669,0.3506910444133686,0.855728352608185,0.3205220811551404,0.6385912608722994,0.7355008120540562,0.565232709828117,0.2637293015765555,0.3823888970620889,0.611898182860103,0.1809682187781698,0.08454714471282,0.7067238690367077,0.7406896612682398,0.8524096089947741,2
296325029,0.7426773320362299,0.9078224241362453,0.4256727488388246,0.4841269841267603,0.5771223454818968,0.5400146306695757,0.4216087173364945,0.600203093407315,0.2908572284791256,0.7753357310608794,0.947983282782616,0.6131886573186074,0.4783692987024638,0.8529141758706191,0.2383817536308432,0.2358803986571729,0.3281027104239911,0.4331831521514486,0.2254621473735327,0.0376811594202898,0.0054127200748552,0.08,0.4067796610169492,0.0106253794778384,0.931254442913399,0.1643506384744931,0.3498033179751613,0.8571075038258475,0.3260312277247705,0.6355059336208707,0.7346688942604572,0.5664501144450141,0.3706463311531623,0.398736416753408,0.5660093582760156,0.1812504486785109,0.1031676014772309,0.7095850954762213,0.7406896612682398,0.8534136356047323,2
296525029,0.7344550985247982,0.9112703373916612,0.4237244216242594,0.4682539682539754,0.579976736690968,0.5413695398966721,0.4225288117520988,0.5997887064448664,0.2971850227956076,0.7752019331633055,0.9478485318727556,0.6141983907925975,0.471948228223402,0.8529141758706191,0.2454954188060284,0.2358803986571729,0.3281027104239911,0.4331831521514486,0.2254621473735327,0.0376811594202898,0.0054127200748552,0.08,0.4067796610169492,0.0106253794778384,0.931254442913399,0.1657125472132501,0.3488872875397212,0.859867397267327,0.3274168018260627,0.639436492598883,0.7327126790811066,0.5693834142608443,0.2804550115414568,0.8700423638164553,0.5815719510700769,0.1814416395020265,0.1224430569691046,0.7110157169112749,0.7379310394806804,0.8554216574708625,2
296725029,0.7488577875611667,0.9119397558725906,0.422204212601455,0.4365079365074962,0.5836564019043897,0.5528400581445807,0.4221585015239527,0.5997333474005073,0.2999880785437882,0.7718617284330126,0.9478222423634718,0.6079503716346462,0.4709816920819316,0.8529141758706191,0.2354480773003427,0.2358803986571729,0.3281027104239911,0.4331831521514486,0.2254621473735327,0.0376811594202898,0.0054127200748552,0.08,0.4067796610169492,0.0106253794778384,0.931254442913399,0.1664494992017998,0.3490517911747088,0.8628679799913455,0.3310881084115356,0.6346547766140163,0.7484099521565475,0.5902478361814587,0.7408743672060972,0.5848126964906176,0.7208984733624291,0.1815591987847414,0.1398473203986405,0.7124463286812734,0.7351724181683333,0.8554216574708625,2
296925029,0.7581571316625393,0.9124742541133962,0.4205887056933381,0.4682539682539754,0.5791481659774673,0.5536998227338099,0.4219378655205452,0.5996176389754495,0.2999886530437928,0.7696673466459355,0.9477737020792344,0.6194834651916731,0.4758632004952723,0.8529141758706191,0.2493611298530234,0.2358803986571729,0.3281027104239911,0.4331831521514486,0.2254621473735327,0.0376811594202898,0.0054127200748552,0.08,0.4067796610169492,0.0106253794778384,0.931254442913399,0.1668075434423531,0.3494141785939509,0.8664407121398033,0.3233638000452712,0.634982538790499,0.7352302379819877,0.5798155501856369,0.578014553399103,0.3273033916131894,0.5519254775974468,0.1815998991227446,0.157598523498618,0.7110157169112749,0.7365517288245069,0.8564256684039278,2
297125029,0.758140651194494,0.9118975191289582,0.4193669448064396,0.4285714285711037,0.5882771823015623,0.5590692729957056,0.4213175019460897,0.5997509287020169,0.293391168394972,0.7736262455127091,0.9478388965789224,0.6175185730201495,0.4733218070662312,0.8529141758706191,0.2473316376049132,0.2358803986571729,0.3281027104239911,0.4331831521514486,0.2254621473735327,0.0376811594202898,0.0054127200748552,0.08,0.4067796610169492,0.0106253794778384,0.931254442913399,0.166725626693123,0.3493687737310997,0.8694809439651344,0.3179185662593891,0.6404365431433033,0.7329412105756922,0.5807264881661709,0.4245806481864406,0.6731276106424182,0.667491124013132,0.1815363879028034,0.1728788466689829,0.7081544861224864,0.7406896612682398,0.8564256684039278,2
297325029,0.7633273984981174,0.9124118192939672,0.4191684708390135,0.4758730158728212,0.5881668300304596,0.5560845674302265,0.4220123730533965,0.6001701775463002,0.2931470436695548,0.7745170648484812,0.9479747447395568,0.6252818951833695,0.4801154848225996,0.8529141758706191,0.2373879122922612,0.2338870431703981,0.3266761768609285,0.4356218740958129,0.2281303384667106,0.0376811594202898,0.0054127200748552,0.0666666666666666,0.1016949152542373,0.0112325440194292,0.931254442913399,0.1662472336897678,0.3488253606207332,0.8717924668395445,0.3169074500124935,0.6403287684316502,0.7314794837199483,0.5809059944385535,0.5541078560865438,0.7241142850627682,0.6322137193631311,0.1811505597972973,0.1761246919510303,0.7081544861224864,0.7406896612682398,0.8564256684039278,2
297525029,0.7347358264974726,0.9087174725610108,0.4192392852544941,0.4285714285711037,0.5697968744285383,0.5584083802118102,0.4218035113101128,0.6007322217505283,0.2794988481614636,0.7732188107237559,0.9481126306516284,0.5901988192783029,0.4885846798470083,0.8529141758706191,0.2451015293454237,0.2338870431703981,0.3266761768609285,0.4356218740958129,0.2281303384667106,0.0376811594202898,0.0054127200748552,0.0666666666666666,0.1016949152542373,0.0112325440194292,0.931254442913399,0.1665537384247242,0.3480550499219262,0.8740143160151224,0.3260557477299969,0.6329848808360715,0.7337238993809564,0.5831388403228697,0.7912755086572187,0.265745429589143,0.5114946396582569,0.1808836345091654,0.1697326642295565,0.7010014103586474,0.742068971449201,0.8544176465377974,2
297725029,0.7870584724606179,0.9140567031189462,0.4176518807232463,0.4920634920631528,0.5626803546447379,0.5306459877838847,0.4210083505382215,0.6006114042293054,0.3152998720606548,0.7474146315488355,0.9475390374877892,0.5604556401828809,0.4764151066506215,0.8529141758706191,0.2485109526014213,0.2338870431703981,0.3266761768609285,0.4356218740958129,0.2281303384667106,0.0376811594202898,0.0054127200748552,0.0666666666666666,0.1016949152542373,0.0112325440194292,0.931254442913399,0.1680919558385731,0.3474980401283132,0.8750559581482662,0.3173576013460322,0.6496053144684162,0.7337615710029213,0.5803321200897023,0.5811948112352888,0.4569191500454783,0.6930372974146131,0.1811286397372531,0.1640958791085038,0.7067238690367077,0.7117241436663546,0.8664658247652581,2
297925029,0.7704303922231392,0.9125188303463836,0.4182198853092468,0.5076190476188458,0.6331417933002311,0.5516097299612345,0.4202866495943938,0.600930516727687,0.294181603523743,0.7732527521543399,0.948181896783818,0.6352662856827086,0.4808747424972796,0.8529141758706191,0.240527960342203,0.2338870431703981,0.3266761768609285,0.4356218740958129,0.2281303384667106,0.0376811594202898,0.0054127200748552,0.0666666666666666,0.1016949152542373,0.0112325440194292,0.931254442913399,0.1689462400394256,0.3487581339996776,0.8755578002625328,0.3043605769486365,0.6647242405710483,0.725271946541731,0.5688629600046411,0.4054581153961766,0.7694973577364468,0.5816447311257095,0.180883984996468,0.1630649860321114,0.703862638731172,0.7365517288245069,0.8574296950138858,2
298125029,0.739363557925045,0.9117966498415564,0.4186063488385261,0.515555555555693,0.5664347401289272,0.5467300096301865,0.4221422845512202,0.6012362117894602,0.2888468646948335,0.7774124474176048,0.9482926958897472,0.612007286304548,0.4716572956823733,0.8529141758706191,0.2618579420245278,0.2338870431703981,0.3266761768609285,0.4356218740958129,0.2281303384667106,0.0376811594202898,0.0054127200748552,0.0666666666666666,0.1016949152542373,0.0112325440194292,0.931254442913399,0.1688534202004585,0.3492089561035019,0.8763535860447577,0.3106311964244307,0.6616984086096975,0.724866487271176,0.5675442527960863,0.7239405074712024,0.6219787697407316,0.6088129629906631,0.1804555726837078,0.1667744128248632,0.7052932553336981,0.742068971449201,0.858433705946951,2
298325029,0.7501552244083732,0.9123869955197568,0.4192150847444719,0.3488888888887231,0.563510339383361,0.5514624984400245,0.4219043813386969,0.6017844095675065,0.3048330593819421,0.7605023716326689,0.9483063834642164,0.5682964684910443,0.4840238520270626,0.8529141758706191,0.2502340744264691,0.2318936876836232,0.320970042841509,0.4319017897739015,0.2334667587700821,0.0376811594202898,0.0054127200748552,0.0666666666666666,0.0338983050847457,0.0136612030965391,0.931254442913399,0.1687700792913293,0.3484476578883695,0.8776502813301221,0.3084475100510743,0.6557655728726556,0.7347540397480486,0.5778849500874828,0.6568983915107606,0.4127123096893303,0.6491726834445312,0.1802168032088772,0.1732886344542695,0.7010014103586474,0.7200000033264856,0.8614457606937966,2
298525029,0.7594860494038032,0.913329315676114,0.4215267174618028,0.4761904761903679,0.5942247547553267,0.5606380883834224,0.4210447770613784,0.6026099091143585,0.3005231887325046,0.7621196205922238,0.9486379138184292,0.6080232949425783,0.4810563237016885,0.8529141758706191,0.240282105541289,0.2318936876836232,0.320970042841509,0.4319017897739015,0.2334667587700821,0.0376811594202898,0.0054127200748552,0.0666666666666666,0.0338983050847457,0.0136612030965391,0.931254442913399,0.1686205715072112,0.3470362811594751,0.880119280449847,0.2999174321268772,0.6617904266787628,0.7374066523599363,0.5826773604275123,0.6307772338365513,0.2319681925693623,0.660995437762578,0.1797038212307502,0.1793438743964769,0.7010014103586474,0.7324137992320474,0.8574296950138858,2
298725029,0.7988970086750464,0.9135839858030292,0.4238816132447428,0.3968253968250792,0.6486563915136032,0.548668136143662,0.4202977260051043,0.6034482444170413,0.278239050515814,0.7875552476103341,0.9487441342729808,0.7091024614806704,0.4767797962434241,0.8529141758706191,0.2452369364119593,0.2318936876836232,0.320970042841509,0.4319017897739015,0.2334667587700821,0.0376811594202898,0.0054127200748552,0.0666666666666666,0.0338983050847457,0.0136612030965391,0.931254442913399,0.1683432751025695,0.3464537083483393,0.8823496849110922,0.2959834527888842,0.665575285586569,0.7338273816232211,0.5800335700418163,0.2076109733967079,0.6679981564200974,0.6356728212056592,0.1793263902168668,0.185736660685336,0.6995707889235938,0.7558620732588139,0.8564256684039278,2
298925029,0.7487719851243776,0.9127780971097328,0.4248249863569663,0.579047619047742,0.5515062044868295,0.5514045586755348,0.4225404666212171,0.6035552082410724,0.2670171445248812,0.797143134657135,0.9485820062789952,0.6284272025205491,0.483239635998485,0.8529141758706191,0.2537143547520444,0.2318936876836232,0.320970042841509,0.4319017897739015,0.2334667587700821,0.0376811594202898,0.0054127200748552,0.0666666666666666,0.0338983050847457,0.0136612030965391,0.931254442913399,0.1684660458073588,0.3441739721607305,0.8845206630517654,0.3146321618377343,0.6455081234039454,0.7255858412939338,0.5721564986286911,0.1409231382315709,0.7761262713350139,0.6119744507377431,0.179216205771142,0.1925250802148695,0.6967095605510691,0.759999998099151,0.8564256684039278,2
299125029,0.7583760178789078,0.9121786090171282,0.4270255201175179,0.4206349206347113,0.5682259271533228,0.5509316778801596,0.4223940084159248,0.6034168118420098,0.287603973996052,0.7748258151648976,0.9489971812014656,0.6023100251900261,0.4821619929307895,0.8529141758706191,0.2431229105636662,0.2318936876836232,0.320970042841509,0.4319017897739015,0.2334667587700821,0.0376811594202898,0.0054127200748552,0.0666666666666666,0.0338983050847457,0.0136612030965391,0.931254442913399,0.1695414228560996,0.3396759205131832,0.8870353628805886,0.3328845922531378,0.6290703030637534,0.7306643575508396,0.5794497773373726,0.25932211075378,0.6539040204394699,0.5525659895531764,0.1790136241102948,0.1985043988596376,0.6967095605510691,0.742068971449201,0.8554216574708625,2
299325029,0.7646365156770453,0.9119602445681828,0.4290599639162086,0.5234920634920854,0.5822891586506114,0.5511408644046354,0.4223830773309978,0.6038345798239795,0.2930483273677327,0.7688190853412833,0.9491166499431392,0.6025815531038226,0.4770509157777992,0.8529141758706191,0.229044717602101,0.2312292358546983,0.3109843081329018,0.4297937419914852,0.2340385140043344,0.0376811594202898,0.0054127200748552,0.0666666666666666,0.2203389830508474,0.0031876141469338,0.931254442913399,0.170448615612391,0.3362718244813856,0.8901427199050742,0.3386659317757899,0.6287659362762505,0.7380617564475793,0.5895225308702189,0.503002882172484,0.7003831954867294,0.7204233098894086,0.1788025577359997,0.2039590955287957,0.6967095605510691,0.7365517288245069,0.8544176465377974,2
299525029,0.7884600722660524,0.914547245115662,0.4314245473494683,0.515555555555693,0.6073277935613137,0.5685031138100662,0.4214294942690342,0.6042529343340668,0.2891184354199547,0.7718920028459026,0.9492456707656246,0.6267608590067638,0.4999839607758156,0.8529141758706191,0.2424281643255726,0.2312292358546983,0.3109843081329018,0.4297937419914852,0.2340385140043344,0.0376811594202898,0.0054127200748552,0.0666666666666666,0.2203389830508474,0.0031876141469338,0.931254442913399,0.1708597975501999,0.3346156376836611,0.8924461608077834,0.3372229285416771,0.6278687218349854,0.7315359457841402,0.5825384971620898,0.7197193957555623,0.3599757451849014,0.581605245195837,0.178608008075835,0.2017523584465244,0.6995707889235938,0.7365517288245069,0.8564256684039278,2
299725029,0.722683964224584,0.9088524533469252,0.4341695851392111,0.3412698412694226,0.5469580358671441,0.4953904027675217,0.4225266465700252,0.6046081546667317,0.2923729803600298,0.7724512935002906,0.9493011738510696,0.5612731057622411,0.4545353424964239,0.8529141758706191,0.2480680051431285,0.2312292358546983,0.3109843081329018,0.4297937419914852,0.2340385140043344,0.0376811594202898,0.0054127200748552,0.0666666666666666,0.2203389830508474,0.0031876141469338,0.931254442913399,0.171103262180781,0.3342433343253544,0.893473100101452,0.3313540947801686,0.6334231473437784,0.735927379462113,0.58380497691898,0.3651255939096527,0.60321628588795,0.5971911383764557,0.1784060835786801,0.1866219733827097,0.6995707889235938,0.7406896612682398,0.8544176465377974,2
299925029,0.7485126657597077,0.9197778444158206,0.4361825463313128,0.4126984126983188,0.5669891725740471,0.673489598696722,0.4231567623503736,0.6046369502889036,0.3052152937873313,0.7453756518975561,0.9487475131086972,0.5372159523711275,0.5418412677274415,0.8529141758706191,0.2402885201972368,0.2312292358546983,0.3109843081329018,0.4297937419914852,0.2340385140043344,0.0376811594202898,0.0054127200748552,0.0666666666666666,0.2203389830508474,0.0031876141469338,0.931254442913399,0.1709724628108168,0.3350892483639875,0.8923567770199248,0.3215371424052483,0.6446933478239324,0.7240887890290032,0.5647924361445926,0.3329810400071084,0.3995005414917734,0.5480650347111945,0.1785089369983272,0.1608086192751747,0.6938483370110721,0.7158620727836017,0.8624497716268618,2
300125029,0.7686205488235865,0.9063747016242886,0.4385131671411227,0.5076190476188458,0.5608668300076309,0.5115985834264892,0.4227988236734711,0.6045819911500793,0.2964450815410492,0.7167007863893143,0.9471156457632272,0.5045987638031226,0.5206751996159007,0.8529141758706191,0.2392911151609061,0.2312292358546983,0.3109843081329018,0.4297937419914852,0.2340385140043344,0.0376811594202898,0.0054127200748552,0.0666666666666666,0.2203389830508474,0.0031876141469338,0.931254442913399,0.1696914237302031,0.3384915809135146,0.8901260961709621,0.2965099443883495,0.6921652167656408,0.7332864875441144,0.5662188664699993,0.3566203761264616,0.6445971770640211,0.5861745357759877,0.1777877947697885,0.1356149501623649,0.6824034138559185,0.6937931070369475,0.8574296950138858,2
300325029,0.7974783283845261,0.9086249610145654,0.4411540757209726,0.4917460317460609,0.6784378196033132,0.5110097606026714,0.4222964515573358,0.6039746218949094,0.2876869671978467,0.7540949771456169,0.9486529985975876,0.6582302935740144,0.4871058500241589,0.8529141758706191,0.2462447635832153,0.2292358803970273,0.3138373752590269,0.4307444302070846,0.2246998451782118,0.0376811594202898,0.0054127200748552,0.0666666666666666,0.4745762711864407,0.007589557225258,0.931254442913399,0.1685726373595667,0.3436110340195736,0.8896479572647732,0.2791741927037645,0.7308053833454621,0.7387719096867467,0.5674694012483849,0.3382080839981952,0.4762130428023071,0.5816358463800799,0.1786615450112925,0.1206700590338121,0.6881258754334952,0.7282758677387391,0.8534136356047323,2
300525029,0.7456801373158998,0.9068078462113666,0.4436513077343976,0.4285714285711037,0.6468009184488471,0.4158980741934097,0.4252430180179475,0.6045106237659807,0.2815235898812007,0.8184760641558361,0.9478827188783508,0.7448092770483479,0.3844552017969648,0.8529141758706191,0.2380998718628769,0.2292358803970273,0.3138373752590269,0.4307444302070846,0.2246998451782118,0.0376811594202898,0.0054127200748552,0.0666666666666666,0.4745762711864407,0.007589557225258,0.931254442913399,0.1682632814042828,0.3461276214676549,0.8905990725494265,0.2893070297506074,0.716078393265819,0.7357487821159455,0.5641012691222644,0.3649617782528326,0.4888579017342164,0.631476456360336,0.1783374318783022,0.111001100907232,0.7110157169112749,0.78206897335005,0.8473895229756624,2
300725029,0.6668806994118633,0.9154000689059536,0.4410442426370252,0.3885714285715949,0.530792414086233,0.6457082841806536,0.4246005653077074,0.6024304945257799,0.2837679705697933,0.8203995035735412,0.9471803874292628,0.648023233395384,0.4698571359102131,0.8529141758706191,0.2565389550356018,0.2292358803970273,0.3138373752590269,0.4307444302070846,0.2246998451782118,0.0376811594202898,0.0054127200748552,0.0666666666666666,0.4745762711864407,0.007589557225258,0.931254442913399,0.1699218098740524,0.3397079116620827,0.8913140599359795,0.3229982410364374,0.6541982708260702,0.7187289294537527,0.5485176118507741,0.4396759079466499,0.4048700876040623,0.5728071430243423,0.1792151543092346,0.1004521400549742,0.7095850954762213,0.7806896650699376,0.8483935339087276,2
300925029,0.7407069160764166,0.9124142411255975,0.439176261115734,0.4758730158728212,0.560475910058521,0.5840048903779343,0.4220232881411013,0.6010009437278614,0.2871024512044898,0.777079095355706,0.9482159947708316,0.6116753883417184,0.485773132634186,0.8529141758706191,0.2295973597114743,0.2292358803970273,0.3138373752590269,0.4307444302070846,0.2246998451782118,0.0376811594202898,0.0054127200748552,0.0666666666666666,0.4745762711864407,0.007589557225258,0.931254442913399,0.1726989129758177,0.3275115835582396,0.8914242172221095,0.3438621373137673,0.6124282855770534,0.750908658395194,0.5808523567565809,0.3221528916099668,0.5271503832083897,0.6967122954394092,0.1807765168273379,0.0880966106256989,0.6981401819861227,0.7379310394806804,0.8504015871286438,2
301125029,0.7301422560400715,0.9125897754821612,0.4398062934704995,0.4444444444443434,0.5676476996266416,0.5264811625469954,0.4222823111589011,0.6016110517300268,0.296442908391522,0.7716856295030775,0.948404007820112,0.5906317164680628,0.4763286083176332,0.8529141758706191,0.2455558806365124,0.2292358803970273,0.3138373752590269,0.4307444302070846,0.2246998451782118,0.0376811594202898,0.0054127200748552,0.0666666666666666,0.4745762711864407,0.007589557225258,0.931254442913399,0.1750029948545399,0.3190744927518031,0.8915508886743637,0.3498140106516237,0.6063946391478324,0.7495487545815183,0.5751700509091501,0.4968843525694214,0.7100133621068554,0.6492313010190743,0.1802647031402192,0.0755512779528248,0.6995707889235938,0.7337931122642822,0.8534136356047323,2
301325029,0.7331652218923018,0.9122816942804716,0.4408157898224146,0.4285714285711037,0.5830358846800519,0.5733304936469784,0.4211599249478258,0.6021157107018533,0.2977443812026566,0.7640139647612235,0.9485151707411126,0.5961102120991795,0.4874797872169777,0.8529141758706191,0.2445186697687242,0.2259136212524026,0.3124108416959643,0.4257016492373826,0.2195540480699401,0.0376811594202898,0.0054127200748552,0.0666666666666666,0.288135593220339,0.0069823925318761,0.931254442913399,0.1757675250759229,0.3153318074121303,0.8890946112864385,0.3454712285825521,0.611257782103903,0.7353107921515349,0.5524578932469653,0.5515587321036465,0.613415986008274,0.5494344127654193,0.1800321840222835,0.0685430836981141,0.6995707889235938,0.7310344861998127,0.8544176465377974,2
