timestamp,rollspeed_integ,pitchspeed_integ,yawspeed_integ,baro_pressure_pa,xyz[0],xyz[1],xyz[2],q[0],q[1],q[2],q[3],roll_body,pitch_body,yaw_body,thrust_body[2],lat,lon,alt,eph,hdop,vdop,noise_per_ms,jamming_indicator,vel_m_s,cog_rad,x,y,z,vx,vy,vz,z_deriv,ax,ay,az,heading,evh,magnetometer_ga[0],magnetometer_ga[1],magnetometer_ga[2],class
313125029,0.7478954002293665,0.9084950249039369,0.3791768227284068,0.4523809523807358,0.591870030637442,0.7046215993135714,0.4180867292882845,0.5973952718193826,0.2936992660552344,0.7781780918468769,0.9470392833019582,0.6161566913134072,0.5266002190604844,0.8529141758706191,0.2576585343890916,0.1654485049657523,0.3723252497147769,0.4483528293307981,0.2896893186878865,0.0376811594202898,0.0054127200748552,0.1733333333333333,0.3389830508474576,0.0704310913782635,0.931254442913399,0.136551655055724,0.3562193135752409,0.8296851029843338,0.2978761380175777,0.6051602514312668,0.6771161859293102,0.5592975478276301,0.3880814091017291,0.6662254679171373,0.675383375597717,0.1831278339143717,0.2498940628367202,0.7310443251840023,0.7379310394806804,0.8473895229756624,2
313325029,0.7475574706321659,0.9106424533231914,0.3800218747531428,0.3853968253965831,0.5849851606565074,0.5958064448228457,0.4171373133668734,0.5984898059969859,0.2647941104541075,0.7709130669717369,0.9473211857970923,0.6144855814435715,0.5194784373284485,0.8529141758706191,0.269742576225881,0.1674418604525271,0.3780313837341964,0.4553383210019426,0.3283780895389661,0.0376811594202898,0.0054127200748552,0.1600000000000001,0.3898305084745763,0.0112325440194292,0.931254442913399,0.1341065001321643,0.3554067177468526,0.8301139929553903,0.3042704337083035,0.6088213021924914,0.6846441996580305,0.5660087960047079,0.5781313835317172,0.800052857704858,0.6452453912637734,0.1824796952702169,0.2707777941631921,0.7224606400664284,0.7337931122642822,0.8473895229756624,2
313525029,0.7531858704787217,0.9011544193268752,0.3832085606813264,0.4441269841267967,0.5828378098101604,0.4786014243337911,0.4182048401106715,0.5998921850315705,0.2740040418390848,0.7711009140781223,0.947824177550022,0.6168561007405762,0.4803797560472285,0.8529141758706191,0.2206879943084114,0.1674418604525271,0.3780313837341964,0.4553383210019426,0.3283780895389661,0.0376811594202898,0.0054127200748552,0.1600000000000001,0.3898305084745763,0.0112325440194292,0.931254442913399,0.1324849302070689,0.3567199823529319,0.8320186652127619,0.3118393432746034,0.6148607620005405,0.7134982593538136,0.5955612198758412,0.5033487984194975,0.5630189791558687,0.6753601932910809,0.1813945719780278,0.2876989792862524,0.725321868438953,0.7337931122642822,0.8483935339087276,2
313725029,0.737319131863345,0.895307463876807,0.3877207643907628,0.3809523809522943,0.5936183570533404,0.4796180020372155,0.4188489734579931,0.6014034038106948,0.2958101621237046,0.777093402075335,0.9483448878710048,0.621829101355478,0.4429622263609348,0.8529141758706191,0.2841181832984305,0.1674418604525271,0.3780313837341964,0.4553383210019426,0.3283780895389661,0.0376811594202898,0.0054127200748552,0.1600000000000001,0.3898305084745763,0.0112325440194292,0.931254442913399,0.1316893034107797,0.3581208586377377,0.8339758706810297,0.314517175518278,0.6200697338354713,0.7267707591143703,0.6063493013199955,0.1991046376329845,0.7043578175949601,0.6401265378060506,0.1805130526013184,0.2980125260134142,0.7281830992277414,0.7351724181683333,0.8483935339087276,2
313925029,0.7356722530919878,0.9054418847352486,0.3902022474568966,0.3968253968250792,0.5778940036178355,0.5533534271332952,0.4201285383691322,0.6019839284979683,0.3155823484203059,0.7776822679467927,0.9484751917221728,0.6135425988928715,0.4273906561981711,0.8529141758706191,0.2417701712419973,0.1674418604525271,0.3780313837341964,0.4553383210019426,0.3283780895389661,0.0376811594202898,0.0054127200748552,0.1600000000000001,0.3898305084745763,0.0112325440194292,0.931254442913399,0.1310650659918454,0.3575936066285177,0.8368921298814587,0.3159281022301913,0.6109583885997061,0.7452140318477669,0.6200093869018678,0.5071967627765044,0.358130778796851,0.5778627033859339,0.1800632897703806,0.2997186893201574,0.7396280190001256,0.7324137992320474,0.8524096089947741,2
314125029,0.7288264586714263,0.9061957282668098,0.3929615523780861,0.3253968253966377,0.587256332474383,0.6103780359886489,0.4197312078305865,0.6021910189732216,0.2965528215249935,0.7748347445561348,0.9486118855593296,0.6174648198565814,0.4896671151414025,0.8529141758706191,0.2456742491934344,0.1674418604525271,0.3780313837341964,0.4553383210019426,0.3283780895389661,0.0376811594202898,0.0054127200748552,0.1600000000000001,0.3898305084745763,0.0112325440194292,0.931254442913399,0.1299234118480014,0.3548870208744329,0.8390809616815871,0.3087487077044127,0.6077677316176551,0.7406955423222356,0.6093150615814281,0.4056053879753047,0.6779049960935597,0.7221559293830924,0.1798948952251652,0.2949111636086368,0.7296137163135201,0.7337931122642822,0.851405598061709,2
314325029,0.7301503362695502,0.9053477093904728,0.3950527742964447,0.4365079365074962,0.5857185634296149,0.5763623615537248,0.4194210178078154,0.602329895258926,0.283676766637803,0.7724247949942671,0.9486449772493372,0.6147416702456782,0.4943825501405726,0.8529141758706191,0.2509720557146085,0.1667774086236022,0.3637660485692322,0.4442194023064523,0.3157994743854131,0.0376811594202898,0.0054127200748552,0.1600000000000001,0.2542372881355932,0.0235276259866423,0.931254442913399,0.1287370460445943,0.353161658868259,0.8400554100121964,0.3093373762044215,0.6053399602170724,0.739051562694891,0.6004839077236368,0.5293923390699116,0.5282458732762156,0.652837064522408,0.1798339250381672,0.2831324681866926,0.725321868438953,0.7324137992320474,0.8524096089947741,2
314525029,0.7244058531262288,0.9075915267086132,0.3993267332925999,0.5314285714284779,0.5873513999362074,0.5386509479622527,0.4191078367703916,0.6030557625832174,0.2846922836361773,0.7731646917517555,0.9488829277875442,0.618433259190042,0.4659919029708439,0.8529141758706191,0.2545675308889217,0.1667774086236022,0.3637660485692322,0.4442194023064523,0.3157994743854131,0.0376811594202898,0.0054127200748552,0.1600000000000001,0.2542372881355932,0.0235276259866423,0.931254442913399,0.1278726389963934,0.3543984245104927,0.8400981607759592,0.3118290797996614,0.6135605894881706,0.7368647394282088,0.5896263064902924,0.3253455172516649,0.6095412520826899,0.6614907020891291,0.1794160127408443,0.2617790868104354,0.7281830992277414,0.7324137992320474,0.8524096089947741,2
314725029,0.7160716164339067,0.9034069891445272,0.4054508398957376,0.4444444444443434,0.5732686430837929,0.5182718693314201,0.4196076930584924,0.6042187896724089,0.291611139310127,0.7733908950889347,0.949253748234285,0.6013568824943294,0.4788954471175088,0.8529141758706191,0.2431028731687771,0.1667774086236022,0.3637660485692322,0.4442194023064523,0.3157994743854131,0.0376811594202898,0.0054127200748552,0.1600000000000001,0.2542372881355932,0.0235276259866423,0.931254442913399,0.1284004918258187,0.3581728340205219,0.8399454150051405,0.3167546871785874,0.6155060521870883,0.7498626441487205,0.5959647373647239,0.3905261046003591,0.3262260079661213,0.6843546928169927,0.1786705408520567,0.2304568710944977,0.7281830992277414,0.7324137992320474,0.8554216574708625,2
314925029,0.7459813058690867,0.9045600958386588,0.4115510140560409,0.5314285714284779,0.570400339940721,0.5341146735806923,0.4176373598669062,0.6053156699624828,0.3149835376603482,0.7579348982709279,0.9493382771827956,0.5761158717430985,0.4641590199851326,0.8529141758706191,0.2476453774859616,0.1667774086236022,0.3637660485692322,0.4442194023064523,0.3157994743854131,0.0376811594202898,0.0054127200748552,0.1600000000000001,0.2542372881355932,0.0235276259866423,0.931254442913399,0.1301677901453203,0.3646835094672656,0.8398895364170529,0.3173566576839854,0.6241483213171979,0.7462614849319111,0.5851538314564737,0.5929944441035524,0.054731266628588,0.5934946480077012,0.1781366318612427,0.1982563634644316,0.7324749451692976,0.7089655223540074,0.8664658247652581,2
315125029,0.730695671757078,0.9004547400597253,0.4207084423706178,0.4206349206347113,0.6050048524295825,0.5548602589802706,0.4191890393317697,0.6066130677350206,0.3010900298545998,0.7720864653060703,0.9499954607296688,0.6280011871341681,0.4702746662418708,0.8529141758706191,0.2474773188792978,0.1667774086236022,0.3637660485692322,0.4442194023064523,0.3157994743854131,0.0376811594202898,0.0054127200748552,0.1600000000000001,0.2542372881355932,0.0235276259866423,0.931254442913399,0.1310899583345227,0.3718433471574111,0.8399878298591167,0.3067575467915286,0.6424750175919881,0.7530337853395641,0.5871036778224193,0.4107372897225076,0.4604572750990991,0.649678932444847,0.1771688487972045,0.1673122693803839,0.7310443251840023,0.7310344861998127,0.858433705946951,2
315325029,0.6838732620006409,0.8985090526371058,0.4278443536820111,0.4917460317460609,0.5364475808731091,0.5508131562233395,0.4212174520743586,0.6070729906076928,0.3078639402770321,0.7644137279868607,0.9499645383837836,0.5392432900530091,0.4606486828743375,0.8529141758706191,0.2512548384929489,0.1734219269128516,0.3609129814431071,0.4432687140908526,0.3047455779735488,0.0376811594202898,0.0054127200748552,0.1733333333333333,0.135593220338983,0.0136612030965391,0.931254442913399,0.1315540546288292,0.3759601918902228,0.839941818312546,0.3005925223830912,0.6512542551666485,0.7438796434221152,0.5736880153038335,0.2795331537360236,0.6124385550588267,0.7111672540327254,0.176758165300496,0.1402673730532236,0.7281830992277414,0.7241379352950063,0.8674698670521093,2
315525029,0.739633765598943,0.904717054746618,0.4339274311127725,0.4555555555557475,0.5740806900810583,0.5734626005707077,0.4219188920982393,0.6072819860874934,0.3361892349016173,0.7295876150812248,0.9486138130051336,0.513256440612775,0.4889294160831263,0.8529141758706191,0.2531440689768357,0.1734219269128516,0.3609129814431071,0.4432687140908526,0.3047455779735488,0.0376811594202898,0.0054127200748552,0.1733333333333333,0.135593220338983,0.0136612030965391,0.931254442913399,0.1309495234061369,0.379319921071745,0.8390692682108066,0.2781508267420124,0.6715474709766709,0.7414212738957493,0.5665368869354834,0.3011111769555223,0.5896173469082535,0.593684441773361,0.1771329676596107,0.122282079286141,0.7267524782759406,0.6868965557519713,0.872489937394328,2
315725029,0.745052999505186,0.9030331309957588,0.440795759246427,0.4206349206347113,0.6746275596207434,0.6005106828709129,0.4216546726056205,0.6072864335217737,0.286180632868168,0.7624308630019854,0.949902848506938,0.6753498436070937,0.5159489683693878,0.8529141758706191,0.2431530607914119,0.1734219269128516,0.3609129814431071,0.4432687140908526,0.3047455779735488,0.0376811594202898,0.0054127200748552,0.1733333333333333,0.135593220338983,0.0136612030965391,0.931254442913399,0.1297879194215875,0.3835022752196226,0.8389270986134201,0.2582241348674027,0.6992515290810777,0.7575187590211232,0.5807380887387271,0.2122435416260212,0.6190040234587707,0.6784680598313741,0.1766735664278541,0.1101611085761869,0.7153075618863255,0.7310344861998127,0.8644578028991279,2
315925029,0.6992505787164356,0.8974018880890009,0.4461229616703069,0.4920634920631528,0.6417850538617833,0.5076275553780996,0.4235480669572405,0.6079070432856487,0.234340455711892,0.818077190945366,0.948634778816218,0.7464213197168617,0.4779801033754658,0.8529141758706191,0.2312247054785356,0.1734219269128516,0.3609129814431071,0.4432687140908526,0.3047455779735488,0.0376811594202898,0.0054127200748552,0.1733333333333333,0.135593220338983,0.0136612030965391,0.931254442913399,0.12998023901856,0.3855570488792718,0.8409890743737829,0.2933530453139767,0.6802803345593738,0.7602721110099504,0.5840467131914739,0.7366663304945107,0.2859908431433826,0.5884259464193777,0.1769622657396538,0.1036335393887487,0.7153075618863255,0.7875862112226217,0.8574296950138858,2
316125029,0.6565747747236022,0.8998086898321966,0.4462443737675111,0.4206349206347113,0.5075414484289748,0.5178057154049664,0.4254375675413971,0.605001644747237,0.2696473950523891,0.8026043599154266,0.9487377481573652,0.6095878849651543,0.4691342057070787,0.8529141758706191,0.2376762356120074,0.1734219269128516,0.3609129814431071,0.4432687140908526,0.3047455779735488,0.0376811594202898,0.0054127200748552,0.1733333333333333,0.135593220338983,0.0136612030965391,0.931254442913399,0.1321982389879397,0.3820729361743438,0.8415126346400557,0.3357527481217751,0.643645029618247,0.7450696736531576,0.5670479741899479,0.5188224089324917,0.5615518671184841,0.619209927037325,0.1780020739443566,0.0989349407257866,0.7224606400664284,0.7627586289157429,0.8684738466313885,2
316325029,0.7028939621885262,0.9059221097292194,0.4444715560979384,0.4996825396824533,0.5593444417754982,0.5600579348302167,0.424117350240454,0.6020806377746206,0.305653813145438,0.7690252760090793,0.9485309231596308,0.5996853822249791,0.4734437712100617,0.8529141758706191,0.2459116183593317,0.181395348830847,0.3651925821322948,0.4424006944157401,0.2957880411865788,0.0376811594202898,0.0054127200748552,0.1733333333333333,0.3389830508474576,0.0113843359137826,0.931254442913399,0.1351438222361456,0.3752248055445762,0.8422444248204778,0.3501665486833512,0.6239878126050722,0.7186714174269363,0.5403976035258502,0.347422267152021,0.6312460752901948,0.5841751742209697,0.1798109097053027,0.0930209072953346,0.7238912518364269,0.7324137992320474,0.8755019858704164,2
316525029,0.7316222980732653,0.9042517240171736,0.4435515644015518,0.4682539682539754,0.6073046396594672,0.5503913489920972,0.4217809433069864,0.600890785506892,0.2940097723112364,0.7736324735917081,0.9481928441341322,0.6305618198126673,0.4763661355274591,0.8529141758706191,0.2338786651555512,0.181395348830847,0.3651925821322948,0.4424006944157401,0.2957880411865788,0.0376811594202898,0.0054127200748552,0.1733333333333333,0.3389830508474576,0.0113843359137826,0.931254442913399,0.1363616297774485,0.3712384841297204,0.8396595988141466,0.3469979278285631,0.6202894976617876,0.7064798140044874,0.5254673209796338,0.4555339581218496,0.4239338894649229,0.621054002099742,0.1807583060912453,0.0867716193601181,0.7167381736563241,0.742068971449201,0.8734939483273931,2
316725029,0.7118430963439363,0.9041662939064148,0.4437456152603769,0.5079365079363924,0.569745586213956,0.5538579300265145,0.420567391544526,0.6006352798015648,0.2953281200229388,0.7716868413831096,0.948105207276022,0.5891663452200839,0.4733660296678077,0.8529141758706191,0.2489982647347066,0.181395348830847,0.3651925821322948,0.4424006944157401,0.2957880411865788,0.0376811594202898,0.0054127200748552,0.1733333333333333,0.3389830508474576,0.0113843359137826,0.931254442913399,0.136236509643905,0.3715203387173152,0.8352695478125185,0.3403800661514251,0.6287881523211069,0.6923035660443185,0.5081596201717015,0.2381523763586468,0.7428112383583608,0.655069730631732,0.1809636916505125,0.0804851293435669,0.7167381736563241,0.7379310394806804,0.8714859107843698,2
316925029,0.6833173262120644,0.9037354863868602,0.444509681209112,0.4361904761904043,0.4880609012980072,0.5507237400934445,0.4210296901362959,0.6017162002252974,0.3349416508346141,0.7299182498362292,0.9466128630104452,0.4288281694434327,0.4784680848320432,0.8529141758706191,0.2460731143829712,0.181395348830847,0.3651925821322948,0.4424006944157401,0.2957880411865788,0.0376811594202898,0.0054127200748552,0.1733333333333333,0.3389830508474576,0.0113843359137826,0.931254442913399,0.1352416570903177,0.3744144936286318,0.8300498107918782,0.3219526455969322,0.6475470988022834,0.6893794927252573,0.5011745764226752,0.539869839524981,0.3576659542727716,0.6069496618321846,0.1807557212473894,0.0744863300427595,0.7138769452837995,0.691034486675025,0.8845381469755746,2
317125029,0.7654646191951853,0.9037482833451946,0.4475805695584166,0.4206349206347113,0.6206967366222776,0.6034351194040747,0.4210684461716599,0.6039890669675586,0.3447079797076156,0.6998190516296674,0.9450397730860628,0.508185732682653,0.519720128797883,0.8529141758706191,0.2487198525290769,0.181395348830847,0.3651925821322948,0.4424006944157401,0.2957880411865788,0.0376811594202898,0.0054127200748552,0.1733333333333333,0.3389830508474576,0.0113843359137826,0.931254442913399,0.1325503429444329,0.3813394542756386,0.8251283519882868,0.2660938213753051,0.7081252210275011,0.6988011106769075,0.5092870062262338,0.2012883803708665,0.6741573892765274,0.6855629053075133,0.179726748941789,0.067047737565511,0.7052932553336981,0.6703448296836954,0.882530081214144,2
317325029,0.7762682380179597,0.8999586157411016,0.450912465993045,0.4047619047614716,0.7046731512633764,0.5570094890550388,0.4224863696472374,0.6041151923258792,0.2775276323908037,0.7585407862219143,0.9486632067066398,0.6895710459257938,0.5059017870068552,0.8529141758706191,0.237816537719979,0.1847176079754717,0.3637660485692322,0.442483362956227,0.2814941603302686,0.0376811594202898,0.0054127200748552,0.1733333333333333,0.2203389830508474,0.0091074687310261,0.931254442913399,0.1289817143948458,0.3907876718507065,0.8224199241114347,0.237897917645601,0.7543345391096892,0.7050226525417846,0.5172991101299145,0.278664291475403,0.5459776520598587,0.5982526682959667,0.1787108176845694,0.0597430403016038,0.6938483370110721,0.7406896612682398,0.8704819155281976,2
317525029,0.7231110643542277,0.8932677972777741,0.4536998881837253,0.5473015873017175,0.6504848737246071,0.4098808661306265,0.4257429699157038,0.6048011999748704,0.2581494305266468,0.8266808799463831,0.9473107048267366,0.7731939959455294,0.4017113316086946,0.8529141758706191,0.2397729943361144,0.1847176079754717,0.3637660485692322,0.442483362956227,0.2814941603302686,0.0376811594202898,0.0054127200748552,0.1733333333333333,0.2203389830508474,0.0091074687310261,0.931254442913399,0.1279302261056354,0.3956020275731737,0.8204382666217944,0.2691123718490582,0.7329788139646478,0.6915977837606693,0.5069587211811789,0.7322459194935915,0.3798631100163532,0.5864932951060094,0.1785011386558467,0.0539905171652582,0.7067238690367077,0.8013793177843571,0.8674698670521093,2
317725029,0.6649898457116182,0.9000200818278784,0.4505615958292754,0.5473015873017175,0.5322331857618595,0.6180936014599977,0.4251961763767887,0.6022887631569245,0.266692024771446,0.8310019318919685,0.9463509664738664,0.6779891446808486,0.4772761629739905,0.8529141758706191,0.2625078529105673,0.1847176079754717,0.3637660485692322,0.442483362956227,0.2814941603302686,0.0376811594202898,0.0054127200748552,0.1733333333333333,0.2203389830508474,0.0091074687310261,0.931254442913399,0.1301388196584104,0.3895403046685093,0.8188415155515175,0.315442899551418,0.6696188366418334,0.6845500379728704,0.5068580626101855,0.362251487690159,0.6483162964144478,0.5963645820637246,0.1794465197397997,0.04975327273004,0.7052932553336981,0.8027586308165918,0.8664658247652581,2
317925029,0.7137591507598816,0.8997017320600764,0.4452308564077768,0.5158730158727849,0.5260765985635161,0.6331951828288217,0.4238256632515365,0.5988270475462762,0.269908065247859,0.775532918753507,0.9473831678871072,0.5899256019281479,0.5451714509527272,0.8529141758706191,0.2241089962201136,0.1847176079754717,0.3637660485692322,0.442483362956227,0.2814941603302686,0.0376811594202898,0.0054127200748552,0.1733333333333333,0.2203389830508474,0.0091074687310261,0.931254442913399,0.1339674342536205,0.3768578342674948,0.8202033380489684,0.3510359119128796,0.6248062894723383,0.7004285242272885,0.5335060281851269,0.3728597668938236,0.61778923933866,0.5370495403515323,0.181930613099932,0.0477308029634291,0.6809727972533924,0.7531034566985894,0.8734939483273931,2
318125029,0.726561034333375,0.903883218116308,0.4424539781931556,0.4917460317460609,0.5845309560970261,0.4416763033922479,0.4215177759431301,0.5982110645682548,0.3124259920216378,0.7695549178228732,0.9472340501522986,0.6105328515998701,0.4270712770111686,0.8529141758706191,0.2487498279339144,0.1847176079754717,0.3637660485692322,0.442483362956227,0.2814941603302686,0.0376811594202898,0.0054127200748552,0.1733333333333333,0.2203389830508474,0.0091074687310261,0.931254442913399,0.1368721693473258,0.3675634995649959,0.8210541808567905,0.3612540036625947,0.614446194251068,0.6756332664205547,0.5153325050123245,0.6574250607029585,0.2857512368752203,0.4676928353403924,0.1825018781957377,0.0448447445781759,0.7067238690367077,0.7475862140738951,0.8805220593480138,2
318325029,0.713123612710601,0.8891064850790227,0.4407123977972885,0.4996825396824533,0.5856728373591351,0.5583656659877516,0.4210895251218425,0.5986434666691265,0.2961246094622546,0.7691088227729316,0.947451044555354,0.5985467045283487,0.4590339469500568,0.8529141758706191,0.2591852628483945,0.181395348830847,0.3423680455889553,0.4402099780928368,0.2673908836105504,0.0376811594202898,0.0054127200748552,0.1733333333333333,0.1525423728813559,0.0069823925318761,0.931254442913399,0.1379626001432694,0.363686686341063,0.8192615163013179,0.3531015878775312,0.6195122947568755,0.6737155164275129,0.5166891544960224,0.5223519026476555,0.3087779660389891,0.7133293475766407,0.1822650510047085,0.0420610766501838,0.6838340256259171,0.7517241436663545,0.8744979592604583,2
318525029,0.7280981979888229,0.9111975613511708,0.4366081029921667,0.5631746031745024,0.5899196115729402,0.7087964757164489,0.4241479381773307,0.5983586030502088,0.2897850443326526,0.7663108988121984,0.9472640165160277,0.6147473742212423,0.5805784777861164,0.8529141758706191,0.2590533387921114,0.181395348830847,0.3423680455889553,0.4402099780928368,0.2673908836105504,0.0376811594202898,0.0054127200748552,0.1733333333333333,0.1525423728813559,0.0069823925318761,0.931254442913399,0.1377438306193714,0.3635887408128589,0.8163846093815349,0.3462418927366035,0.6291982282177402,0.667286821084834,0.5104499364263311,0.3165491950761896,0.5007057445517162,0.6635043705311046,0.1824297362259723,0.0385072207303103,0.6809727972533924,0.7503448306341198,0.8714859107843698,2
318725029,0.7173362923507028,0.8995882934665134,0.4344070479898608,0.5,0.5867471263679707,0.5953872940559386,0.4224272948465987,0.5991020007789418,0.229024498366327,0.7603936012989289,0.9469743810154392,0.6080468295378065,0.6179734691668812,0.8529141758706191,0.2470546777742149,0.181395348830847,0.3423680455889553,0.4402099780928368,0.2673908836105504,0.0376811594202898,0.0054127200748552,0.1733333333333333,0.1525423728813559,0.0069823925318761,0.931254442913399,0.1372955654141273,0.3648177569579129,0.814661956796217,0.3559455028522517,0.6454711296653537,0.6762148461624835,0.5225179835184889,0.2869589601483352,0.3422668868120906,0.5645243114142571,0.1819932919125296,0.0370576145970573,0.6523604941980361,0.7544827649787016,0.8664658247652581,2
318925029,0.7136241869269087,0.8873495794319846,0.4321855900960284,0.4285714285711037,0.5883331900579627,0.3955979636403448,0.4216113970355502,0.5993343580129815,0.241185962281026,0.7633689172316955,0.9471887416295997,0.6064717364644371,0.467372591728692,0.8529141758706191,0.242011413407712,0.181395348830847,0.3423680455889553,0.4402099780928368,0.2673908836105504,0.0376811594202898,0.0054127200748552,0.1733333333333333,0.1525423728813559,0.0069823925318761,0.931254442913399,0.1379444283270409,0.3680318440045654,0.8140996311783587,0.3816891453509461,0.6697948265089099,0.6860096882358682,0.5368185430857929,0.6549792250509048,0.2376249194647847,0.6163047670245356,0.1819505616688994,0.0351387780470405,0.6609441793156101,0.7544827649787016,0.8674698670521093,2
319125029,0.7087848014883623,0.9030411472584552,0.430350372342152,0.4917460317460609,0.5822359660536478,0.3354805561925958,0.4226076896876922,0.5998966518552102,0.3575610811918434,0.7838087131447522,0.9471904465289503,0.6154584976918437,0.3174059434069953,0.8529141758706191,0.2393020079728929,0.181395348830847,0.3423680455889553,0.4402099780928368,0.2673908836105504,0.0376811594202898,0.0054127200748552,0.1733333333333333,0.1525423728813559,0.0069823925318761,0.931254442913399,0.1386472729912441,0.3708680346704174,0.8141428552560879,0.3750427127206461,0.6701542029874963,0.6807588147810346,0.5337194906930417,0.4947105129451058,0.336209152666663,0.6198108135293916,0.1816841183008087,0.0337504221952039,0.7195994020288488,0.7544827649787016,0.8815260828225933,2
319325029,0.7154504787935978,0.9155291040952156,0.4297837080920912,0.4838095238096684,0.5899733266008561,0.6878709795118829,0.4206480695380956,0.6005286649860003,0.3517636872994507,0.7834973711779312,0.9475332512800044,0.6183505137127109,0.4544487523487673,0.8529141758706191,0.2566411591974521,0.1847176079754717,0.3238231099676341,0.4318191212334146,0.2546217024374211,0.0376811594202898,0.0054127200748552,0.1600000000000001,0.3389830508474576,0.0060716454159077,0.931254442913399,0.1380617895446369,0.3697580987869876,0.8127336697748374,0.3430482587032631,0.6479947147179047,0.6697987241870447,0.5244310351469603,0.3346499954218813,0.7626172814783397,0.6609298179880607,0.1812355237608792,0.0347899823074648,0.7081544861224864,0.7572413862910488,0.8775100077365467,2
319525029,0.7237404742294681,0.9036593924370364,0.4293948319581204,0.5317460317460245,0.5884303314634303,0.6481494255293743,0.421217974891537,0.601093978720934,0.2870902185384249,0.7728886445540758,0.9482335759406398,0.6160470285444164,0.5085929960271328,0.8529141758706191,0.2463772121082238,0.1847176079754717,0.3238231099676341,0.4318191212334146,0.2546217024374211,0.0376811594202898,0.0054127200748552,0.1600000000000001,0.3389830508474576,0.0060716454159077,0.931254442913399,0.136176718132375,0.3655518411602116,0.8124481020366596,0.3249272653052169,0.6285341532538928,0.6792148901105487,0.5383658097564434,0.2990821426510016,0.5934911124054248,0.6541403916337115,0.1807027830610735,0.0352059516099535,0.6723891024707636,0.7558620732588139,0.8674698670521093,2
319725029,0.73110135527849,0.9110587782895968,0.4289762301515315,0.5393650793648703,0.590713586123877,0.6130285901568536,0.4220912312531902,0.6014597783727452,0.2760091690683511,0.7706649309688197,0.948308407669348,0.6223946548706751,0.5331450487266767,0.8529141758706191,0.2484807351340953,0.1847176079754717,0.3238231099676341,0.4318191212334146,0.2546217024374211,0.0376811594202898,0.0054127200748552,0.1600000000000001,0.3389830508474576,0.0060716454159077,0.931254442913399,0.1347944302745723,0.3616542463264785,0.8134667891827612,0.3284017764616946,0.6262376573729612,0.6727105920146592,0.5365770005388698,0.3855918091237993,0.4126580490770335,0.6929147079987208,0.1804087680251859,0.0359020905132611,0.6695278740982389,0.7558620732588139,0.8684738466313885,2
319925029,0.6954404705093625,0.9064683296351156,0.4304616202251469,0.5473015873017175,0.5922097507268185,0.6318583512237134,0.4214463919594537,0.6026791121612296,0.2291146861950178,0.7793126494307364,0.9482053222170076,0.640204897314669,0.5975612853098174,0.8529141758706191,0.2663727436346843,0.1847176079754717,0.3238231099676341,0.4318191212334146,0.2546217024374211,0.0376811594202898,0.0054127200748552,0.1600000000000001,0.3389830508474576,0.0060716454159077,0.931254442913399,0.1347729286506773,0.3592622944295475,0.8134856200702179,0.3490630422478418,0.631553641993229,0.6565152148554332,0.5252905192660162,0.4025325363260232,0.4463288584417832,0.6124159073175788,0.1800721395747688,0.0365556689443433,0.6552217225705608,0.7765517307253558,0.8564256684039278,2
320125029,0.7099811234639064,0.8879513924829543,0.4306744655723707,0.5711111111108949,0.542252902179207,0.3801336188623098,0.4220132096529865,0.6015751814153947,0.2579531467799681,0.7564250898288658,0.9479161085870872,0.5729796900602132,0.4703434615757376,0.8529141758706191,0.2336637271135968,0.1847176079754717,0.3238231099676341,0.4318191212334146,0.2546217024374211,0.0376811594202898,0.0054127200748552,0.1600000000000001,0.3389830508474576,0.0060716454159077,0.931254442913399,0.1359881692235265,0.3584049494376101,0.8145867368917844,0.3727640270302434,0.6518460661204488,0.693611484004833,0.5688627168567715,0.4525706025128514,0.6989213002474584,0.6548635844593302,0.1801934081814351,0.0371136033259726,0.6609441793156101,0.7475862140738951,0.8624497716268618,2
320325029,0.7599503825908656,0.9124110346205192,0.429494083834455,0.3885714285715949,0.6135778288293157,0.6439915432172003,0.4222330251481834,0.6011682617799312,0.2882153725508707,0.7594823119225454,0.948065427581297,0.6201649935344933,0.5491985607372095,0.8529141758706191,0.2368499015155316,0.1893687707488425,0.3095577745698392,0.4275616913983384,0.2458547888455509,0.0376811594202898,0.0054127200748552,0.1600000000000001,0.4406779661016949,0.0047055251973284,0.931254442913399,0.1373350764246085,0.3596664095271727,0.8169761462198422,0.3742668305653261,0.6711099163028832,0.6810762664436589,0.5589074228249961,0.2714139076451453,0.6009853078758965,0.6696202601483003,0.1807319757326447,0.0376530577149217,0.6723891024707636,0.7489655223540075,0.8644578028991279,2
320525029,0.7532031509694876,0.8982013104918445,0.4317703093440455,0.4444444444443434,0.609926296559819,0.4116383778522711,0.4213606707581188,0.6027508770271931,0.2751826773676009,0.7774095234342936,0.94868308107251,0.6456400373034614,0.4411695383068129,0.8529141758706191,0.2523635653782002,0.1893687707488425,0.3095577745698392,0.4275616913983384,0.2458547888455509,0.0376811594202898,0.0054127200748552,0.1600000000000001,0.4406779661016949,0.0047055251973284,0.931254442913399,0.1380786039131407,0.3616771032494877,0.8179855378547428,0.3758039287523908,0.6753260863130475,0.6673775596325883,0.5468800237148308,0.5058556552695125,0.3557472484422155,0.5682587410478332,0.1796330666065574,0.0382096363590967,0.6795421758183389,0.759999998099151,0.865461813832193,2
320725029,0.7116342904138478,0.9074372560337636,0.4342765886250636,0.5314285714284779,0.6189475766878554,0.5361831228581041,0.4225062474113519,0.6033178752127124,0.2942460639128125,0.8127067646353268,0.9479947081240082,0.7161728530108386,0.4265991997846001,0.8529141758706191,0.2577149752926817,0.1893687707488425,0.3095577745698392,0.4275616913983384,0.2458547888455509,0.0376811594202898,0.0054127200748552,0.1600000000000001,0.4406779661016949,0.0047055251973284,0.931254442913399,0.1388554236772789,0.3617870941376168,0.8171096177970473,0.3869529967864371,0.6519218388840872,0.6588844469622346,0.5373254023008611,0.4903856498352869,0.3860015244771102,0.6081974677937563,0.178889683037947,0.038437803744705,0.7052932553336981,0.7917241455672035,0.8604417278130813,2
320925029,0.675235576690378,0.9009156388372864,0.4347378131145348,0.3409523809523307,0.5191152752336226,0.5883695656019229,0.4220414413747407,0.6024486090346692,0.2825215895018662,0.7928917113430703,0.948322341012509,0.5924909596485914,0.4670403357340408,0.8529141758706191,0.2527797245877554,0.1893687707488425,0.3095577745698392,0.4275616913983384,0.2458547888455509,0.0376811594202898,0.0054127200748552,0.1600000000000001,0.4406779661016949,0.0047055251973284,0.931254442913399,0.1399037793948169,0.357063720431005,0.8158793568402535,0.3965740441408913,0.6141895996456858,0.6713630984999543,0.5489965216350993,0.3777416634537368,0.3584354208510004,0.6902471610877474,0.1797365041717088,0.0400235323742599,0.6909870989734924,0.7724138011328964,0.8624497716268618,2
321125029,0.7410069645977946,0.9142370084838216,0.4360832125455597,0.4682539682539754,0.5810537638596605,0.6169613122240467,0.4213981706710811,0.602738974384277,0.3061017063481579,0.7619400243291005,0.948632386925642,0.5989211658087277,0.5119987932891276,0.8529141758706191,0.2436103168323637,0.1893687707488425,0.3095577745698392,0.4275616913983384,0.2458547888455509,0.0376811594202898,0.0054127200748552,0.1600000000000001,0.4406779661016949,0.0047055251973284,0.931254442913399,0.1409258969240703,0.3504009006759655,0.8160070519141616,0.3914973723663854,0.6036428491196276,0.6776989696283817,0.555372184885835,0.4044298708900531,0.3903506266855563,0.6597899665997863,0.1797021126051505,0.0425722703691038,0.6967095605510691,0.742068971449201,0.8644578028991279,2
321325029,0.7344785391905131,0.9052634926173612,0.4399016807115412,0.4285714285711037,0.5975674700529546,0.4505326346066854,0.4214024310517103,0.6038687317566472,0.3040763013518049,0.7722575120884076,0.9490916628144036,0.6251429025080317,0.431968312016795,0.8529141758706191,0.2379887382847806,0.2006644518114626,0.3052781741134822,0.4278510312900425,0.2405183685421794,0.0376811594202898,0.0054127200748552,0.1600000000000001,0.288135593220339,0.0127504553734061,0.931254442913399,0.1411253489226559,0.3459251100553189,0.8163702016846581,0.3768957293822622,0.6071358653665125,0.6800612870183637,0.5570648133348338,0.4936699008668689,0.3565420698745029,0.5729788567822153,0.178833546654996,0.0470656846242539,0.7052932553336981,0.7503448306341198,0.8684738466313885,2
321525029,0.7086390053477518,0.9037247915783808,0.4441698315852911,0.4996825396824533,0.6008947346833956,0.6351035711562755,0.4205367678873269,0.6044073996646169,0.2773187176008393,0.7860850580871296,0.949173844381629,0.65057364353858,0.5020276544317567,0.8529141758706191,0.2496742914736823,0.2006644518114626,0.3052781741134822,0.4278510312900425,0.2405183685421794,0.0376811594202898,0.0054127200748552,0.1600000000000001,0.288135593220339,0.0127504553734061,0.931254442913399,0.1408045706828854,0.3438260556904711,0.815670853894523,0.3673328583329142,0.609824422732574,0.6714293083653016,0.5461131432614591,0.1464702635500232,0.5624679539460677,0.612522770650066,0.1785963981839395,0.049348891754839,0.6924177155760185,0.7710344928527841,0.8624497716268618,2
321725029,0.7420016328463729,0.9000553436964155,0.4476797693105758,0.4365079365074962,0.5717773940072489,0.5285182147939814,0.4204206950360901,0.604827227766008,0.2816987613785264,0.775980144947041,0.9494358763812664,0.6147256758040522,0.4625500442403658,0.8529141758706191,0.2549428487774848,0.2006644518114626,0.3052781741134822,0.4278510312900425,0.2405183685421794,0.0376811594202898,0.0054127200748552,0.1600000000000001,0.288135593220339,0.0127504553734061,0.931254442913399,0.1406893355532855,0.3428419265040677,0.8144737880897069,0.3786629410418765,0.6068880603022673,0.6668499521175563,0.5402358740990008,0.6908552763464657,0.5648561223408481,0.6568260422228225,0.1783036098536106,0.049706273831625,0.6981401819861227,0.7544827649787016,0.8644578028991279,2
321925029,0.7394415921412169,0.8993429013765739,0.4521452474198922,0.3726984126983552,0.5840521857623752,0.5401698041344065,0.4211855635296767,0.6051583034990534,0.2909823416239334,0.7752992476449861,0.9495553219007016,0.6211045059154643,0.4925615734282388,0.8529141758706191,0.2405259834985462,0.2006644518114626,0.3052781741134822,0.4278510312900425,0.2405183685421794,0.0376811594202898,0.0054127200748552,0.1600000000000001,0.288135593220339,0.0127504553734061,0.931254442913399,0.1411418877408738,0.3415007658439698,0.8137942286730501,0.3724769385558433,0.6091033428828815,0.6813135113317772,0.5555155448970682,0.2938490368247616,0.6511259197870546,0.5944418874994082,0.1779843597319426,0.049766539589414,0.7024320269611735,0.7517241436663545,0.8674698670521093,2
322125029,0.7151945515252633,0.8960175085833346,0.4558121384837155,0.4917460317460609,0.5695361820079631,0.4998989223335651,0.4220817922686145,0.6048959848576161,0.2988563456748468,0.7755719867134225,0.9494417303205804,0.5881048523221845,0.4446964191567421,0.8529141758706191,0.2369477216567552,0.2006644518114626,0.3052781741134822,0.4278510312900425,0.2405183685421794,0.0376811594202898,0.0054127200748552,0.1600000000000001,0.288135593220339,0.0127504553734061,0.931254442913399,0.1412401344702102,0.3406616045826219,0.8142863389783616,0.3696336173316468,0.6091972121927063,0.6797382925900823,0.554094062186608,0.4422369877860743,0.4838082466699775,0.6202502054984265,0.17809074723189,0.0465800723799175,0.7081544861224864,0.7517241436663545,0.8664658247652581,2
322325029,0.7737352060798527,0.9038984272189464,0.4575053253058486,0.5631746031745024,0.5740580283105182,0.5943282586070259,0.4219086217474921,0.6046191290440732,0.3275269527088421,0.7503827820458668,0.9488128004973398,0.5529435690436707,0.4856322776888606,0.8529141758706191,0.2372257707686521,0.2066445182717871,0.2995720400940627,0.4274790228578513,0.2321326632234931,0.0376811594202898,0.0054127200748552,0.0666666666666666,0.2203389830508474,0.0031876141469338,0.931254442913399,0.1407323794084861,0.3408459279927117,0.8136606652956387,0.3472816935492775,0.6172595317421593,0.6804672533819788,0.5532785655809754,0.3479795312001875,0.3588086106517319,0.6111388632243144,0.1786358864200217,0.0439202123330177,0.7110157169112749,0.7186206974224345,0.872489937394328,2
322525029,0.7357692478466389,0.8999644281370143,0.4613408380771965,0.4996825396824533,0.6168851764966417,0.5692954352488526,0.4215430659597136,0.6045105001588154,0.292555654942745,0.770266519913741,0.9493196219844524,0.6125545572919144,0.4861877585618326,0.8529141758706191,0.2434799796301726,0.2066445182717871,0.2995720400940627,0.4274790228578513,0.2321326632234931,0.0376811594202898,0.0054127200748552,0.0666666666666666,0.2203389830508474,0.0031876141469338,0.931254442913399,0.1395864875912965,0.3421677551346275,0.8131097268517439,0.3263009121994032,0.6356664007648337,0.6756629702520751,0.546818580152517,0.3812566922746447,0.6191231091863387,0.6067806467452247,0.1784530050663026,0.0414818378228444,0.7067238690367077,0.7489655223540075,0.8644578028991279,2
322725029,0.7390567492116776,0.9048208544502924,0.4644999726555088,0.4523809523807358,0.5856020884138309,0.5805791468897643,0.4215712121135309,0.6042442527484579,0.2879424681516141,0.77115663811818,0.9492527012983614,0.624378718973158,0.5165894309034775,0.8529141758706191,0.2565102706307035,0.2066445182717871,0.2995720400940627,0.4274790228578513,0.2321326632234931,0.0376811594202898,0.0054127200748552,0.0666666666666666,0.2203389830508474,0.0031876141469338,0.931254442913399,0.1384919003368285,0.3436377774382285,0.8120587625557264,0.3215311770399969,0.6391053306295322,0.6608041449600072,0.5318094724675029,0.4013511739997592,0.2815999493076523,0.576497651611072,0.1785556978459364,0.0401980835714979,0.7110157169112749,0.7475862140738951,0.8634537825599269,2
322925029,0.7403315054147538,0.894721695460388,0.4693909329625712,0.3968253968250792,0.5885734266762322,0.482672639806915,0.4208211697425583,0.604724425383208,0.284242521788601,0.7743435689452601,0.9493776504883452,0.6197922032222996,0.4643345012358754,0.8529141758706191,0.25038627794013,0.2066445182717871,0.2995720400940627,0.4274790228578513,0.2321326632234931,0.0376811594202898,0.0054127200748552,0.0666666666666666,0.2203389830508474,0.0031876141469338,0.931254442913399,0.138329032714634,0.3443528620235097,0.8119313616373176,0.3266002349800287,0.6445568965479381,0.6779292743931775,0.5526456889618939,0.5135783263579361,0.507191402063583,0.6622293488936699,0.178319352574948,0.0388866980996547,0.7081544861224864,0.7489655223540075,0.8634537825599269,2
323125029,0.7535332403440258,0.9003849065446657,0.4735766531760297,0.4126984126983188,0.6153418546595697,0.5669937203141201,0.420364958756681,0.6049304397490223,0.2874909217108745,0.7846130232246348,0.9493848222897,0.6701570201014904,0.4704251353805623,0.8529141758706191,0.2481767449921709,0.2066445182717871,0.2995720400940627,0.4274790228578513,0.2321326632234931,0.0376811594202898,0.0054127200748552,0.0666666666666666,0.2203389830508474,0.0031876141469338,0.931254442913399,0.1386781085185107,0.3439621065321847,0.8126120196951518,0.3291452485798039,0.6438289080618954,0.6783567025113363,0.5549942116182635,0.3368836785135181,0.806738281728822,0.6293311586804936,0.1781636485908108,0.0374433057630672,0.7138769452837995,0.7572413862910488,0.8634537825599269,2
323325029,0.6843388752240563,0.8969251020959451,0.4783370796551871,0.5238095238091773,0.5493436462706619,0.5621031744231864,0.4212169820749781,0.6050988169448417,0.2729343200142936,0.7934836834185366,0.9491793848207222,0.6104051361531134,0.4862085670257824,0.8529141758706191,0.2421704215668855,0.208637873729458,0.2881597718223929,0.4242549497788617,0.2246998451782118,0.0376811594202898,0.0054127200748552,0.0666666666666666,0.3728813559322034,0.0030358230115361,0.931254442913399,0.1397039996364175,0.3416622002936251,0.812761453650145,0.3448466068652794,0.620281317709988,0.673145157286164,0.5497308004831609,0.5096253735928002,0.3848183144545706,0.5889358996623113,0.1780594808437793,0.0352457844675387,0.7095850954762213,0.7668965585082023,0.8594377168800161,2
323525029,0.7535347923881038,0.9012734765698204,0.4821426657035259,0.5234920634920854,0.5585097894285456,0.5500744106030389,0.4196100999426031,0.6047807417771806,0.3078820600483032,0.7555377689778496,0.9491470168904844,0.5611223833880806,0.4815342186097009,0.8529141758706191,0.2334624656022479,0.208637873729458,0.2881597718223929,0.4242549497788617,0.2246998451782118,0.0376811594202898,0.0054127200748552,0.0666666666666666,0.3728813559322034,0.0030358230115361,0.931254442913399,0.141003204732201,0.3383060585917803,0.8125699564458363,0.3475672814169939,0.6156304998438659,0.6748839576122465,0.5510493645638634,0.5283058690173541,0.2500840512813811,0.715439594479132,0.1784474848912883,0.0346671105308052,0.7181687926751139,0.7200000033264856,0.8664658247652581,2
323725029,0.742851096971154,0.8997477710793682,0.4877408766081019,0.3488888888887231,0.6099945249387019,0.5543016021415555,0.4204403150276977,0.6051685095730343,0.2949546461927953,0.7664980656285085,0.9494980171565784,0.6190466649141173,0.4821252479020997,0.8529141758706191,0.237791672523234,0.208637873729458,0.2881597718223929,0.4242549497788617,0.2246998451782118,0.0376811594202898,0.0054127200748552,0.0666666666666666,0.3728813559322034,0.0030358230115361,0.931254442913399,0.1416819517987623,0.3367804079269817,0.8117069407332538,0.3334571284006083,0.6294915452193358,0.6771082798403733,0.5507327459558721,0.3861082539849178,0.5197867261637052,0.6561065451084583,0.178033281917917,0.0336478219214321,0.7181687926751139,0.7379310394806804,0.8614457606937966,2
323925029,0.7306613907834982,0.8985801576137713,0.4928523966403523,0.4444444444443434,0.5890231025509997,0.5481284262517822,0.4212107173095917,0.6052946009999762,0.2898940585694082,0.7737784691552642,0.9495987532924464,0.6187661970796406,0.4806929349497532,0.8529141758706191,0.2556294186826303,0.208637873729458,0.2881597718223929,0.4242549497788617,0.2246998451782118,0.0376811594202898,0.0054127200748552,0.0666666666666666,0.3728813559322034,0.0030358230115361,0.931254442913399,0.1417460709000469,0.3364115161984853,0.8108103666162647,0.3298131932030977,0.636783244799482,0.6712049326487085,0.542984821632969,0.5151698054884254,0.5776332810746402,0.5209810952237228,0.1778214707581039,0.0335457865382664,0.7195994020288488,0.742068971449201,0.8574296950138858,2
324125029,0.7238945586054645,0.898724522997253,0.4972519004361924,0.4996825396824533,0.5876382255413377,0.4691708305461001,0.4210163644612824,0.6051528914441497,0.3116936254772245,0.7808250778131265,0.94945187263329,0.6276712805221791,0.4231103707921412,0.8529141758706191,0.2287204211069667,0.208637873729458,0.2881597718223929,0.4242549497788617,0.2246998451782118,0.0376811594202898,0.0054127200748552,0.0666666666666666,0.3728813559322034,0.0030358230115361,0.931254442913399,0.1419033492022298,0.3361325663374401,0.8096788481328657,0.3250483447881432,0.6299176774448492,0.6847892103849671,0.554217680640983,0.4797574325341343,0.4019268065653159,0.6898455303540585,0.1779585697079333,0.0331782364305731,0.7324749451692976,0.7462068962895381,0.858433705946951,2
324325029,0.718524246088589,0.8964068301270623,0.5006661083901398,0.4444444444443434,0.584182199744166,0.6456396983434491,0.4211847416737617,0.6043457293838184,0.2900276204779301,0.7762520367866839,0.9492885003143526,0.6169117820938327,0.5118210813411364,0.8529141758706191,0.231241986050638,0.2099667773873079,0.2796005706768483,0.4225602446988798,0.2241280708854515,0.0376811594202898,0.0054127200748552,0.0666666666666666,0.0847457627118644,0.0238312082574377,0.931254442913399,0.1419969173777631,0.3350891579472542,0.808051399271059,0.3215059120989538,0.6261779833667508,0.6785891823838898,0.5449596604290067,0.5193958325840257,0.6012154714978357,0.5925432883066908,0.1784577512485241,0.0324516418537392,0.7181687926751139,0.7448275899102746,0.8574296950138858,2
324525029,0.7027310775626028,0.8928249411458586,0.5041446971470571,0.5158730158727849,0.5797904689507257,0.562636914817199,0.4211251403281427,0.6040185145569357,0.2662227482959114,0.771199715976716,0.9490965936697334,0.6147758785215605,0.5103114066798272,0.8529141758706191,0.2521047064424824,0.2099667773873079,0.2796005706768483,0.4225602446988798,0.2241280708854515,0.0376811594202898,0.0054127200748552,0.0666666666666666,0.0847457627118644,0.0238312082574377,0.931254442913399,0.1421579025564249,0.3338938416137761,0.8062793502780193,0.3259176568983842,0.6271544397988923,0.6757273368497039,0.5398174090982533,0.4309256958162624,0.5075436233247015,0.6338707955177393,0.178716702950524,0.0321403871298617,0.7124463286812734,0.7434482797293134,0.8534136356047323,2
324725029,0.7026255545657497,0.8955936904698649,0.5075056193010907,0.5393650793648703,0.5883141730243168,0.5179747198407854,0.4202837534398594,0.6038631524685201,0.2868217946759691,0.773886924897407,0.949142302776048,0.6161897291069899,0.4715107385537996,0.8529141758706191,0.2488439767940609,0.2099667773873079,0.2796005706768483,0.4225602446988798,0.2241280708854515,0.0376811594202898,0.0054127200748552,0.0666666666666666,0.0847457627118644,0.0238312082574377,0.931254442913399,0.1429583964409233,0.3328839685763834,0.8043664452202208,0.3336310471305517,0.6355425694520593,0.6690126936488844,0.5311703891129389,0.4590928635941682,0.7777049504075739,0.6605758609300479,0.1788317065966579,0.0433811130181638,0.7224606400664284,0.742068971449201,0.8554216574708625,2
324925029,0.6857324668020572,0.8881036046009182,0.5101454853974319,0.3171428571426986,0.5879482972136182,0.4715620948042142,0.4216859510543237,0.6032556087091168,0.2989131197929511,0.7783510157855864,0.9489171109227662,0.6162520178386172,0.4263328367823081,0.8529141758706191,0.2329887358641558,0.2099667773873079,0.2796005706768483,0.4225602446988798,0.2241280708854515,0.0376811594202898,0.0054127200748552,0.0666666666666666,0.0847457627118644,0.0238312082574377,0.931254442913399,0.1438908005981179,0.3312068990729836,0.8034787076134017,0.3349632569897446,0.6269318621277145,0.6758614354835972,0.5399419737928365,0.4368998740603099,0.3550836896456258,0.5796948372582198,0.1791264080035131,0.0662315351988421,0.7267524782759406,0.7434482797293134,0.8524096089947741,2
325125029,0.6880596208932335,0.8961857895541655,0.5102622435504011,0.5238095238091773,0.5801961923201099,0.5064139420287199,0.4235718713610796,0.6019954215406701,0.3379533084195585,0.7827082794111296,0.9482338971816072,0.6174197693779655,0.3880693777715264,0.8529141758706191,0.2352606671425076,0.2099667773873079,0.2796005706768483,0.4225602446988798,0.2241280708854515,0.0376811594202898,0.0054127200748552,0.0666666666666666,0.0847457627118644,0.0238312082574377,0.931254442913399,0.1442137049258845,0.3269652529063533,0.8043515202834727,0.322251014308902,0.6201879643744537,0.6826288708051736,0.5509902181817087,0.3455181642544933,0.8150760374658865,0.6322539568684618,0.1799018757639401,0.0890541647617077,0.7453504791279442,0.7406896612682398,0.8594377168800161,2
325325029,0.7016388065421058,0.897753174766975,0.5099282765120932,0.4603174603171283,0.5838643443122655,0.6731483108539785,0.4220954412924571,0.6008872833038755,0.3090189682450173,0.7744673939613732,0.9481416429683884,0.6151613217404917,0.5005288185585868,0.8529141758706191,0.2400764869051456,0.2066445182717871,0.2738944366574287,0.4246682924812961,0.2530969836957324,0.0376811594202898,0.0054127200748552,0.0666666666666666,0.8135593220338984,0.0320279310868245,0.931254442913399,0.143639672769057,0.3210405149123321,0.8050366706288161,0.307412441095245,0.6020049620597735,0.6798594971644475,0.5509833819679643,0.4422745643020973,0.6212222641035188,0.5910661087000408,0.18068756607069,0.1121680842004632,0.7238912518364269,0.7365517288245069,0.8554216574708625,2
325525029,0.7000166804737255,0.8998764914305183,0.5096590923775373,0.4679365079364288,0.5866398936096499,0.5925353031093715,0.4204846003121994,0.6003072045718649,0.2831653307932315,0.7710849797619147,0.9479939998457309,0.60988813357808,0.498411211699403,0.8529141758706191,0.2727833383117518,0.2066445182717871,0.2738944366574287,0.4246682924812961,0.2530969836957324,0.0376811594202898,0.0054127200748552,0.0666666666666666,0.8135593220338984,0.0320279310868245,0.931254442913399,0.1426018691772076,0.3156345681995122,0.8064310160638318,0.3015769776212028,0.5955690508758228,0.6917182326211948,0.5669317128789353,0.4890795698953842,0.354341961925702,0.7032401595663095,0.181136175214257,0.1345647701067122,0.7210300186313748,0.7365517288245069,0.8544176465377974,2
325725029,0.6792404904299282,0.8989984563729555,0.509824288782105,0.4444444444443434,0.569095819290104,0.5177807933803107,0.4213905077134997,0.6000671643042181,0.2917047454585466,0.769962068788092,0.9479142062987082,0.5912407952115913,0.4730236433882085,0.8529141758706191,0.25290737220674,0.2066445182717871,0.2738944366574287,0.4246682924812961,0.2530969836957324,0.0376811594202898,0.0054127200748552,0.0666666666666666,0.8135593220338984,0.0320279310868245,0.931254442913399,0.1416583762963991,0.3121155532116501,0.8096051226963059,0.2981815565904825,0.6069191073665321,0.7040429207506669,0.5831601274473157,0.2731481895332235,0.811178371164875,0.512338253469805,0.1811724652537037,0.1546835104348772,0.7224606400664284,0.7365517288245069,0.8564256684039278,2
325925029,0.702703108768289,0.8937458910599103,0.5104340597252487,0.4920634920631528,0.5923208135123529,0.5240158085849741,0.4202340438788672,0.6000715850781296,0.2963924182807045,0.7655533215959738,0.9478725107692986,0.6158761754199263,0.4714379795806972,0.8529141758706191,0.2460767049765519,0.2066445182717871,0.2738944366574287,0.4246682924812961,0.2530969836957324,0.0376811594202898,0.0054127200748552,0.0666666666666666,0.8135593220338984,0.0320279310868245,0.931254442913399,0.1407450663237588,0.3105309273426367,0.8121535082653055,0.2959451542187112,0.6099322264302194,0.7007317689882291,0.5809774430094947,0.3837736959066344,0.378435766651262,0.6929350737008939,0.1813147046839699,0.1701756514427411,0.7153075618863255,0.7324137992320474,0.8574296950138858,2
326125029,0.6858897992702994,0.9011590692436052,0.5099509877599602,0.4285714285711037,0.5558265003361254,0.6313805005312857,0.4215395383997961,0.5999282880185137,0.2938305916514134,0.7600413606229903,0.9477049139381224,0.5557797416458355,0.5295998867778767,0.8529141758706191,0.2538060560914729,0.2066445182717871,0.2738944366574287,0.4246682924812961,0.2530969836957324,0.0376811594202898,0.0054127200748552,0.0666666666666666,0.8135593220338984,0.0320279310868245,0.931254442913399,0.1393056467398182,0.3099539781675342,0.8138548849189654,0.2925052517399983,0.6238878526669187,0.6918470008152064,0.5706876599799199,0.5980777270013373,0.4883335789203351,0.5102310736760192,0.1813665475974651,0.1775275090023793,0.7110157169112749,0.7268965566073533,0.8614457606937966,2
326325029,0.7045849702131541,0.8936737204773275,0.5079167301190389,0.3568253968255703,0.5307111087944758,0.5772477827325975,0.423146033846472,0.5991382079836911,0.2925828682060244,0.7174926801459006,0.9453853296723912,0.4687351012530037,0.5527060367565655,0.8529141758706191,0.2312234682702607,0.2053156146139372,0.2553495008032769,0.4230149216715579,0.2437583148696097,0.0376811594202898,0.0054127200748552,0.0666666666666666,0.1694915254237288,0.005616272465088,0.931254442913399,0.1376439276877897,0.3121447571045589,0.8140266993693879,0.272859485909684,0.6640556996943334,0.7048372421048098,0.5805304472919507,0.2497127851996928,0.666718843249797,0.7359040614000869,0.181349797225133,0.174955465235107,0.6981401819861227,0.6896551769692759,0.8624497716268618,2
326525029,0.7541351774390392,0.8965036791739578,0.5043648398788416,0.4365079365074962,0.651603092562361,0.464484153312713,0.4212584041013231,0.5971578176075272,0.3123527860054087,0.7304050329793499,0.9454782824879548,0.595604753858718,0.4833310347730692,0.8529141758706191,0.2439510735767223,0.2053156146139372,0.2553495008032769,0.4230149216715579,0.2437583148696097,0.0376811594202898,0.0054127200748552,0.0666666666666666,0.1694915254237288,0.005616272465088,0.931254442913399,0.1359835515808393,0.3187769284347854,0.8134121364729109,0.2471526761355945,0.715672270903402,0.7076313274584648,0.5779078699519232,0.1984249498151609,0.4354169519499276,0.5876077364145262,0.1828991847604008,0.1627890289012398,0.7138769452837995,0.7048275908606991,0.8624497716268618,2
326725029,0.7405803924831466,0.8972716904205564,0.5013222028326214,0.4285714285711037,0.6969153774682942,0.517543991001085,0.4211948797416711,0.5971409755253394,0.2655978006019197,0.802284047123102,0.9460460101013604,0.7708405645264439,0.4583244936565745,0.8529141758706191,0.2277104019253972,0.2053156146139372,0.2553495008032769,0.4230149216715579,0.2437583148696097,0.0376811594202898,0.0054127200748552,0.0666666666666666,0.1694915254237288,0.005616272465088,0.931254442913399,0.135432961502026,0.3248266778857458,0.8125412170587052,0.2523839556390913,0.7275789760740616,0.7076591372092609,0.5707014118439134,0.4130046739755207,0.5179810106859554,0.646538024520428,0.1834721730854439,0.143038726366006,0.7153075618863255,0.7737930999087639,0.8493975761955787,2
326925029,0.6356102913322739,0.8961055639595804,0.4971814881214937,0.5473015873017175,0.5495183224008037,0.5596924894961404,0.4226176365260284,0.5975113607606158,0.2428455228403759,0.8340225035657077,0.9443827946689644,0.7077271474685309,0.4741650800726036,0.8529141758706191,0.2567551840774952,0.2053156146139372,0.2553495008032769,0.4230149216715579,0.2437583148696097,0.0376811594202898,0.0054127200748552,0.0666666666666666,0.1694915254237288,0.005616272465088,0.931254442913399,0.1380987857961923,0.3208124974378959,0.8107618576105362,0.3033971535911708,0.6745377859800026,0.6924621803981175,0.5496429793269558,0.5025215992555135,0.5276046014707115,0.6709462817730037,0.1834607384371996,0.1250663282444705,0.7181687926751139,0.7986207012241324,0.8453815011095321,2
327125029,0.6778687714731099,0.8974545871452762,0.4913193501777698,0.4444444444443434,0.5177080399893633,0.5339866216146442,0.4229887340422301,0.595549824112663,0.2871202788130951,0.7856464119205224,0.9463022210598544,0.5983335388519816,0.4634298895640527,0.8529141758706191,0.2464142611168945,0.2053156146139372,0.2553495008032769,0.4230149216715579,0.2437583148696097,0.0376811594202898,0.0054127200748552,0.0666666666666666,0.1694915254237288,0.005616272465088,0.931254442913399,0.1431767569901863,0.3073006806187233,0.8111546933960965,0.3475511613330846,0.6220446282575388,0.7099927452508401,0.5696163854558364,0.4420290490086487,0.6208378791952651,0.5573445189876136,0.1840129749932071,0.1099024532375891,0.7195994020288488,0.7475862140738951,0.8534136356047323,2
327325029,0.7135326243265309,0.9049426967996124,0.4864857264636832,0.4047619047614716,0.5804738299761274,0.4858458847462198,0.4206682857317302,0.5957732549704331,0.3384318510097802,0.7728459121817969,0.9462648235797728,0.6010742619132383,0.3851887777113053,0.8529141758706191,0.2387186104795522,0.2059800664428621,0.2510699001140892,0.4260323233993304,0.2368972520585808,0.0376811594202898,0.0054127200748552,0.0666666666666666,0.576271186440678,0.0036429872495446,0.931254442913399,0.1464930887973942,0.2959257344291386,0.8135068584921142,0.3449285475047449,0.6049148413198633,0.7134438038848595,0.575475286908404,0.2955488527034041,0.8092786749647156,0.6104720442247215,0.1843180157754861,0.0936857512590726,0.7410586346361462,0.7310344861998127,0.8604417278130813,2
327525029,0.7277493080803495,0.9102396785047572,0.4829383337951949,0.4365079365074962,0.5959627676217253,0.6705474295859589,0.4202124176877325,0.5962405094445759,0.3200231941637021,0.770347766646227,0.9465454817499552,0.6047729399541798,0.4963545431671022,0.8529141758706191,0.2465501388604914,0.2059800664428621,0.2510699001140892,0.4260323233993304,0.2368972520585808,0.0376811594202898,0.0054127200748552,0.0666666666666666,0.576271186440678,0.0036429872495446,0.931254442913399,0.1474233668665926,0.289886882686339,0.8137411839474566,0.325343950374827,0.5952047136986693,0.7054969504729984,0.5653319086918327,0.4024789444471272,0.5996339068464299,0.6602577006773673,0.1840442267776803,0.0815732861876709,0.7296137163135201,0.7310344861998127,0.8594377168800161,2
327725029,0.7103229731724381,0.898505153488181,0.4801545454041732,0.5631746031745024,0.5728119645381158,0.6400405558502736,0.4214891538663703,0.5965164781949327,0.260351563874213,0.7570901220770484,0.9464232340803954,0.5874278658250608,0.575897218428713,0.8529141758706191,0.2431083464706025,0.2059800664428621,0.2510699001140892,0.4260323233993304,0.2368972520585808,0.0376811594202898,0.0054127200748552,0.0666666666666666,0.576271186440678,0.0036429872495446,0.931254442913399,0.1469417716788613,0.2875492456161732,0.8129920547809932,0.318536394862348,0.6083698291828459,0.7083605459448918,0.5648295692936043,0.4393349103471805,0.674811958204713,0.6885945565802395,0.183440395570017,0.0735808749603507,0.7010014103586474,0.7296551750684269,0.8554216574708625,2
327925029,0.7444505503956312,0.8910071990882675,0.4783987351084132,0.4285714285711037,0.6267352993739835,0.4273190860469413,0.4208016985002573,0.5971061740491364,0.2704866625657772,0.7689906567788314,0.9468135283093904,0.6476160266388783,0.4668972995915492,0.8529141758706191,0.2531899129225921,0.2059800664428621,0.2510699001140892,0.4260323233993304,0.2368972520585808,0.0376811594202898,0.0054127200748552,0.0666666666666666,0.576271186440678,0.0036429872495446,0.931254442913399,0.1468322737962686,0.2893805813733299,0.8124094393433691,0.323317534022953,0.6347064700980122,0.7020611849982915,0.5559708626955571,0.2868626364394294,0.8627965509966355,0.5500746642218288,0.1831466726068813,0.0664858650893716,0.7110157169112749,0.7406896612682398,0.8534136356047323,2
328125029,0.7066626292186698,0.8964170502565422,0.4753469837778031,0.3647619047619628,0.5539900835771179,0.5404152378007047,0.4212771735075408,0.5973034922873224,0.2915658941983947,0.7750955105073687,0.9470283940072404,0.5866504613265334,0.4859826245663412,0.8529141758706191,0.2354270716554991,0.2059800664428621,0.2510699001140892,0.4260323233993304,0.2368972520585808,0.0376811594202898,0.0054127200748552,0.0666666666666666,0.576271186440678,0.0036429872495446,0.931254442913399,0.1480639110613987,0.2923402068988309,0.8122765866772315,0.3283338354525345,0.6419195111697069,0.7171637696132499,0.5699665203014899,0.094766483391769,0.7026738191173258,0.6106542733059227,0.1831262275142352,0.0588769016053691,0.7167381736563241,0.7406896612682398,0.8554216574708625,2
328325029,0.7513594186074886,0.9009974362005996,0.4719124027175724,0.4365079365074962,0.5679894430845343,0.5416150872473455,0.4209726603217714,0.5973982698990582,0.3224767954879667,0.7469152662859636,0.9464316579474482,0.5415086535796856,0.4685219110483392,0.8529141758706191,0.2354233062390101,0.2079734219005331,0.2510699001140892,0.427892365560286,0.234419646043487,0.0376811594202898,0.0054127200748552,0.0666666666666666,0.135593220338983,0.0255009122647237,0.931254442913399,0.1491251886370849,0.2931226604937241,0.8118706283976811,0.3236619550786194,0.6514242707500224,0.7143986476730276,0.5640727457860103,0.2772611418838429,0.6379704393795836,0.6666573062138987,0.1833268522876434,0.0535390404532527,0.7210300186313748,0.7075862097969849,0.8664658247652581,2
