timestamp,rollspeed_integ,pitchspeed_integ,yawspeed_integ,baro_pressure_pa,xyz[0],xyz[1],xyz[2],q[0],q[1],q[2],q[3],roll_body,pitch_body,yaw_body,thrust_body[2],lat,lon,alt,eph,hdop,vdop,noise_per_ms,jamming_indicator,vel_m_s,cog_rad,x,y,z,vx,vy,vz,z_deriv,ax,ay,az,heading,evh,magnetometer_ga[0],magnetometer_ga[1],magnetometer_ga[2],class
615291088,0.0,0.7265494890879775,0.9988100768573083,0.6626984126983189,0.5846467617021684,0.5496179705941784,0.42117720140845855,0.6314421989883585,0.2736081322594492,0.7734343498964309,0.9574337914577217,0.6176203137442304,0.4769187470988977,0.7399689525947801,1.0,0.1627906976500526,0.3958630529232323,0.16389038151531432,0.13417191402973944,0.017391304347826125,0.007104195098247473,0.09333333333333349,0.27118644067796616,0.006678810109289616,0.1929657042496679,0.03398991536693213,0.2999358079163946,0.2797631190111758,0.33451203936750856,0.6347919647350279,0.6151048267820572,0.5440114957214727,0.43320906764056843,0.5175343001993106,0.6327419317445981,0.16099245783745098,0.03877696406451642,0.6859799481134424,0.7620689747756867,0.9487951570942252,0
615491088,0.0,0.7265494890879775,0.9988100768573083,0.6904761904761472,0.5849154851093823,0.5480294293316182,0.4198888432421997,0.6316890740051446,0.27440738683988203,0.7733499202837777,0.9575085322326616,0.6176203137442304,0.4769187470988977,0.7404053708754774,1.0,0.1627906976500526,0.3958630529232323,0.16389038151531432,0.13417191402973944,0.017391304347826125,0.007104195098247473,0.09333333333333349,0.27118644067796616,0.006678810109289616,0.1929657042496679,0.03365233948504355,0.30058443881316693,0.277063929722816,0.33430403278014087,0.6355487548768592,0.6130168748230099,0.5370261524682128,0.44932611214381024,0.5322677613536209,0.6328116676788094,0.16106490648360594,0.04268865397366095,0.6881258754334952,0.7613793206356305,0.9548192571817806,0
615691088,0.0,0.7265494890879775,0.9988100768573083,0.6587301587301226,0.585429688233952,0.5523067396569391,0.4209310490100571,0.6317097721461554,0.27471261544703196,0.77328324187892,0.9575158065989037,0.6176203137442304,0.4769187470988977,0.740044411487244,1.0,0.1627906976500526,0.3958630529232323,0.16389038151531432,0.13417191402973944,0.017391304347826125,0.007104195098247473,0.09333333333333349,0.27118644067796616,0.006678810109289616,0.1929657042496679,0.03320591205518045,0.3011097336916798,0.2751948084278748,0.3343239608547922,0.6357013300926004,0.6104915246809554,0.5329959159823215,0.46070419376437133,0.5090586812487087,0.6414414437754723,0.16094324357872447,0.0392279404448424,0.6838340256259171,0.759999998099151,0.9528112196387574,0
615891088,0.0,0.7265494890879775,0.9988100768573083,0.6984126984125396,0.5852103923196752,0.5491485047143121,0.420777651115178,0.6317975720122274,0.27501554708229137,0.77324509867719,0.9575423786454239,0.6176203137442304,0.4769187470988977,0.7395673573550416,1.0,0.16478405313682742,0.39942938671447337,0.16756913156698228,0.13379072481506338,0.017391304347826125,0.007104195098247473,0.09333333333333349,0.3220338983050848,0.0024286581663630845,0.1929657042496679,0.032843726438855254,0.3020440745835245,0.27398356886864295,0.3328093904086312,0.6360766124739136,0.6080085035876678,0.531161522347964,0.41591197348047476,0.5329084947992603,0.5759348800295401,0.16084658210142133,0.03696902361031307,0.6852646373959157,0.759999998099151,0.9548192571817806,0
616091088,0.0,0.7265494890879775,0.9988100768573083,0.6190476190472509,0.5857253138688626,0.5472771760428268,0.42067182286065635,0.631891074773592,0.27480439620349006,0.7732687220885751,0.9575683933582176,0.617584811800925,0.47669669444106966,0.7396374340155174,1.0,0.16478405313682742,0.39942938671447337,0.16756913156698228,0.13379072481506338,0.017391304347826125,0.007104195098247473,0.09333333333333349,0.3220338983050848,0.0024286581663630845,0.1929657042496679,0.03273260338968109,0.30250007607108625,0.2728901297030306,0.3343515971940214,0.6356797661940451,0.60936609929832,0.5336881794252285,0.45497750723530617,0.4978577536547557,0.6353055353563857,0.16074973077682952,0.035750005822408226,0.6881258754334952,0.759999998099151,0.9518072087056922,0
616291088,0.0,0.7265494890879775,0.9988100768573083,0.7380952380949566,0.5831364166474765,0.5390730987153518,0.4201349059174349,0.631999226195878,0.2760060082007953,0.7731927184002405,0.9576044903929376,0.6197362043489545,0.47495603810550924,0.7399995236724686,0.9327513384576348,0.16478405313682742,0.39942938671447337,0.16756913156698228,0.13379072481506338,0.017391304347826125,0.007104195098247473,0.09333333333333349,0.3220338983050848,0.0024286581663630845,0.1929657042496679,0.032713861909492895,0.30299980152459133,0.2718755992307813,0.33295746071431637,0.636758028360274,0.608196567189457,0.5336141288030558,0.41873206023436366,0.5510098723628712,0.5718522051692434,0.16068116669827726,0.03976243993619066,0.6881258754334952,0.7613793206356305,0.9467871164158234,0
616491088,0.0,0.7265494890879775,0.9988100768573083,0.6206349206349842,0.5846138265248435,0.550264018482132,0.420406916593121,0.6322963657028775,0.2780512685824623,0.7728700702237963,0.9576973445139871,0.621334305393581,0.4735993752703751,0.7399995236724686,0.8422168989094869,0.16478405313682742,0.39942938671447337,0.16756913156698228,0.13379072481506338,0.017391304347826125,0.007104195098247473,0.09333333333333349,0.3220338983050848,0.0024286581663630845,0.1929657042496679,0.03263826773408807,0.30318044703827035,0.27130788898792557,0.33377228965793426,0.6373955809742738,0.6076386437535819,0.5352025582075293,0.44389368719338823,0.5786426438865153,0.5976562199946742,0.16049516016611098,0.036877672729465405,0.6895564872034938,0.7586206945711611,0.9487951602296039,0
616691088,0.0,0.7265494890879775,0.9988100768573083,0.6587301587301226,0.5840515848537724,0.5455343024786566,0.419861736905649,0.6328100067953814,0.281116909186399,0.772528937771768,0.9578539862541029,0.620473170534139,0.47500218116390014,0.7399995236724686,0.7356655301025952,0.16478405313682742,0.39942938671447337,0.16756913156698228,0.13379072481506338,0.017391304347826125,0.007104195098247473,0.09333333333333349,0.3220338983050848,0.0024286581663630845,0.1929657042496679,0.03261817054649281,0.30291810395455315,0.2713303849739369,0.33391784634646365,0.6364815309904908,0.6030575544193812,0.5337441939152124,0.44914163718702926,0.6301213564200598,0.5851001527723542,0.16016232866147095,0.03706733071547974,0.6866952588309693,0.7586206945711611,0.949799171162669,0
616891088,0.0,0.7265494890879775,0.9988100768573083,0.7063492063489321,0.5835447123546077,0.5439243116187318,0.41926351409049384,0.6334300348784785,0.2848549767448638,0.7717009047234409,0.9580377051244283,0.6206380955356507,0.47744206908586745,0.7399995236724686,0.5987346129617147,0.16744186045252718,0.3980028531514108,0.16963584507915508,0.13340957371740292,0.017391304347826125,0.007104195098247473,0.09333333333333349,0.23728813559322035,0.007134183363691559,0.1929657042496679,0.03262361542014393,0.3025035040755806,0.2717263893472591,0.3337230493493333,0.6364206836885361,0.6089936275201746,0.5435078011280918,0.4995828462201906,0.5727498304253228,0.642879692429971,0.15971732661639215,0.04976887985049577,0.6909870989734924,0.7572413862910488,0.949799171162669,0
617091088,0.020585644632307557,0.7263749957073035,1.0000000000000002,0.6666666666665151,0.5798759907770141,0.518686762896831,0.42526323636282914,0.6330409049801368,0.29394936425262674,0.7700659758040237,0.9579217758389548,0.6234907373319353,0.48088016249014054,0.7399995236724686,0.4594171882978817,0.16744186045252718,0.3980028531514108,0.16963584507915508,0.13340957371740292,0.017391304347826125,0.007104195098247473,0.09333333333333349,0.23728813559322035,0.007134183363691559,0.1929657042496679,0.03254091059709596,0.3026450468439128,0.2728033044757575,0.3292486334242541,0.6370711872572278,0.5988083930102707,0.5372924410717881,0.3669952361659186,0.6065173751845803,0.5663068749299135,0.1601559614754755,0.05060975986677879,0.6924177155760185,0.7544827649787016,0.9528112196387574,0
617291088,0.1131971427988555,0.7471271724616819,0.988552645261857,0.5952380952380736,0.5742934198202757,0.49167867467313875,0.4396839360862519,0.624823711491164,0.32362612539218044,0.7649240258580784,0.9553413632596206,0.6333902518414033,0.4909597022027158,0.7399995236724686,0.32092102786617993,0.16744186045252718,0.3980028531514108,0.16963584507915508,0.13340957371740292,0.017391304347826125,0.007104195098247473,0.09333333333333349,0.23728813559322035,0.007134183363691559,0.1929657042496679,0.03202570407553283,0.30294360147334,0.2728983917215876,0.3162973102615631,0.6397463385376665,0.5715858450893543,0.5121794282245133,0.5269756145572828,0.635535459154127,0.5163429108957026,0.1664042592572218,0.10252322269316,0.7010014103586474,0.7489655223540075,0.9578312899809761,0
617491088,0.24143240068017932,0.7846894758967449,0.9523696160819684,0.642857142856883,0.5991918114272061,0.5614443072819283,0.44230581341771563,0.6097362669460069,0.33141814780787254,0.7661340150186724,0.9507265045416013,0.6335659407767281,0.5177254444812968,0.7399995236724686,0.30028311628665816,0.16744186045252718,0.3980028531514108,0.16963584507915508,0.13340957371740292,0.017391304347826125,0.007104195098247473,0.09333333333333349,0.23728813559322035,0.007134183363691559,0.1929657042496679,0.031050575411416533,0.3034732520177918,0.2671929595519802,0.2982769707405467,0.6341067208579217,0.47045444321576046,0.40665274330073564,0.5376285032847737,0.34110162907817043,0.5801203965837214,0.17626463536765802,0.1802096257391534,0.7067238690367077,0.759999998099151,0.9578312899809761,0
617691088,0.34644142293641145,0.814476275761568,0.9055771801103396,0.6587301587301226,0.5929535296017604,0.5903005125249331,0.43333485328282023,0.5975366735691306,0.30975767270638177,0.7701998852949846,0.9470668809973499,0.6452489528606064,0.5216157251275344,0.7399995236724686,0.33137078481123505,0.16744186045252718,0.3980028531514108,0.16963584507915508,0.13340957371740292,0.017391304347826125,0.007104195098247473,0.09333333333333349,0.23728813559322035,0.007134183363691559,0.1929657042496679,0.02972097943951202,0.3035433954684244,0.25540822159882737,0.2848616926782049,0.6357118708900314,0.40895474390431613,0.346769914222598,0.3020076853109331,0.7270515415759244,0.6676431805065394,0.1834727426273105,0.25145396789571745,0.6909870989734924,0.7765517307253558,0.9367469506483571,0
617891088,0.407816637992519,0.8323057033505217,0.8609764443407888,0.6984126984125396,0.5915556735937146,0.5634223578395166,0.42658798789353575,0.5913568679015384,0.29719951863944516,0.771085604542347,0.9451027672786436,0.6412157407258636,0.5180035990152438,0.7399995236724686,0.29583162746518454,0.17076411959715188,0.3980028531514108,0.16913983383623354,0.13302840356123463,0.017391304347826125,0.007104195098247473,0.09333333333333349,0.4576271186440678,0.008196721766848814,0.1929657042496679,0.029095287985226478,0.30279631190287315,0.24524608683853333,0.2920164427232921,0.6302449936592821,0.4028692538630639,0.3526743399541965,0.32504779366775355,0.5301701109725591,0.7397472176116877,0.1871881416920509,0.2990550881157524,0.6881258754334952,0.7944827668795506,0.9196786864017847,0
618091088,0.4641058846071229,0.8494799504067005,0.8182828502409007,0.579047619047742,0.5830651378115874,0.5501531590378999,0.4221875762804375,0.5888776789873845,0.29454100562622887,0.7717275341680808,0.9442906933354828,0.6337782115496631,0.5041455191038682,0.7399995236724686,0.2973372695921477,0.17076411959715188,0.3980028531514108,0.16913983383623354,0.13302840356123463,0.017391304347826125,0.007104195098247473,0.09333333333333349,0.4576271186440678,0.008196721766848814,0.1929657042496679,0.029238682323683752,0.30251990581338734,0.23465485027573918,0.30629547188418743,0.629624809256132,0.35604744354374285,0.3159973330656001,0.5782563142385136,0.512765993185858,0.6135133936500082,0.1886000359792741,0.3317277313142702,0.6824034138559185,0.7972413834397752,0.8985943502045444,0
618291088,0.5119982207494693,0.860770691729847,0.7801518043576061,0.6587301587301226,0.5919462432671962,0.5438147173810941,0.4167732800813009,0.5897342257457527,0.29240528666061677,0.7735908934839062,0.9445789180850763,0.6339352929976066,0.4928130927264746,0.7399995236724686,0.29826198864232045,0.17076411959715188,0.3980028531514108,0.16913983383623354,0.13302840356123463,0.017391304347826125,0.007104195098247473,0.09333333333333349,0.4576271186440678,0.008196721766848814,0.1929657042496679,0.0298477940622879,0.3034240083594613,0.22028637084191705,0.3138433333394676,0.6353830051603722,0.3067574692318951,0.2746007426558731,0.1842034975705863,0.7535418990623112,0.6121051332389461,0.18791071507707502,0.3394406669492304,0.6824034138559185,0.7972413834397752,0.879518029602677,0
618491088,0.5290295844401981,0.8699604045059437,0.746461723328553,0.48412698412676036,0.5844650745266915,0.5336759279984948,0.4172679622575464,0.5920320538643922,0.2965081774005233,0.7757687833323801,0.9453331880059839,0.624412357204788,0.47689759971906315,0.7399995236724686,0.30114664731888074,0.17076411959715188,0.3980028531514108,0.16913983383623354,0.13302840356123463,0.017391304347826125,0.007104195098247473,0.09333333333333349,0.4576271186440678,0.008196721766848814,0.1929657042496679,0.03088456245522076,0.30489262030441167,0.20370841838095977,0.33065999958695613,0.6339018572981283,0.24928253850246634,0.22639339590595464,0.5541541869269517,0.5405069347380362,0.489253413476039,0.18624094975703476,0.3351960466566715,0.6795421758183389,0.7917241455672035,0.8624497716268618,0
618691088,0.5607472052206284,0.8775773556030116,0.7153331955454089,0.4206349206347113,0.5823164675382067,0.546915333551907,0.4163551938972992,0.5948828786274949,0.30163594374566755,0.7742678469980584,0.9462574505190167,0.6195816278959089,0.4727786483205524,0.7399995236724686,0.280935828104649,0.17076411959715188,0.3980028531514108,0.16913983383623354,0.13302840356123463,0.017391304347826125,0.007104195098247473,0.09333333333333349,0.4576271186440678,0.008196721766848814,0.1929657042496679,0.0316520016174651,0.30599740456987246,0.18511353642210682,0.336672971527886,0.6343774194754253,0.20825079244438383,0.196600026847133,0.499458666357522,0.5921388715082941,0.5391859967308756,0.18443642206918198,0.34278172050797745,0.6809727972533924,0.7834482721259175,0.8493975761955787,0
618891088,0.6010553499719392,0.8833477085186136,0.6872172217129495,0.45238095238073583,0.5843329419365948,0.545834949161611,0.4154329411671922,0.5980897017213026,0.3049945379139382,0.7730172560356487,0.9472829329645553,0.6262497572539311,0.4802074621626596,0.7399995236724686,0.28027651712530244,0.17076411959715188,0.3951497860252857,0.16570908940602647,0.1336001587954871,0.017391304347826125,0.007104195098247473,0.09333333333333349,0.44067796610169496,0.006375227686703095,0.1929657042496679,0.03183331283548596,0.3078716188609192,0.16197201728347155,0.3355383048834051,0.632665545208061,0.14763830377309167,0.14116498871538302,0.6451520594730166,0.15596192377834972,0.5309689523860407,0.1824629887087974,0.36481861951743194,0.6838340256259171,0.7710344928527841,0.8383533932242901,0
619091088,0.6284536080824695,0.8896045105354762,0.6680724141773137,0.3095238095233981,0.5732626206742347,0.5731666059267487,0.4263308229618381,0.5992003726931506,0.300557835257877,0.7728870955103728,0.9476399594015665,0.5842946812376056,0.4683141438347705,0.851585625726853,0.3237646703988398,0.17076411959715188,0.3951497860252857,0.16570908940602647,0.1336001587954871,0.017391304347826125,0.007104195098247473,0.09333333333333349,0.44067796610169496,0.006375227686703095,0.1929657042496679,0.03119839595762556,0.309027074229988,0.13582870049937923,0.33434071100947915,0.63808514848393,0.1035289850452551,0.10553251719240636,0.674598912814113,0.4618944040954763,0.6106217309647228,0.1819950297454047,0.34571561705768866,0.6824034138559185,0.7641379371958552,0.8192770914346944,0
619291088,0.6528683334606703,0.8916536707145,0.6610433350866249,0.16634920634896844,0.5694502856236253,0.42513531709719854,0.3752970359024895,0.6047758217272681,0.31905390215449564,0.7662329010725771,0.9492207049239412,0.6399425516962507,0.3957533573513853,0.851585625726853,0.5693854641260433,0.17076411959715188,0.3951497860252857,0.16570908940602647,0.1336001587954871,0.017391304347826125,0.007104195098247473,0.09333333333333349,0.44067796610169496,0.006375227686703095,0.1929657042496679,0.030803962546304804,0.30985239389977237,0.11627017302127751,0.3490125942844138,0.6778278848712653,0.37431895016928185,0.4046004167365871,0.46079373910362836,0.6483335207395584,0.7973969696411869,0.17660434518560963,0.3541088746589897,0.6838340256259171,0.7462068962895381,0.8102409428710505,0
619491088,0.6633930003612103,0.8944544463399852,0.6728744580873988,0.13492063492049056,0.6315130543329486,0.5559581833959347,0.30225371005968643,0.6831319064778016,0.38943767258300643,0.7696130356074029,0.9693773274283025,0.6418130905735336,0.35010373760150193,0.851585625726853,0.4324580703391634,0.17076411959715188,0.3951497860252857,0.16570908940602647,0.1336001587954871,0.017391304347826125,0.007104195098247473,0.09333333333333349,0.44067796610169496,0.006375227686703095,0.1929657042496679,0.03206980865430796,0.31754353455356626,0.13190675878721936,0.3870969193063644,0.7378873154013048,0.8376141052715236,0.8995956258214902,0.47534015794707585,0.4816094609262478,0.6072633107083777,0.12375064091349453,0.35689234891020266,0.703862638731172,0.7144827616522159,0.816265042958606,0
619691088,0.528729495917684,0.8619143871862632,0.7332172979887872,0.11111111111085847,0.5878066808138915,0.6378786959496603,0.43516992417127304,0.7117250140633021,0.3130116978160372,0.8010053271460116,0.9770080892365297,0.6099054387942782,0.4629181891185367,0.851585625726853,0.43886744125587185,0.17076411959715188,0.3951497860252857,0.16570908940602647,0.1336001587954871,0.017391304347826125,0.007104195098247473,0.09333333333333349,0.44067796610169496,0.006375227686703095,0.1929657042496679,0.03443082850380891,0.32198922850505557,0.15407954884680086,0.37864620586514075,0.6925945143097919,0.7764856779290824,0.8281656866495426,0.5743702519524339,0.07219257283441471,0.58679518826558,0.11076533461757343,0.39170799339090906,0.6809727972533924,0.7448275899102746,0.8062248865972755,0
619891088,0.49638049720612065,0.8678440312336845,0.7939313886065392,0.158412698412576,0.5455781440260451,0.7635881780506424,0.4655141161856807,0.6886026238878729,0.27078419322153463,0.7722813438589198,0.9721014256737991,0.583589890383925,0.6207908222270352,0.851585625726853,0.36179543073164033,0.196677740837913,0.35378031386062503,0.15504484768321425,0.1477034545737131,0.017391304347826125,0.007104195098247473,0.09333333333333349,0.15254237288135594,0.0358227109896782,1.0,0.03967449997693731,0.31835482752666394,0.1651329254153332,0.4072309113935077,0.6730306928809173,0.7648737601678379,0.7894521010874844,0.5953409176603602,0.3941151153118362,0.47115176153720784,0.12673882263645253,0.4217445826466349,0.6723891024707636,0.7393103453847315,0.8042168647311452,0
620091088,0.5124763143273269,0.8516097793754978,0.8099595725520835,0.15873015873012264,0.5734982974433812,0.5370354977596671,0.467741894033043,0.6560153810047764,0.24685130681988093,0.7526517012867185,0.9636353405911976,0.5914999570775568,0.6285589725715055,0.851585625726853,0.3822131730298709,0.196677740837913,0.35378031386062503,0.15504484768321425,0.1477034545737131,0.017391304347826125,0.007104195098247473,0.09333333333333349,0.15254237288135594,0.0358227109896782,1.0,0.046554710716960684,0.31463536647247575,0.17192230085825677,0.4395212936880767,0.682995883621832,0.788334620215919,0.7836606632596607,0.540766458044653,0.3515911116945871,0.6968694435674617,0.14724671092419772,0.4402790792005519,0.659513572378139,0.7337931122642822,0.8002007896450987,0
620291088,0.5265098728803898,0.8601865507842835,0.7988107922392771,0.16634920634896844,0.5890127780096723,0.5000915106371281,0.45908430499446606,0.6269188820268112,0.22855071511437897,0.7499002571496088,0.9551939388130434,0.601770949655222,0.49912895291005965,0.851585625726853,0.37474853069414216,0.196677740837913,0.35378031386062503,0.15504484768321425,0.1477034545737131,0.017391304347826125,0.007104195098247473,0.09333333333333349,0.15254237288135594,0.0358227109896782,1.0,0.053384111753570884,0.312857241674801,0.1789408017190368,0.4637337563352133,0.7083235398168358,0.8411911101629703,0.8090265515314077,0.3436378409662656,0.6349518717119503,0.6371066777972936,0.16530279449455365,0.454798672261752,0.6566523295080319,0.7393103453847315,0.7991967661705192,0
620491088,0.5555929788405991,0.8605499054492713,0.773993094748292,0.19015873015860052,0.6169086909549619,0.28131177949978287,0.45007744476632733,0.6037862203383135,0.3169175537957879,0.772715270419096,0.9488418747400694,0.6822911947998249,0.3251020325432302,0.851585625726853,0.35962764011504744,0.196677740837913,0.35378031386062503,0.15504484768321425,0.1477034545737131,0.017391304347826125,0.007104195098247473,0.09333333333333349,0.15254237288135594,0.0358227109896782,1.0,0.059222025952813326,0.31265219432227626,0.18854841387899868,0.4697469500699516,0.7002388621947603,0.8876153631526726,0.8297254932171161,0.5545079367398533,0.25217361622359696,0.5674824214999293,0.1801692975757503,0.4868940456801855,0.6881258754334952,0.7448275899102746,0.8102409428710505,0
620691088,0.5857828762336851,0.8736936337457244,0.743862692800508,0.13492063492049056,0.6140775845145409,0.42088858319495304,0.43990684664026186,0.5882043616740295,0.36680547600601976,0.8207186531379372,0.9418398163382564,0.6736820475313444,0.28149399976837425,0.851585625726853,0.3650294797146524,0.196677740837913,0.35378031386062503,0.15504484768321425,0.1477034545737131,0.017391304347826125,0.007104195098247473,0.09333333333333349,0.15254237288135594,0.0358227109896782,1.0,0.06278525748748326,0.3075981388562665,0.19873310385124354,0.4467627969979483,0.6456127899059917,0.9155171840045966,0.8322563823520723,0.3790759767199575,0.49758010337551023,0.6552646122682004,0.18884689586933745,0.4382610801395938,0.7167381736563241,0.7779310390054681,0.8112449726163873,0
620891088,0.5625318959058437,0.8921058654291818,0.7117793394791667,0.2936507936506132,0.5200159314716185,0.6817675218590329,0.4317824022540164,0.5810842375213833,0.3908229591872997,0.7989027901413267,0.9398550832068581,0.5537169884316246,0.41991435095269464,0.851585625726853,0.3736622080370018,0.1960132890380919,0.3523537802975625,0.1428925722316372,0.15303983676006888,0.017391304347826125,0.007104195098247473,0.09333333333333349,0.27118644067796616,0.042046149058894956,1.0,0.06332072420638978,0.29472937367559954,0.20845363026481822,0.41038082565623873,0.577099712622353,0.9489595124456813,0.8402037258230071,0.46938374135616073,0.6883906781914966,0.7029259795709377,0.19436949508761237,0.37462681510851253,0.7296137163135201,0.7724138011328964,0.8182730648247363,0
621091088,0.5836306551106052,0.8982471799829221,0.6841272484691256,0.2142857142853245,0.53222480616864,0.763978028267269,0.42661908192379355,0.5788887197805526,0.34537888994994664,0.7436577305980391,0.9397063060648821,0.5120115552629126,0.5446915010840685,0.851585625726853,0.36098561067605306,0.1960132890380919,0.3523537802975625,0.1428925722316372,0.15303983676006888,0.017391304347826125,0.007104195098247473,0.09333333333333349,0.27118644067796616,0.042046149058894956,1.0,0.0602939148249864,0.28262646641880523,0.2193369987740822,0.3544284250229321,0.5641289138521595,0.9913312078425747,0.858119309152473,0.3381232365111622,0.45682540861497306,0.6556818089967734,0.1956049628289378,0.35292588075201275,0.7024320269611735,0.7462068962895381,0.8192770914346944,0
621291088,0.662658619504794,0.8911507047215206,0.6601091209366561,0.26190476190458867,0.6538747187200092,0.5791562229536174,0.4222146490225136,0.5785686111538388,0.29681532073322325,0.7389668747571541,0.9397931262742683,0.653816865114815,0.5502693246906722,0.851585625726853,0.25657434995060036,0.1960132890380919,0.3523537802975625,0.1428925722316372,0.15303983676006888,0.017391304347826125,0.007104195098247473,0.09333333333333349,0.27118644067796616,0.042046149058894956,1.0,0.05602474347126932,0.27769368164877634,0.2320232048810228,0.3217410568595745,0.5956941688625645,0.9999999999999999,0.8438469556401054,0.3347664917941279,0.6264536590230655,0.6351154346289329,0.1952928830933336,0.3350289520154321,0.6809727972533924,0.7406896612682398,0.8202810866908665,0
621491088,0.6846034427377737,0.9015750430444245,0.6360425253673447,0.2695238095238892,0.6662786524306623,0.6036587248747675,0.4213047170205986,0.578883831238349,0.22352668128306963,0.7866460696988223,0.9400120906972319,0.7516353667667168,0.5827818382149563,0.851585625726853,0.2825692657776733,0.1960132890380919,0.3523537802975625,0.1428925722316372,0.15303983676006888,0.017391304347826125,0.007104195098247473,0.09333333333333349,0.27118644067796616,0.042046149058894956,1.0,0.05243589373645821,0.2801634518819161,0.23705762689833687,0.34010756469350306,0.61261184079838,0.8077997554629269,0.6201594571109177,0.5335673794846744,0.4755415732968815,0.579492622622352,0.19600161222990864,0.32508363326469053,0.6680972526631854,0.7875862112226217,0.8132529944825175,0
621691088,0.6225627207812702,0.892106262609569,0.6174602493792891,0.27777777777737356,0.5659222402324796,0.4338493987202492,0.4179141745087212,0.5830385298199824,0.21158585603518015,0.8146639720892289,0.9403615582955781,0.6577010812481019,0.44326655872056026,0.851585625726853,0.4281901186757072,0.1960132890380919,0.3523537802975625,0.1428925722316372,0.15303983676006888,0.017391304347826125,0.007104195098247473,0.09333333333333349,0.27118644067796616,0.042046149058894956,1.0,0.05292764979747739,0.28064674434332626,0.22998542785243115,0.3913605541494344,0.5950632047317282,0.7828461337379237,0.5767694983700359,0.4719271190591617,0.3624518228565199,0.6194296744609441,0.19345716203555774,0.29412674037348535,0.6638054125206622,0.8206896622186641,0.801204806848921,0
621891088,0.5901944735230481,0.8878238830476194,0.605233049662024,0.30158730158700564,0.5123392388158786,0.41776447480673146,0.4201032274300996,0.585510697362414,0.31234260834356203,0.7892337102246064,0.9427589370606254,0.579239348061605,0.3978428822285065,0.851585625726853,0.3439811915294697,0.19335548172239214,0.34664764627814293,0.1411151986111685,0.15418332817006597,0.017391304347826125,0.007104195098247473,0.09333333333333349,0.11864406779661016,0.011687917425622342,1.0,0.05382810178162531,0.27873248284363844,0.23112380963511658,0.4039204812901363,0.5738073638879919,0.8695854853332716,0.6608167530746403,0.39152100924653915,0.410947927430648,0.708770729920025,0.19091236135390433,0.25590612899690174,0.6852646373959157,0.7972413834397752,0.8192770914346944,0
622091088,0.685108257074501,0.8993544414042923,0.5918699599137303,0.3888888888886868,0.6494701918141134,0.612725850903707,0.41794709148548004,0.5866980605211476,0.32364604246517,0.7849833796824005,0.943225680834284,0.7351043765338671,0.4752210958757976,0.851585625726853,0.35527130874742285,0.19335548172239214,0.34664764627814293,0.1411151986111685,0.15418332817006597,0.017391304347826125,0.007104195098247473,0.09333333333333349,0.11864406779661016,0.011687917425622342,1.0,0.05293549120447896,0.27600683510634855,0.23447805097541075,0.385681901645673,0.5601089309306773,0.8596686531579286,0.6439722203928044,0.26124710471633505,0.7403423417898701,0.6791628125632314,0.19000997337905823,0.21803034298592044,0.6909870989734924,0.78206897335005,0.8293172415252676,0
622291088,0.6670161432584685,0.9090048349931034,0.5792463037181242,0.33301587301593827,0.6334789007691866,0.8212312022152823,0.4151183902459066,0.5878899995686666,0.22059211809417084,0.8179559750289673,0.9418171533685674,0.7628611895894716,0.7284532945534787,0.851585625726853,0.3443212489821944,0.19335548172239214,0.34664764627814293,0.1411151986111685,0.15418332817006597,0.017391304347826125,0.007104195098247473,0.09333333333333349,0.11864406779661016,0.011687917425622342,1.0,0.051607850566409104,0.2722177879103373,0.2358751810166807,0.4128751248333,0.5301087731077796,0.8507878152153717,0.6265821289497701,0.6085979882278749,0.36307204401244386,0.6109424539719913,0.19081270613089252,0.21248477962786266,0.6738197239058171,0.826206900091236,0.816265042958606,0
622491088,0.6647769596656545,0.9005834119742427,0.5655815564739801,0.26190476190458867,0.5864241256102887,0.6647833768365363,0.4119046206293362,0.5918393187860016,0.09399425106624684,0.8124592537889771,0.939104712686849,0.7459500119388709,0.6906414126828432,0.851585625726853,0.3410978776445125,0.19335548172239214,0.34664764627814293,0.1411151986111685,0.15418332817006597,0.017391304347826125,0.007104195098247473,0.09333333333333349,0.11864406779661016,0.011687917425622342,1.0,0.05327516378233312,0.26850091918220614,0.23849006547052498,0.4859746311334455,0.526520787028504,0.87507880682434,0.6459626214725548,0.1937983776025227,0.5876096974498732,0.5922662023857002,0.1927467242733829,0.1935811351328241,0.6251788125777333,0.8441379409975531,0.8002007896450987,0
622691088,0.6389052649095235,0.8889410013237248,0.5592779044254093,0.44269841269851895,0.5308403092879009,0.31697570938054587,0.4210565332042048,0.5934693991847335,0.15258134268768817,0.8014913417854446,0.9425677599813357,0.6401704465436441,0.5089008683744848,0.851585625726853,0.1902005062763844,0.19202657806454226,0.3423680455889553,0.13074029678006038,0.15875738910259296,0.06666666666666668,0.018267930252636344,0.09333333333333349,0.35593220338983056,0.026259867941712204,1.0,0.05947525231484169,0.26614243856321806,0.24151923537101028,0.5785177558755487,0.5309072978990151,0.8416168298234266,0.6064606288750803,0.5370603497794648,0.5634210465628497,0.6241246164008721,0.18821376976463988,0.20575065415542654,0.6351931046327783,0.8427586374695633,0.8222891555876758,0
622891088,0.6682582105331792,0.9043089761169136,0.5484620412210913,0.5079365079363924,0.5084623746962617,0.4023989099500544,0.4203320087210145,0.5912911161606156,0.2820428392298034,0.7701890949053533,0.9448756383036251,0.4994984646403981,0.4197991512878262,0.851585625726853,0.3784971910799865,0.19202657806454226,0.3423680455889553,0.13074029678006038,0.15875738910259296,0.06666666666666668,0.018267930252636344,0.09333333333333349,0.35593220338983056,0.026259867941712204,1.0,0.06849762172374133,0.26211111068869175,0.2374981691781458,0.6057758762766019,0.5344691565195683,0.6145809961078895,0.3733832180368232,0.7490328476450906,0.16474322348200549,0.4397396231301888,0.1871795401495021,0.2200134640868941,0.6924177155760185,0.7972413834397752,0.8664658247652581,0
623091088,0.6633953204271003,0.9017582061706235,0.5408461928412462,0.3968253968250792,0.5200510757899635,0.36425264973690435,0.4158356243964995,0.5937201641917214,0.3871031168055689,0.736060357978718,0.943523312525698,0.4342426844976718,0.2702167100953375,0.851585625726853,0.34922482984486325,0.19202657806454226,0.3423680455889553,0.13074029678006038,0.15875738910259296,0.06666666666666668,0.018267930252636344,0.09333333333333349,0.35593220338983056,0.026259867941712204,1.0,0.07381884813009906,0.26054812816502176,0.22921900471164058,0.5433345944461552,0.5631087165920292,0.6647734358501975,0.43979182431129404,0.5253003919163611,0.5547020472102752,0.6068495657317104,0.18749029095408432,0.2108121869628446,0.7367667901443483,0.7365517288245069,0.8845381469755746,0
623291088,0.705744123133097,0.9160076822436778,0.5323962236208846,0.3888888888886868,0.5879852809321775,0.578194703407201,0.41809037163564133,0.5966071670755344,0.4646221833262057,0.7196931221843914,0.9409038711040203,0.4979775423321241,0.373243289490432,0.851585625726853,0.34040192109397605,0.19202657806454226,0.3423680455889553,0.13074029678006038,0.15875738910259296,0.06666666666666668,0.018267930252636344,0.09333333333333349,0.35593220338983056,0.026259867941712204,1.0,0.0698881299717074,0.26473358787850776,0.22902412175779185,0.4105919853749763,0.6002364736627036,0.6848359311292544,0.481598125031697,0.08634769087189431,0.7382404157785984,0.6936244720404838,0.18884853147674918,0.18763600043958178,0.7911301678825362,0.6868965557519713,0.8985943502045444,0
623491088,0.734199571267824,0.9208033060520459,0.527636794947371,0.5952380952380736,0.6561742173945468,0.745149904944618,0.4212988213630292,0.5954634711775257,0.37527966979391886,0.7352790332264787,0.9443115256186952,0.6116242383273739,0.5150781900702157,0.851585625726853,0.33539526195491487,0.19202657806454226,0.3423680455889553,0.13074029678006038,0.15875738910259296,0.06666666666666668,0.018267930252636344,0.09333333333333349,0.35593220338983056,0.026259867941712204,1.0,0.059123809388981874,0.27168369111234697,0.23117131870956698,0.30362286543747274,0.6286819873362343,0.6944238216806112,0.512539633136909,0.4549065213064799,0.5192555239421756,0.7036213400369606,0.18565746141655426,0.18556425607240062,0.7725321699300491,0.6993103487112172,0.8945782876600121,0
623691088,0.7026822441757345,0.9112408879190368,0.5214029371697046,0.4679365079364288,0.6259755965824589,0.5961795247925834,0.4206224488820209,0.5930345225168863,0.2747869831584152,0.7724276831744525,0.9455688821166734,0.6390023153227453,0.5128225205626767,0.851585625726853,0.3427992945330832,0.19202657806454226,0.3423680455889553,0.13074029678006038,0.15875738910259296,0.06666666666666668,0.018267930252636344,0.09333333333333349,0.35593220338983056,0.026259867941712204,1.0,0.05046244218044234,0.2773883706111558,0.2352917857708534,0.2675554317105618,0.6427362001051545,0.685145951389748,0.5236361663099828,0.5379592679780897,0.4037721532398142,0.6197201882875618,0.18611337237892356,0.1808723069788571,0.748211710883238,0.7517241436663545,0.8865461688417049,0
623891088,0.677991926970726,0.9098716230645751,0.5139073616015151,0.48412698412676036,0.5952143602500111,0.5666842884330372,0.420432647480276,0.5904094383689756,0.2635898581795868,0.7830418369349244,0.9446438416586475,0.6492477467443682,0.5228267845556365,0.851585625726853,0.31975424632741434,0.18671096343314275,0.3480741798412055,0.1322696647790682,0.15361159199432134,0.017391304347826125,0.007104195098247473,0.09333333333333349,0.5423728813559322,0.0013661203703703702,1.0,0.04615386931122606,0.2793474951140435,0.2390752769784963,0.27549851017948596,0.641323628282413,0.6593169291597424,0.5141108576769522,0.41476290958844747,0.4069574271315683,0.5930974526209987,0.1879891220073725,0.17028988846299548,0.748211710883238,0.759999998099151,0.8885541907078353,0
624091088,0.6675179655102205,0.9082617201756642,0.5053579543470494,0.6269841269840981,0.5769741376899413,0.5562308651621858,0.4173629271481936,0.5883324235446061,0.25575801033465245,0.7828345201776058,0.9438939858982607,0.6348645801533448,0.5088258047600597,0.851585625726853,0.3599471625999898,0.18671096343314275,0.3480741798412055,0.1322696647790682,0.15361159199432134,0.017391304347826125,0.007104195098247473,0.09333333333333349,0.5423728813559322,0.0013661203703703702,1.0,0.0458490520752264,0.2778568302430674,0.2404650728742611,0.299058568032206,0.6354260358495291,0.6377823593192151,0.5050257653232273,0.6140424189821797,0.4353594444749294,0.600237947037772,0.18919259317870685,0.15281614348892808,0.746781096213723,0.7641379371958552,0.8855421265548539,0
624291088,0.6612133384588122,0.9059758986097282,0.49956848495018946,0.5393650793648703,0.5790795494092152,0.538123278138991,0.4146413401499071,0.5881051608647121,0.2631945588609272,0.7796860625416417,0.9439108723360975,0.6297228406182929,0.49852389956776655,0.851585625726853,0.344632178248792,0.18671096343314275,0.3480741798412055,0.1322696647790682,0.15361159199432134,0.017391304347826125,0.007104195098247473,0.09333333333333349,0.5423728813559322,0.0013661203703703702,1.0,0.047589526183498224,0.27639705749491855,0.24249278149314146,0.3146692768686042,0.6331659409403089,0.6515063064540273,0.5310957434003647,0.3769407856126221,0.36656785709618855,0.5869739015051004,0.1891590486231297,0.13219544136831746,0.7553647871303298,0.7572413862910488,0.8865461688417049,0
624491088,0.6624434933952125,0.9038865747749476,0.4945642290246687,0.603174603174466,0.5795580296109566,0.5210570376422713,0.41455454952991494,0.5881105559539264,0.27521407594745223,0.776620726755487,0.9439990974909189,0.6199211485931785,0.4846123829871119,0.851585625726853,0.34867725759983426,0.18671096343314275,0.3480741798412055,0.1322696647790682,0.15361159199432134,0.017391304347826125,0.007104195098247473,0.09333333333333349,0.5423728813559322,0.0013661203703703702,1.0,0.049395381471375045,0.2757154130756807,0.24489949664071453,0.3258896471072004,0.6352109061221249,0.6527704959341091,0.5417311594180733,0.35187638258190057,0.6846018169809652,0.6410742056014637,0.1890969977669491,0.10801591229050095,0.7639484780469368,0.7489655223540075,0.8855421265548539,0
624691088,0.6684220711868217,0.901152167023459,0.49362368551054026,0.48380952380966846,0.5800042253793293,0.5475529801066517,0.4191121201444782,0.5871989797703066,0.2811196276907392,0.7750707903351116,0.9437216749526485,0.6219110056356273,0.482915757473576,0.897104614846806,0.3544711711913794,0.18671096343314275,0.3480741798412055,0.1322696647790682,0.15361159199432134,0.017391304347826125,0.007104195098247473,0.09333333333333349,0.5423728813559322,0.0013661203703703702,1.0,0.0503927319239813,0.27475742582307316,0.2451485318452249,0.32771731575893126,0.6382249557347865,0.6485145543589449,0.5391800500570801,0.3087857662453015,0.817237704343263,0.5860076836405173,0.1898550579913516,0.08938501311974573,0.7768240153883527,0.7365517288245069,0.8865461688417049,0
624891088,0.6704608490881141,0.898244089725762,0.4928993828613495,0.3968253968250792,0.5861581153787849,0.5458515578927646,0.42048188052952273,0.5850694682557389,0.28475932329871534,0.7734339801554887,0.9430184088084568,0.6155682465763199,0.4827023563190092,0.9025940878065395,0.3465034692126907,0.18405315614654683,0.3452211127150804,0.1322696647790682,0.15437393230665786,0.017391304347826125,0.007104195098247473,0.08000000000000007,0.47457627118644075,0.006982392531876137,1.0,0.05079438912592298,0.2730166141886523,0.24415677374670453,0.33044122850664,0.6342267144802843,0.6538787172254554,0.5438600297516225,0.497964554228836,0.7074333088184251,0.6863079316897973,0.19117633670724,0.08894867547597968,0.7839770911521917,0.7296551750684269,0.8855421265548539,0
625091088,0.6679808906572947,0.8998081473419114,0.48670077591889704,0.6190476190472509,0.5810582684850153,0.5519258563714237,0.41676190173530286,0.5864404437993309,0.2873383285152129,0.7730477471083768,0.9434804094398811,0.6133793761751429,0.4935051890357239,0.9004745917610681,0.2987073163817511,0.18405315614654683,0.3452211127150804,0.1322696647790682,0.15437393230665786,0.017391304347826125,0.007104195098247473,0.08000000000000007,0.47457627118644075,0.006982392531876137,1.0,0.050980833338179155,0.27180768615705436,0.24413878880308337,0.32657909971062393,0.6292698755755866,0.64891925506391,0.5387381289626832,0.4009439851842138,0.4311376596355589,0.6371859747270682,0.1899037757263996,0.08583231926054719,0.7925607859348206,0.725517246426392,0.8835341046887235,0
625291088,0.6740530231058562,0.9008977536106967,0.48302427166786166,0.5234920634920854,0.588582268310091,0.5624454587858133,0.4195703547395903,0.5871001158511064,0.2839737506871135,0.7729313494586827,0.9436938411644976,0.6212035132294791,0.488908144686957,0.8990403614922293,0.3909639471591573,0.18405315614654683,0.3452211127150804,0.1322696647790682,0.15437393230665786,0.017391304347826125,0.007104195098247473,0.08000000000000007,0.47457627118644075,0.006982392531876137,1.0,0.051036115686818595,0.2709446439141999,0.24120679879828977,0.32327773113994784,0.6334567420214715,0.5896595672739517,0.47756461486521445,0.4692369661500001,0.646259235289231,0.5879170225439609,0.18967132962665179,0.09834818078352231,0.7982832426798698,0.7200000033264856,0.879518029602677,0
625491088,0.6642451045609695,0.896681901763631,0.4822353722726883,0.603174603174466,0.5841939700856064,0.5496130648905035,0.4198454656322078,0.5880765591361328,0.27899582356555924,0.7731471185054205,0.9440065750517488,0.6107909681431481,0.48768140856954606,0.8957436098441556,0.34424647856905133,0.18405315614654683,0.3452211127150804,0.1322696647790682,0.15437393230665786,0.017391304347826125,0.007104195098247473,0.08000000000000007,0.47457627118644075,0.006982392531876137,1.0,0.05113235730923714,0.27040574373793286,0.23926081210489747,0.3257434706100903,0.6328809232169516,0.6441408515683236,0.5380812756319575,0.4933649069085151,0.4764401535756674,0.7155433283277755,0.1891039198911736,0.09988479620982288,0.801144475884922,0.7186206974224345,0.872489937394328,0
625691088,0.6576341168089175,0.8884808775322853,0.4808243708437261,0.5317460317460245,0.5976867150989892,0.407086528521572,0.42188357912650276,0.5873814457592987,0.2980839279600596,0.7791656192458299,0.943723935250539,0.6433782329149305,0.3776132419000285,0.8968616070725752,0.3279285217442851,0.17740863785729744,0.3594864478800446,0.1377671227214483,0.16333143097661224,0.017391304347826125,0.007104195098247473,0.08000000000000007,0.13559322033898305,0.011839708561020035,1.0,0.05116931759422895,0.2698145140585419,0.240588697151929,0.3187517181192519,0.6290230332438589,0.6496805795926421,0.5479696468687362,0.3788505685047705,0.6124093872524933,0.6202235679897009,0.18959836985318068,0.11279470927977603,0.8125893990400754,0.7158620727836017,0.8704819155281976,0
625891088,0.657636196867991,0.9005792100963642,0.47610043128737156,0.5634920634920491,0.5745188968765486,0.5445705428519956,0.42558623517235955,0.5850798391392734,0.34128580047604107,0.7906756291459273,0.9425369672929496,0.6230228686088167,0.440759074178408,0.8968616070725752,0.34247626214205606,0.17740863785729744,0.3594864478800446,0.1377671227214483,0.16333143097661224,0.017391304347826125,0.007104195098247473,0.08000000000000007,0.13559322033898305,0.011839708561020035,1.0,0.05023521807764324,0.26783413614137236,0.24143091962426022,0.29858945911090884,0.6026559148651154,0.6333452965988344,0.5345073808171354,0.31625051689094696,0.45450228421717637,0.5444260988422179,0.1912528743719243,0.12637422753428856,0.8412017020954318,0.7186206974224345,0.8644578028991279,0
626091088,0.6660177949053753,0.9143582211569177,0.4674988253943654,0.5634920634920491,0.5892750978726381,0.8349179007194517,0.4257128134340687,0.5819019304274631,0.2928515977353828,0.7770036271849718,0.9417591248646746,0.6202937668863842,0.6588802039531125,0.9097636244811356,0.33029817902844827,0.17740863785729744,0.3594864478800446,0.1377671227214483,0.16333143097661224,0.017391304347826125,0.007104195098247473,0.08000000000000007,0.13559322033898305,0.011839708561020035,1.0,0.048387128849369625,0.26510266677676153,0.24129855952051937,0.2889898754672814,0.5905196299002967,0.6445121805723335,0.548371716623221,0.5124332388822612,0.5218897876385228,0.7214798042136208,0.19348096596485276,0.13930394405491292,0.834048623915329,0.7131034528968914,0.8614457606937966,0
626291088,0.6667357352948824,0.8946810934531062,0.4593517423111322,0.45238095238073583,0.5848017679678735,0.5040681762319601,0.4262079648310383,0.5792007890941828,0.2088694736615305,0.7637051171451532,0.9400172769971862,0.6224996712062962,0.5259023750199273,0.9310984153228916,0.31800012705591074,0.17740863785729744,0.3594864478800446,0.1377671227214483,0.16333143097661224,0.017391304347826125,0.007104195098247473,0.08000000000000007,0.13559322033898305,0.011839708561020035,1.0,0.04700520216547858,0.26377438736860864,0.24172187692293046,0.30233674889408535,0.6105721359988547,0.6534267606841395,0.5583359417400319,0.5900617342314738,0.6133435711168385,0.5600699543343207,0.19562996425651646,0.15164623890427759,0.7854077077547178,0.7117241436663546,0.8574296950138858,0
626491088,0.6718217197368406,0.8954684188069564,0.45017327072230207,0.5631746031745024,0.5820436468421732,0.4498529416845277,0.431505706520876,0.5734009954787399,0.259394990522672,0.7725767479896992,0.9388763761554232,0.6245885200695684,0.44321480651778494,0.9446442014994627,0.3273430398239593,0.17740863785729744,0.3594864478800446,0.1377671227214483,0.16333143097661224,0.017391304347826125,0.007104195098247473,0.08000000000000007,0.13559322033898305,0.011839708561020035,1.0,0.04617574872906578,0.2646278294902164,0.24206935550984143,0.3088516351117529,0.6255252930969614,0.6419948358119778,0.5463876116928578,0.4580170699055955,0.5499860823605668,0.5398094269319518,0.1993183027807759,0.16765557761121613,0.8125893990400754,0.7075862097969849,0.8544176465377974,0
626691088,0.6401652206922677,0.8936805984791576,0.43474161073303075,0.539682539682417,0.5343289691485071,0.3920790815237992,0.4259668803185543,0.5676316504283461,0.3345027671169106,0.7737791552457408,0.9366426212835643,0.5191628273542904,0.37908181818671743,0.9446440400325025,0.3288242874312388,0.18073089700192213,0.38231098442338407,0.14012317612532543,0.19477794980198687,0.017391304347826125,0.007104195098247473,0.08000000000000007,0.13559322033898305,0.10807529751062538,1.0,0.044503497855053926,0.2656849764538452,0.2419446059393232,0.28379171103820816,0.623313129733748,0.6333182153406247,0.5381156798937495,0.333066706257337,0.45950111813834277,0.5836151832783499,0.20316622985677557,0.188022805247072,0.8369098571203811,0.7048275908606991,0.8493975761955787,0
626891088,0.6394470722968533,0.9084367701659017,0.42578551576921786,0.6825396825393,0.5317739566817554,0.6386831291275803,0.4197033594110317,0.5701286169612719,0.38958262386918774,0.7308983769109073,0.9352183839734337,0.47658945870242275,0.4632300566680799,0.9446442014994627,0.33889910302937976,0.18073089700192213,0.38231098442338407,0.14012317612532543,0.19477794980198687,0.017391304347826125,0.007104195098247473,0.08000000000000007,0.13559322033898305,0.10807529751062538,1.0,0.04058362912660686,0.2659778605302097,0.241053482582964,0.22596496728774557,0.6356654852892943,0.6217972485825348,0.5273731484238479,0.329190749441634,0.40858364459071383,0.6264687474885211,0.20242795756132692,0.20798731430008138,0.8483547802755346,0.6675862102721972,0.8524096089947741,0
627091088,0.7121339046028907,0.9053176835219205,0.42521993868053043,0.5869841269841345,0.6697541552736626,0.5951787199433003,0.4167520566755829,0.5730618925509605,0.34005418368274254,0.7388744624856657,0.9375427636314361,0.6506291560566009,0.47779547139583534,0.9446442014994627,0.32874238962259816,0.18073089700192213,0.38231098442338407,0.14012317612532543,0.19477794980198687,0.017391304347826125,0.007104195098247473,0.08000000000000007,0.13559322033898305,0.10807529751062538,1.0,0.03420686239157015,0.2680210251796648,0.24201115615331537,0.1722585965772161,0.6613435926863509,0.6420458886242786,0.5530947872592955,0.4125155516576908,0.5029767748673496,0.6380447890022264,0.1992362011301645,0.22797409618269698,0.834048623915329,0.6620689685979275,0.8524096089947741,0
627291088,0.7039879132567365,0.9059137786284112,0.4278152758384305,0.5314285714284779,0.6737058612678681,0.6782043149565643,0.41605322097257413,0.575271474848265,0.2517920029349029,0.7944763873668692,0.9389524676905752,0.769419366338191,0.588159384090172,0.9446442014994627,0.33085519171053246,0.18073089700192213,0.38231098442338407,0.14012317612532543,0.19477794980198687,0.017391304347826125,0.007104195098247473,0.08000000000000007,0.13559322033898305,0.10807529751062538,1.0,0.028471943349218754,0.2723653430141035,0.24314708993050238,0.17628213307291124,0.6619552841886357,0.6160958989040608,0.529455604002256,0.1582717710779183,0.6427594586400718,0.48881563744756007,0.197900421002135,0.24552863665314645,0.8268955505677537,0.7158620727836017,0.8504015871286438,0
627491088,0.6465408817610421,0.8999452109030279,0.4311843591490747,0.5234920634920854,0.5865052470802564,0.6431803805358237,0.4159154997641479,0.5794056400984414,0.15780029705744864,0.8187002633277292,0.9373750526242536,0.7094085457552642,0.6046448036114516,0.9446442014994627,0.3477843563189955,0.18073089700192213,0.38231098442338407,0.14012317612532543,0.19477794980198687,0.017391304347826125,0.007104195098247473,0.08000000000000007,0.13559322033898305,0.10807529751062538,1.0,0.026351297616301842,0.2762326384387334,0.24132643519603314,0.2530537639949273,0.6420189453739765,0.6187569333828217,0.5328139100022289,0.5804060358251842,0.4417085519384134,0.6996653923037006,0.19808524463965527,0.2586884250477079,0.801144475884922,0.7586206945711611,0.8393574041573553,0
627691088,0.6231458173412124,0.886478918851736,0.43605446978596407,0.5952380952380736,0.5231774634045459,0.3751828373350795,0.4199344318731455,0.5787792692711962,0.2080566714841165,0.7920420550319948,0.93957374385101,0.6105476387850489,0.4826973198187198,0.9446442014994627,0.3224781620636332,0.17076411959715188,0.37517831684090197,0.13371636423758937,0.22717745119330562,0.017391304347826125,0.007104195098247473,0.08000000000000007,0.728813559322034,0.057832427140255,1.0,0.027697827168465545,0.2786921614658321,0.24211910529900205,0.31943107121284803,0.6299212187646623,0.6417832128636463,0.5590604571145505,0.7187252403197181,0.3644537483117898,0.6253844028637582,0.196220608379423,0.2693431011419361,0.7997138592823959,0.7379310394806804,0.8413654573772715,0
627891088,0.6628425047271344,0.8925745237552863,0.4402135322068441,0.5158730158727849,0.572781755468537,0.368373988536005,0.41936944150224026,0.5788739038864075,0.2999782433379433,0.7802803930048673,0.9408308023302595,0.6080422794215804,0.3262499647295282,0.9446440400325025,0.34041226254140544,0.17076411959715188,0.37517831684090197,0.13371636423758937,0.22717745119330562,0.017391304347826125,0.007104195098247473,0.08000000000000007,0.728813559322034,0.057832427140255,1.0,0.029972931018901517,0.2819117264850247,0.2427551425340343,0.32747231934034854,0.6308869982016794,0.6228994618840441,0.5408700981591092,0.21703336000226486,0.6642973241323563,0.602631614189316,0.19500056207940775,0.2821276407768319,0.8283261720028072,0.7089655223540074,0.8443774807703313,0
628091088,0.6425218076193364,0.8874789415685167,0.4467865396551186,0.5234920634920854,0.544759863175894,0.2921103344041014,0.41831385434055646,0.5819898345113411,0.41354508656099565,0.7850487074054036,0.939791355578575,0.5278777233820489,0.16623422955826744,0.9446442014994627,0.3337749225521067,0.17076411959715188,0.37517831684090197,0.13371636423758937,0.22717745119330562,0.017391304347826125,0.007104195098247473,0.08000000000000007,0.728813559322034,0.057832427140255,1.0,0.030085934191184917,0.28339148517572094,0.24207842694957127,0.2829100515752715,0.6004604165212092,0.6148618742279792,0.5338238682373522,0.2417852132533861,0.5164866515116692,0.6299412548627581,0.1943588928467116,0.29967830771169773,0.858369086828162,0.7020689695483521,0.8343373181382435,0
628291088,0.655022522639643,0.9076526295206454,0.4533794287531653,0.603174603174466,0.5553839571749679,0.6710101628057091,0.4216261237782462,0.5877655441189125,0.4896818712929562,0.7647167206421728,0.9386553778513955,0.5097204579429232,0.3526423360057457,0.9446442014994627,0.3466302965087973,0.17076411959715188,0.37517831684090197,0.13371636423758937,0.22717745119330562,0.017391304347826125,0.007104195098247473,0.08000000000000007,0.728813559322034,0.057832427140255,1.0,0.02628848752390216,0.27877935786833397,0.24186900402758094,0.1950147397353493,0.56465779648903,0.6156596094902268,0.536645432928144,0.5742120658760809,0.3847134454813161,0.5125443387935134,0.19360134374962523,0.3123363602700558,0.8912732396910965,0.6758620727836018,0.8343373181382435,0
628491088,0.6585156218436604,0.9082657161978541,0.46470012948917017,0.5952380952380736,0.6136241092840516,0.8582299581742481,0.42554522102887343,0.5883880613110046,0.37397034977403754,0.7466438690701019,0.9425164020654812,0.5827638892967277,0.5661705620736319,0.9446442014994627,0.32656912570417984,0.17076411959715188,0.37517831684090197,0.13371636423758937,0.22717745119330562,0.017391304347826125,0.007104195098247473,0.08000000000000007,0.728813559322034,0.057832427140255,1.0,0.019202058720534005,0.2689762947686886,0.24232607034450404,0.12039242181100501,0.565176526580503,0.6405326801566832,0.5635949409508907,0.45304930917322156,0.5648969239565284,0.643895708697867,0.18995409986158418,0.3262412716533262,0.8540772370205839,0.6744827630778527,0.8443774807703313,0
628691088,0.6782570545003479,0.9004931018727491,0.4708962791490665,0.5314285714284779,0.6438226875621512,0.784312170636976,0.42633911770617755,0.5863959500671676,0.23635955837346045,0.7555031500841437,0.9426000040596343,0.6779127061167561,0.7103377880945531,0.9446440400325025,0.33228387141403926,0.17076411959715188,0.37517831684090197,0.13371636423758937,0.22717745119330562,0.017391304347826125,0.007104195098247473,0.08000000000000007,0.728813559322034,0.057832427140255,1.0,0.012230031434637398,0.257879795523768,0.24311939193280707,0.11818768144791086,0.5916467807461253,0.6218514039955033,0.5450617978420174,0.39207752548476293,0.8036783247727437,0.6209861254869198,0.19057576211076244,0.3377611019201617,0.8082975492324973,0.691034486675025,0.8534136356047323,0
628891088,0.6602169901625207,0.8958663983987625,0.47349422251573825,0.4603174603171283,0.6193625005371265,0.7029355247374662,0.42138178523658937,0.587649903556612,0.11262037757595772,0.7754665918569306,0.9395216041197892,0.7136747676183902,0.7418745166132356,0.9446442014994627,0.3403772172722237,0.1800664451729972,0.33951497869566083,0.13921382217996947,0.26567559884928543,0.017391304347826125,0.007104195098247473,0.08000000000000007,0.27118644067796616,0.037037037037037035,1.0,0.008937544879020105,0.24885338411250987,0.24216676243830104,0.1915854240610716,0.6190733625678528,0.6132416176376464,0.5358374319193824,0.31093977326841327,0.6865237509062301,0.5665260222306812,0.19318157679032655,0.35192190874792667,0.7668097088357252,0.7268965566073533,0.8554216574708625,0
629091088,0.6000138403930672,0.8698503080400306,0.47960555869589494,0.5158730158727849,0.5588225011508425,0.29172418489225177,0.4258465838137481,0.5868034853147874,0.13788123262882873,0.7842987288733224,0.9402022847017542,0.6273857469079641,0.5373317077878952,0.9446442014994627,0.3366730156967841,0.1800664451729972,0.33951497869566083,0.13921382217996947,0.26567559884928543,0.017391304347826125,0.007104195098247473,0.08000000000000007,0.27118644067796616,0.037037037037037035,1.0,0.010679862679752822,0.2456026668977918,0.24080810951571108,0.2898269601895258,0.6416344348605381,0.6355990686971515,0.5564696422941666,0.733283650496319,0.5998050615539715,0.6848982891142585,0.1927796116652677,0.3637200848259103,0.7625178635368951,0.7379310394806804,0.8534136356047323,0
629291088,0.5736143706481265,0.881517326921744,0.48204411378040435,0.5,0.4987172200006912,0.37878502803560676,0.423998255252677,0.5816460102745817,0.26501045851957533,0.758418007621961,0.941343473886313,0.4950432788388131,0.4425201458514597,0.9446442014994627,0.33711433595723694,0.1800664451729972,0.33951497869566083,0.13921382217996947,0.26567559884928543,0.017391304347826125,0.007104195098247473,0.08000000000000007,0.27118644067796616,0.037037037037037035,1.0,0.015224519637653249,0.2479818671875582,0.240015587477591,0.32482172263512976,0.6629280439179647,0.6296850193012684,0.5466769786785233,0.5539540579087308,0.5898051819037233,0.6199534959783984,0.19370218186728305,0.369496720721264,0.8040057018411828,0.7048275908606991,0.8624497716268618,0
629491088,0.6003574181506756,0.8868925434758738,0.48159972539959783,0.6349206349204906,0.5186066528922872,0.35048500165374674,0.4203300275481747,0.5797985339561496,0.39335894489399703,0.7236365701796034,0.9379343970095237,0.4275585467786419,0.3288118401481873,0.9446442014994627,0.321495213537038,0.1800664451729972,0.33951497869566083,0.13921382217996947,0.26567559884928543,0.017391304347826125,0.007104195098247473,0.08000000000000007,0.27118644067796616,0.037037037037037035,1.0,0.018000588990766675,0.25410339898143486,0.23873549776371727,0.27604663801737317,0.6937466407254964,0.6352773271205687,0.5493608019736751,0.5095208155721663,0.4811867602229196,0.5693464169817277,0.19736034927625212,0.3807031174004562,0.8383404737229072,0.660689657941754,0.8624497716268618,0
629691088,0.6567823326182464,0.904128561769615,0.4789506556631373,0.5393650793648703,0.6055791041584279,0.5369095882525797,0.4203669107613301,0.5801337202333583,0.4545806786958527,0.7116289184168383,0.9351904321389033,0.49355584816100795,0.33580737271920474,0.9446442014994627,0.32327484350525637,0.1800664451729972,0.33951497869566083,0.13921382217996947,0.26567559884928543,0.017391304347826125,0.007104195098247473,0.08000000000000007,0.27118644067796616,0.037037037037037035,1.0,0.015687157255761593,0.2623614319065957,0.23876022459344892,0.18041599265886135,0.7219367869340928,0.6438759107401728,0.5576690654495594,0.6039821206204833,0.35313282251393363,0.5420981594663942,0.199458512305415,0.3876703490163696,0.8669527816107909,0.6344827592761547,0.8554216574708625,0
629891088,0.7020966115437679,0.9024226114600782,0.47758939559015945,0.6349206349204906,0.6902965675693793,0.5088266390271596,0.42038524839904756,0.5759427538552279,0.42692278584940146,0.7551769677805661,0.9369649169275599,0.6704195760964894,0.31339633030476,0.9446442014994627,0.3189163066794024,0.1926910298934672,0.3309557775501162,0.14694333071549615,0.29712213673316784,0.017391304347826125,0.007104195098247473,0.08000000000000007,0.5254237288135594,0.05798421675774135,1.0,0.009405049295284844,0.2710861037411981,0.23911319145075138,0.086038305317919,0.7288663717377484,0.6488091756861134,0.5617570098498887,0.23825949476475852,0.7082306538419031,0.5533160516353103,0.19977484169956217,0.3994918308667816,0.868383388548262,0.6593103487112172,0.8624497716268618,0
630091088,0.6617014003197691,0.9078402730353605,0.4749056707233471,0.5631746031745024,0.6622796881656478,0.6722429482769556,0.4202565574885388,0.5704744891991032,0.3481763647962382,0.8190324554805982,0.9360824641199431,0.7667773375955629,0.4412455907918298,0.9446442014994627,0.34322094049237983,0.1926910298934672,0.3309557775501162,0.14694333071549615,0.29712213673316784,0.017391304347826125,0.007104195098247473,0.08000000000000007,0.5254237288135594,0.05798421675774135,1.0,0.002927584303525202,0.27499764895135176,0.23928522306295197,0.06914587798603089,0.6718664902525998,0.6224402147133641,0.53513058589143,0.6586798561450803,0.3059623308091869,0.5248665603054509,0.20030048503149211,0.41220474237284316,0.8655221601757375,0.7310344861998127,0.8664658247652581,0
630291088,0.660438036440235,0.9097962169149343,0.4677004342586282,0.5631746031745024,0.6378238833226076,0.7735013191097411,0.41473533630590437,0.5687917957740174,0.23131955257481895,0.8459007450088947,0.9332956503487292,0.8151022995870589,0.586807558803586,0.9446442014994627,0.33125881746234487,0.1926910298934672,0.3309557775501162,0.14694333071549615,0.29712213673316784,0.017391304347826125,0.007104195098247473,0.08000000000000007,0.5254237288135594,0.05798421675774135,1.0,0.0,0.2693939651144905,0.23858008889853,0.12072907299057237,0.6048113431438735,0.623986273244928,0.5378833379583365,0.3270702064466585,0.6757503085633916,0.6320876490255986,0.20331926137523126,0.4205334894669451,0.8226037055927029,0.784827594662397,0.8755019858704164,0
630491088,0.606303299013692,0.902388575038346,0.4606985565412045,0.5473015873017175,0.5240737463080811,0.702057803655079,0.41284167417020445,0.5687899683269071,0.15003593038894478,0.8280441787628345,0.9326535689976937,0.6706259993319179,0.6687976585077292,0.9446442014994627,0.33388968706753186,0.1926910298934672,0.3309557775501162,0.14694333071549615,0.29712213673316784,0.017391304347826125,0.007104195098247473,0.08000000000000007,0.5254237288135594,0.05798421675774135,1.0,0.0022264906888762245,0.25741870934085875,0.23804780563847117,0.22518018526447686,0.5600739504934611,0.6377177391750564,0.5531406691392741,0.4227869149411235,0.7440838583933382,0.6806342761565481,0.20575208136373468,0.42413334362187444,0.7653790935379815,0.8165517373783272,0.879518029602677,0
