DateTime,SpeedChanged_speedX,SpeedChanged_speedY,SpeedChanged_speedZ,AltitudeChanged_altitude,AttitudeChanged_roll,AttitudeChanged_pitch,AttitudeChanged_yaw,GpsLocationChanged_latitude,GpsLocationChanged_longitude,GpsLocationChanged_altitude,GpsLocationChanged_latitude_accuracy,GpsLocationChanged_longitude_accuracy,GpsLocationChanged_altitude_accuracy,HomeChanged_latitude,HomeChanged_longitude,HomeChanged_altitude,moveByEnd_dX,moveByEnd_dY,moveByEnd_dZ,moveByEnd_dPsi,WifiSignalChanged_rssi,BatteryStateChanged_percent,FlyingStateChanged_state_unknown,FlyingStateChanged_state_landed,FlyingStateChanged_state_takingoff,FlyingStateChanged_state_hovering,FlyingStateChanged_state_flying,FlyingStateChanged_state_landing,FlyingStateChanged_state_emergency,FlyingStateChanged_state_usertakeoff,FlyingStateChanged_state_motor_ramping,FlyingStateChanged_state_motor_emergency_landing,HomeTypeAvailabilityChanged_type_UNKNOWN,HomeTypeAvailabilityChanged_type_TAKEOFF,HomeTypeAvailabilityChanged_type_PILOT,HomeTypeAvailabilityChanged_type_FIRST_FIX,HomeTypeAvailabilityChanged_type_FOLLOWEE,is_target
2024-08-27 19:28:19.372011185,0.0,0.0,0.0,0.0,-0.0012084576301276684,-0.002842258894816041,-0.49771979451179504,500.0,500.0,500.0,1,1,2,0.0,0.0,0.0,0.0,0.0,0.0,0.0,-45,0.0,1,0,0,0,0,0,0,0,0,0,1,0,0,0,0,1
2024-08-27 19:28:19.472817898,0.0,0.0,0.0,0.0,-0.0012084576301276684,-0.002842258894816041,-0.49771979451179504,500.0,500.0,500.0,1,1,2,0.0,0.0,0.0,0.0,0.0,0.0,0.0,-45,0.0,1,0,0,0,0,0,0,0,0,0,1,0,0,0,0,1
2024-08-27 19:28:19.573218822,0.0,0.0,0.0,0.0,-0.0011263934429734945,-0.0029795567970722914,-0.49776691198349,500.0,500.0,500.0,1,1,2,0.0,0.0,0.0,0.0,0.0,0.0,0.0,-45,0.0,1,0,0,0,0,0,0,0,0,0,1,0,0,0,0,1
2024-08-27 19:28:19.677221298,0.0,0.0,0.0,0.0,-0.0011263934429734945,-0.0029795567970722914,-0.49776691198349,500.0,500.0,500.0,1,1,2,0.0,0.0,0.0,0.0,0.0,0.0,0.0,-45,0.0,1,0,0,0,0,0,0,0,0,0,1,0,0,0,0,1
2024-08-27 19:28:19.777489185,0.0,0.0,0.0,0.0,-0.0011213921243324876,-0.002934788353741169,-0.49784234166145325,500.0,500.0,500.0,1,1,2,0.0,0.0,0.0,0.0,0.0,0.0,0.0,-45,0.0,1,0,0,0,0,0,0,0,0,0,1,0,0,0,0,1
2024-08-27 19:28:19.877813101,0.0,0.0,0.0,0.0,-0.0011213921243324876,-0.002934788353741169,-0.49784234166145325,500.0,500.0,500.0,1,1,2,0.0,0.0,0.0,0.0,0.0,0.0,0.0,-45,0.0,1,0,0,0,0,0,0,0,0,0,1,0,0,0,0,1
2024-08-27 19:28:19.978336573,0.0,0.0,0.0,0.0,-0.0008493838249705732,-0.0028938527684658766,-0.4978790581226349,500.0,500.0,500.0,1,1,2,0.0,0.0,0.0,0.0,0.0,0.0,0.0,-45,0.0,1,0,0,0,0,0,0,0,0,0,1,0,0,0,0,1
2024-08-27 19:28:20.080233097,0.0,0.0,0.0,0.0,-0.0008493838249705732,-0.0028938527684658766,-0.4978790581226349,500.0,500.0,500.0,1,1,2,0.0,0.0,0.0,0.0,0.0,0.0,0.0,-45,0.0,1,0,0,0,0,0,0,0,0,0,1,0,0,0,0,1
2024-08-27 19:28:20.184528589,0.0,0.0,0.0,0.0,-0.0011164539027959108,-0.002958905417472124,-0.4979500472545624,500.0,500.0,500.0,1,1,2,0.0,0.0,0.0,0.0,0.0,0.0,0.0,-45,0.0,1,0,0,0,0,0,0,0,0,0,1,0,0,0,0,1
2024-08-27 19:28:20.285557032,0.0,0.0,0.0,0.0,-0.0011164539027959108,-0.002958905417472124,-0.4979500472545624,500.0,500.0,500.0,1,1,2,0.0,0.0,0.0,0.0,0.0,0.0,0.0,-45,0.0,1,0,0,0,0,0,0,0,0,0,1,0,0,0,0,1
2024-08-27 19:28:20.387304306,0.0,0.0,0.0,0.0,-0.0012202804209664464,-0.0030412490013986826,-0.4979936182498932,500.0,500.0,500.0,1,1,2,0.0,0.0,0.0,0.0,0.0,0.0,0.0,-45,0.0,1,0,0,0,0,0,0,0,0,0,1,0,0,0,0,1
2024-08-27 19:28:20.488974571,0.0,0.0,0.0,0.0,-0.0012202804209664464,-0.0030412490013986826,-0.4979936182498932,500.0,500.0,500.0,1,1,2,0.0,0.0,0.0,0.0,0.0,0.0,0.0,-45,0.0,1,0,0,0,0,0,0,0,0,0,1,0,0,0,0,1
2024-08-27 19:28:20.594928741,0.0,0.0,0.0,0.0,-0.0013049610424786806,-0.002986098639667034,-0.4980447292327881,500.0,500.0,500.0,1,1,2,0.0,0.0,0.0,0.0,0.0,0.0,0.0,-45,0.0,1,0,0,0,0,0,0,0,0,0,1,0,0,0,0,1
2024-08-27 19:28:20.696567535,0.0,0.0,0.0,0.0,-0.0013049610424786806,-0.002986098639667034,-0.4980447292327881,500.0,500.0,500.0,0,1,2,0.0,0.0,0.0,0.0,0.0,0.0,0.0,-45,0.0,1,0,0,0,0,0,0,0,0,0,1,0,0,0,0,1
2024-08-27 19:28:20.798105717,0.0,0.0,0.0,0.0,-0.0012669428251683712,-0.0029336889274418354,-0.4981602728366852,500.0,500.0,500.0,0,1,2,0.0,0.0,0.0,0.0,0.0,0.0,0.0,-45,0.0,1,0,0,0,0,0,0,0,0,0,1,0,0,0,0,1
2024-08-27 19:28:20.898337603,0.0,0.0,0.0,0.0,-0.0012669428251683712,-0.0029336889274418354,-0.4981602728366852,500.0,500.0,500.0,0,1,2,0.0,0.0,0.0,0.0,0.0,0.0,0.0,-45,0.0,1,0,0,0,0,0,0,0,0,0,1,0,0,0,0,1
2024-08-27 19:28:20.999374866,0.0,0.0,0.0,0.0,-0.001276280265301466,-0.0026786879170686007,-0.49822351336479187,500.0,500.0,500.0,0,1,2,0.0,0.0,0.0,0.0,0.0,0.0,0.0,-44,0.0,1,0,0,0,0,0,0,0,0,0,1,0,0,0,0,1
2024-08-27 19:28:21.100101709,0.0,0.0,0.0,0.0,-0.001276280265301466,-0.0026786879170686007,-0.49822351336479187,500.0,500.0,500.0,0,1,2,0.0,0.0,0.0,0.0,0.0,0.0,0.0,-44,0.0,1,0,0,0,0,0,0,0,0,0,1,0,0,0,0,1
2024-08-27 19:28:21.201964855,0.0,0.0,0.0,0.0,-0.0012977650621905923,-0.0027988161891698837,-0.4983294904232025,500.0,500.0,500.0,0,1,2,0.0,0.0,0.0,0.0,0.0,0.0,0.0,-44,0.0,1,0,0,0,0,0,0,0,0,0,1,0,0,0,0,1
2024-08-27 19:28:21.302497625,0.0,0.0,0.0,0.0,-0.0012977650621905923,-0.0027988161891698837,-0.4983294904232025,500.0,500.0,500.0,0,1,2,0.0,0.0,0.0,0.0,0.0,0.0,0.0,-44,0.0,1,0,0,0,0,0,0,0,0,0,1,0,0,0,0,1
2024-08-27 19:28:21.403019905,0.0,0.0,0.0,0.0,-0.0012597301974892616,-0.002968094777315855,-0.4984336793422699,500.0,500.0,500.0,0,1,2,0.0,0.0,0.0,0.0,0.0,0.0,0.0,-44,0.0,1,0,0,0,0,0,0,0,0,0,1,0,0,0,0,1
2024-08-27 19:28:21.503416300,0.0,0.0,0.0,0.0,-0.0012597301974892616,-0.002968094777315855,-0.4984336793422699,500.0,500.0,500.0,0,1,2,0.0,0.0,0.0,0.0,0.0,0.0,0.0,-44,0.0,1,0,0,0,0,0,0,0,0,0,1,0,0,0,0,1
2024-08-27 19:28:21.604033232,0.0,0.0,0.0,0.0,-0.0012411160860210657,-0.002957787597551942,-0.49846988916397095,500.0,500.0,500.0,0,1,2,0.0,0.0,0.0,0.0,0.0,0.0,0.0,-44,0.0,1,0,0,0,0,0,0,0,0,0,1,0,0,0,0,1
2024-08-27 19:28:21.704499006,0.0,0.0,0.0,0.0,-0.0012411160860210657,-0.002957787597551942,-0.49846988916397095,500.0,500.0,500.0,0,1,2,0.0,0.0,0.0,0.0,0.0,0.0,0.0,-44,0.0,1,0,0,0,0,0,0,0,0,0,1,0,0,0,0,1
2024-08-27 19:28:21.805558681,0.0,0.0,0.0,0.0,-0.0012202418874949217,-0.0029985597357153893,-0.49853596091270447,500.0,500.0,500.0,0,1,2,0.0,0.0,0.0,0.0,0.0,0.0,0.0,-44,0.0,1,0,0,0,0,0,0,0,0,0,1,0,0,0,0,1
2024-08-27 19:28:21.905741930,0.0,0.0,0.0,0.0,-0.0012202418874949217,-0.0029985597357153893,-0.49853596091270447,500.0,500.0,500.0,0,1,2,0.0,0.0,0.0,0.0,0.0,0.0,0.0,-44,0.0,1,0,0,0,0,0,0,0,0,0,1,0,0,0,0,1
2024-08-27 19:28:22.006112099,0.0,0.0,0.0,0.0,-0.001237123622559011,-0.002923467895016074,-0.4985702633857727,500.0,500.0,500.0,0,1,2,0.0,0.0,0.0,0.0,0.0,0.0,0.0,-44,0.0,1,0,0,0,0,0,0,0,0,0,1,0,0,0,0,1
2024-08-27 19:28:22.108467817,0.0,0.0,0.0,0.0,-0.001237123622559011,-0.002923467895016074,-0.4985702633857727,500.0,500.0,500.0,0,1,2,-22.004826666666666,-47.932683166666656,2.0,0.0,0.0,0.0,0.0,-44,0.0,1,0,0,0,0,0,0,0,0,0,0,0,0,1,0,1
2024-08-27 19:28:22.209371567,0.0,0.0,0.0,0.0,-0.0013604939449578524,-0.002920320490375161,-0.498674601316452,500.0,500.0,500.0,0,1,2,-22.004826666666666,-47.932683166666656,2.0,0.0,0.0,0.0,0.0,-44,0.0,1,0,0,0,0,0,0,0,0,0,0,0,0,1,0,1
2024-08-27 19:28:22.309645891,0.0,0.0,0.0,0.0,-0.0013604939449578524,-0.002920320490375161,-0.498674601316452,500.0,500.0,500.0,0,1,2,-22.004826666666666,-47.932683166666656,2.0,0.0,0.0,0.0,0.0,-44,0.0,1,0,0,0,0,0,0,0,0,0,0,0,0,1,0,1
2024-08-27 19:28:22.410512924,0.0,0.0,0.0,0.0,-0.0014342782087624073,-0.002855130238458514,-0.49872255325317383,500.0,500.0,500.0,0,1,2,-22.004826666666666,-47.932683166666656,2.0,0.0,0.0,0.0,0.0,-44,0.0,1,0,0,0,0,0,0,0,0,0,0,0,0,1,0,1
2024-08-27 19:28:22.515572308,0.0,0.0,0.0,0.0,-0.0014342782087624073,-0.002855130238458514,-0.49872255325317383,500.0,500.0,500.0,0,1,2,-22.004826666666666,-47.932683166666656,2.0,0.0,0.0,0.0,0.0,-44,0.0,1,0,0,0,0,0,0,0,0,0,0,0,0,1,0,1
2024-08-27 19:28:22.615914345,0.0,0.0,0.0,0.0,-0.0013052423018962145,-0.002946957480162382,-0.49876850843429565,500.0,500.0,500.0,0,1,2,-22.004826666666666,-47.932683166666656,2.0,0.0,0.0,0.0,0.0,-44,0.0,1,0,0,0,0,0,0,0,0,0,0,0,0,1,0,1
2024-08-27 19:28:22.716496706,0.0,0.0,0.0,0.0,-0.0013052423018962145,-0.002946957480162382,-0.49876850843429565,-22.00482683333332,-47.93268349999996,848.7999877929688,0,1,2,-22.004826666666666,-47.932683166666656,2.0,0.0,0.0,0.0,0.0,-44,0.0,1,0,0,0,0,0,0,0,0,0,0,0,0,1,0,1
2024-08-27 19:28:22.816868067,0.0,0.0,0.0,0.0,-0.0013955627800896764,-0.002948800567537546,-0.4988299012184143,-22.00482683333332,-47.93268349999996,848.7999877929688,0,1,2,-22.004826666666666,-47.932683166666656,2.0,0.0,0.0,0.0,0.0,-44,0.0,1,0,0,0,0,0,0,0,0,0,0,0,0,1,0,1
2024-08-27 19:28:22.917110205,0.0,0.0,0.0,0.0,-0.0013955627800896764,-0.002948800567537546,-0.4988299012184143,-22.00482683333332,-47.93268349999996,848.7999877929688,0,1,2,-22.004826666666666,-47.932683166666656,2.0,0.0,0.0,0.0,0.0,-44,0.0,1,0,0,0,0,0,0,0,0,0,0,0,0,1,0,1
2024-08-27 19:28:23.017999887,0.0,0.0,0.0,0.0,-0.0010292635997757316,-0.0031460451427847147,-0.49886688590049744,-22.00482683333332,-47.93268349999996,848.7999877929688,0,1,2,-22.004826666666666,-47.932683166666656,2.0,0.0,0.0,0.0,0.0,-44,0.0,1,0,0,0,0,0,0,0,0,0,0,0,0,1,0,1
2024-08-27 19:28:23.118407488,0.0,0.0,0.0,0.0,-0.0010292635997757316,-0.0031460451427847147,-0.49886688590049744,-22.00482699999997,-47.93268349999996,848.7999877929688,0,1,1,-22.004826666666666,-47.932683166666656,2.0,0.0,0.0,0.0,0.0,-44,0.0,1,0,0,0,0,0,0,0,0,0,0,0,0,1,0,1
2024-08-27 19:28:23.221435308,0.0,0.0,0.0,0.0,-0.0011509149335324764,-0.0032195844687521458,-0.49897080659866333,-22.00482699999997,-47.93268349999996,848.7999877929688,0,1,1,-22.004826666666666,-47.932683166666656,2.0,0.0,0.0,0.0,0.0,-44,0.0,1,0,0,0,0,0,0,0,0,0,0,0,0,1,0,1
2024-08-27 19:28:23.321742296,0.0,0.0,0.0,0.0,-0.0011509149335324764,-0.0032195844687521458,-0.49897080659866333,-22.00482699999997,-47.93268349999996,848.7999877929688,0,1,1,-22.004826666666666,-47.932683166666656,2.0,0.0,0.0,0.0,0.0,-44,0.0,1,0,0,0,0,0,0,0,0,0,0,0,0,1,0,1
2024-08-27 19:28:23.425882101,0.0,0.0,0.0,0.0,-0.0013183141127228737,-0.003145038615912199,-0.4990173876285553,-22.00482699999997,-47.93268349999996,848.7999877929688,0,1,1,-22.004826666666666,-47.932683166666656,2.0,0.0,0.0,0.0,0.0,-44,0.0,1,0,0,0,0,0,0,0,0,0,0,0,0,1,0,1
2024-08-27 19:28:23.526834488,0.0,0.0,0.0,0.0,-0.0013183141127228737,-0.003145038615912199,-0.4990173876285553,-22.00482699999997,-47.93268349999996,848.7999877929688,0,1,1,-22.004826666666666,-47.932683166666656,2.0,0.0,0.0,0.0,0.0,-44,0.0,1,0,0,0,0,0,0,0,0,0,0,0,0,1,0,1
2024-08-27 19:28:23.629661798,0.0,0.0,0.0,0.0,-0.0012874568346887827,-0.0029737912118434906,-0.4990675449371338,-22.00482699999997,-47.93268349999996,848.7999877929688,0,1,1,-22.004826666666666,-47.932683166666656,2.0,0.0,0.0,0.0,0.0,-44,0.0,1,0,0,0,0,0,0,0,0,0,0,0,0,1,0,1
2024-08-27 19:28:23.731242180,0.0,0.0,0.0,0.0,-0.0012874568346887827,-0.0029737912118434906,-0.4990675449371338,-22.004827166666608,-47.932683666666634,848.7000122070312,0,1,1,-22.004826666666666,-47.932683166666656,2.0,0.0,0.0,0.0,0.0,-44,0.0,1,0,0,0,0,0,0,0,0,0,0,0,0,1,0,1
2024-08-27 19:28:23.832034588,0.0,0.0,0.0,0.0,-0.001394262770190835,-0.0028443140909075737,-0.4991961121559143,-22.004827166666608,-47.932683666666634,848.7000122070312,0,1,1,-22.004826666666666,-47.932683166666656,2.0,0.0,0.0,0.0,0.0,-44,0.0,1,0,0,0,0,0,0,0,0,0,0,0,0,1,0,1
2024-08-27 19:28:23.935664892,0.0,0.0,0.0,0.0,-0.0012016657274216413,-0.002779373899102211,-0.4992251694202423,-22.004827166666608,-47.932683666666634,848.7000122070312,0,1,1,-22.004826666666666,-47.932683166666656,2.0,0.0,0.0,0.0,0.0,-44,0.0,1,0,0,0,0,0,0,0,0,0,0,0,0,1,0,1
2024-08-27 19:28:24.039927244,0.0,0.0,0.0,0.0,-0.0012016657274216413,-0.002779373899102211,-0.4992251694202423,-22.004827166666608,-47.932683666666634,848.7000122070312,0,1,1,-22.004826666666666,-47.932683166666656,2.0,0.0,0.0,0.0,0.0,-44,0.0,1,0,0,0,0,0,0,0,0,0,0,0,0,1,0,1
2024-08-27 19:28:24.141156435,0.0,0.0,0.0,0.0,-0.0012016657274216413,-0.002779373899102211,-0.4992251694202423,-22.004827333333274,-47.932683666666634,848.7000122070312,0,1,1,-22.004826666666666,-47.932683166666656,2.0,0.0,0.0,0.0,0.0,-44,0.0,1,0,0,0,0,0,0,0,0,0,0,0,0,1,0,1
2024-08-27 19:28:24.241621494,0.0,0.0,0.0,0.0,-0.001328634680248797,-0.002862332621589303,-0.4993579089641571,-22.004827333333274,-47.932683666666634,848.7000122070312,0,1,1,-22.004826666666666,-47.932683166666656,2.0,0.0,0.0,0.0,0.0,-44,0.0,1,0,0,0,0,0,0,0,0,0,0,0,0,1,0,1
2024-08-27 19:28:24.342010021,0.0,0.0,0.0,0.0,-0.0013525718823075294,-0.002780723152682185,-0.49935877323150635,-22.004827333333274,-47.932683666666634,848.7000122070312,0,1,1,-22.004826666666666,-47.932683166666656,2.0,0.0,0.0,0.0,0.0,-44,0.0,1,0,0,0,0,0,0,0,0,0,0,0,0,1,0,1
2024-08-27 19:28:24.447666168,0.0,0.0,0.0,0.0,-0.0013525718823075294,-0.002780723152682185,-0.49935877323150635,-22.004827333333274,-47.932683666666634,848.7000122070312,0,1,1,-22.004826666666666,-47.932683166666656,2.0,0.0,0.0,0.0,0.0,-44,0.0,1,0,0,0,0,0,0,0,0,0,0,0,0,1,0,1
2024-08-27 19:28:24.548115015,0.0,0.0,0.0,0.0,-0.0013601138489320874,-0.0029929233714938164,-0.4994119107723236,-22.004827333333274,-47.932683666666634,848.7000122070312,0,1,1,-22.004826666666666,-47.932683166666656,2.0,0.0,0.0,0.0,0.0,-44,0.0,1,0,0,0,0,0,0,0,0,0,0,0,0,1,0,1
2024-08-27 19:28:24.648947954,0.0,0.0,0.0,0.0,-0.0013601138489320874,-0.0029929233714938164,-0.4994119107723236,-22.004827333333274,-47.932683666666634,848.7000122070312,0,1,1,-22.004826666666666,-47.932683166666656,2.0,0.0,0.0,0.0,0.0,-44,0.0,1,0,0,0,0,0,0,0,0,0,0,0,0,1,0,1
2024-08-27 19:28:24.751404762,0.0,0.0,0.0,0.0,-0.0013601138489320874,-0.0029929233714938164,-0.4994119107723236,-22.004827333333274,-47.93268383333334,848.7000122070312,0,1,1,-22.004826666666666,-47.932683166666656,2.0,0.0,0.0,0.0,0.0,-44,0.0,1,0,0,0,0,0,0,0,0,0,0,0,0,1,0,1
2024-08-27 19:28:24.859230757,0.0,0.0,0.0,0.0,-0.001355994725599885,-0.002944061765447259,-0.4994646906852722,-22.004827333333274,-47.93268383333334,848.7000122070312,0,1,1,-22.004826666666666,-47.932683166666656,2.0,0.0,0.0,0.0,0.0,-44,0.0,1,0,0,0,0,0,0,0,0,0,0,0,0,1,0,1
2024-08-27 19:28:24.959645510,0.0,0.0,0.0,0.0,-0.001423944951966405,-0.002969782566651702,-0.4994799494743347,-22.004827333333274,-47.93268383333334,848.7000122070312,0,1,1,-22.004826666666666,-47.932683166666656,2.0,0.0,0.0,0.0,0.0,-44,0.0,1,0,0,0,0,0,0,0,0,0,0,0,0,1,0,1
2024-08-27 19:28:25.060338497,0.0,0.0,0.0,0.0,-0.001423944951966405,-0.002969782566651702,-0.4994799494743347,-22.004827333333274,-47.93268383333334,848.7000122070312,0,1,1,-22.004826666666666,-47.932683166666656,2.0,0.0,0.0,0.0,0.0,-44,0.0,1,0,0,0,0,0,0,0,0,0,0,0,0,1,0,1
2024-08-27 19:28:25.166145563,0.0,0.0,0.0,0.0,-0.0015258344355970621,-0.002725248457863927,-0.4994662404060364,-22.00482766666655,-47.932683666666634,848.7000122070312,0,1,1,-22.004826666666666,-47.932683166666656,2.0,0.0,0.0,0.0,0.0,-44,0.0,1,0,0,0,0,0,0,0,0,0,0,0,0,1,0,1
2024-08-27 19:28:25.269071817,0.0,0.0,0.0,0.0,-0.0015258344355970621,-0.002725248457863927,-0.4994662404060364,-22.00482766666655,-47.932683666666634,848.7000122070312,0,1,1,-22.004826666666666,-47.932683166666656,2.0,0.0,0.0,0.0,0.0,-44,0.0,1,0,0,0,0,0,0,0,0,0,0,0,0,1,0,1
2024-08-27 19:28:25.370273352,0.0,0.0,0.0,0.0,-0.0015639123739674687,-0.002659029560163617,-0.4994437098503113,-22.00482766666655,-47.932683666666634,848.7000122070312,0,1,1,-22.004826666666666,-47.932683166666656,2.0,0.0,0.0,0.0,0.0,-44,0.0,1,0,0,0,0,0,0,0,0,0,0,0,0,1,0,1
2024-08-27 19:28:25.471202374,0.0,0.0,0.0,0.0,-0.0015639123739674687,-0.002659029560163617,-0.4994437098503113,-22.00482766666655,-47.932683666666634,848.7000122070312,0,1,1,-22.004826666666666,-47.932683166666656,2.0,0.0,0.0,0.0,0.0,-44,0.0,1,0,0,0,0,0,0,0,0,0,0,0,0,1,0,1
2024-08-27 19:28:25.574184418,0.0,0.0,0.0,0.0,-0.0016165436245501041,-0.002638676203787327,-0.4994472861289978,-22.00482766666655,-47.932683666666634,848.7000122070312,0,1,1,-22.004826666666666,-47.932683166666656,2.0,0.0,0.0,0.0,0.0,-44,0.0,1,0,0,0,0,0,0,0,0,0,0,0,0,1,0,1
2024-08-27 19:28:25.675354958,0.0,0.0,0.0,0.0,-0.0016165436245501041,-0.002638676203787327,-0.4994472861289978,-22.00482766666655,-47.932683666666634,848.7000122070312,0,1,1,-22.004826666666666,-47.932683166666656,2.0,0.0,0.0,0.0,0.0,-44,0.0,1,0,0,0,0,0,0,0,0,0,0,0,0,1,0,1
2024-08-27 19:28:25.775603533,0.0,0.0,0.0,0.0,-0.001719283638522029,-0.002892612712457776,-0.4994848966598511,-22.004827999999883,-47.932683999999945,848.5999755859375,0,1,1,-22.004826666666666,-47.932683166666656,2.0,0.0,0.0,0.0,0.0,-44,0.0,1,0,0,0,0,0,0,0,0,0,0,0,0,1,0,1
2024-08-27 19:28:25.876112938,0.0,0.0,0.0,0.0,-0.001719283638522029,-0.002892612712457776,-0.4994848966598511,-22.004827999999883,-47.932683999999945,848.5999755859375,0,1,1,-22.004826666666666,-47.932683166666656,2.0,0.0,0.0,0.0,0.0,-44,0.0,1,0,0,0,0,0,0,0,0,0,0,0,0,1,0,1
2024-08-27 19:28:25.977421284,0.0,0.0,0.0,0.0,-0.0016348958015441895,-0.002839156426489353,-0.49952101707458496,-22.004827999999883,-47.932683999999945,848.5999755859375,0,1,1,-22.004826666666666,-47.932683166666656,2.0,0.0,0.0,0.0,0.0,-44,0.0,1,0,0,0,0,0,0,0,0,0,0,0,0,1,0,1
2024-08-27 19:28:26.080626488,0.0,0.0,0.0,0.0,-0.0016348958015441895,-0.002839156426489353,-0.49952101707458496,-22.004827999999883,-47.932683999999945,848.5999755859375,0,1,1,-22.004826666666666,-47.932683166666656,2.0,0.0,0.0,0.0,0.0,-44,0.0,1,0,0,0,0,0,0,0,0,0,0,0,0,1,0,1
2024-08-27 19:28:26.182079315,0.0,0.0,0.0,0.0,-0.001666460419073701,-0.0029072067700326443,-0.4995851218700409,-22.004828166666606,-47.93268416666661,848.5999755859375,0,1,1,-22.004826666666666,-47.932683166666656,2.0,0.0,0.0,0.0,0.0,-44,0.0,1,0,0,0,0,0,0,0,0,0,0,0,0,1,0,1
2024-08-27 19:28:26.287087202,0.0,0.0,0.0,0.0,-0.001666460419073701,-0.0029072067700326443,-0.4995851218700409,-22.004828166666606,-47.93268416666661,848.5999755859375,0,1,1,-22.004826666666666,-47.932683166666656,2.0,0.0,0.0,0.0,0.0,-44,0.0,1,0,0,0,0,0,0,0,0,0,0,0,0,1,0,1
2024-08-27 19:28:26.387648582,0.0,0.0,0.0,0.0,-0.0016398588195443153,-0.00273359683342278,-0.4995545744895935,-22.004828166666606,-47.93268416666661,848.5999755859375,0,1,1,-22.004826666666666,-47.932683166666656,2.0,0.0,0.0,0.0,0.0,-44,0.0,1,0,0,0,0,0,0,0,0,0,0,0,0,1,0,1
2024-08-27 19:28:26.490652323,0.0,0.0,0.0,0.0,-0.0016398588195443153,-0.00273359683342278,-0.4995545744895935,-22.004828166666606,-47.93268416666661,848.5999755859375,0,1,1,-22.004826666666666,-47.932683166666656,2.0,0.0,0.0,0.0,0.0,-44,0.0,1,0,0,0,0,0,0,0,0,0,0,0,0,1,0,1
2024-08-27 19:28:26.592155695,0.0,0.0,0.0,0.0,-0.0014430716400966048,-0.0027635388541966677,-0.49955254793167114,-22.004828166666606,-47.93268416666661,848.5999755859375,0,1,1,-22.004826666666666,-47.932683166666656,2.0,0.0,0.0,0.0,0.0,-44,0.0,1,0,0,0,0,0,0,0,0,0,0,0,0,1,0,1
2024-08-27 19:28:26.692391396,0.0,0.0,0.0,0.0,-0.0014430716400966048,-0.0027635388541966677,-0.49955254793167114,-22.004828499999824,-47.932684333333285,848.5,0,1,1,-22.004826666666666,-47.932683166666656,2.0,0.0,0.0,0.0,0.0,-44,0.0,1,0,0,0,0,0,0,0,0,0,0,0,0,1,0,1
2024-08-27 19:28:26.792819977,0.0,0.0,0.0,0.0,-0.0015384412836283445,-0.0027684958186000586,-0.49962738156318665,-22.004828499999824,-47.932684333333285,848.5,0,1,1,-22.004826666666666,-47.932683166666656,2.0,0.0,0.0,0.0,0.0,-44,0.0,1,0,0,0,0,0,0,0,0,0,0,0,0,1,0,1
2024-08-27 19:28:26.926568508,0.0,0.0,0.0,0.0,-0.0015384412836283445,-0.0027684958186000586,-0.49962738156318665,-22.004828499999824,-47.932684333333285,848.5,0,1,1,-22.004826666666666,-47.932683166666656,2.0,0.0,0.0,0.0,0.0,-44,0.0,1,0,0,0,0,0,0,0,0,0,0,0,0,1,0,1
2024-08-27 19:28:27.027044773,0.0,0.0,0.0,0.0,-0.0014705740613862872,-0.0028106130193918943,-0.499586820602417,-22.004828499999824,-47.932684333333285,848.5,0,1,1,-22.004826666666666,-47.932683166666656,2.0,0.0,0.0,0.0,0.0,-44,94.0,1,0,0,0,0,0,0,0,0,0,0,0,0,1,0,1
2024-08-27 19:28:27.132071018,0.0,0.0,0.0,0.0,-0.0014705740613862872,-0.0028106130193918943,-0.499586820602417,-22.004828833333157,-47.9326846666667,848.4000244140625,0,1,1,-22.004826666666666,-47.932683166666656,2.0,0.0,0.0,0.0,0.0,-44,94.0,1,0,0,0,0,0,0,0,0,0,0,0,0,1,0,1
2024-08-27 19:28:27.233701229,0.0,0.0,0.0,0.0,-0.001640738220885396,-0.0026103879790753126,-0.4995947480201721,-22.004828833333157,-47.9326846666667,848.4000244140625,0,1,1,-22.004826666666666,-47.932683166666656,2.0,0.0,0.0,0.0,0.0,-44,94.0,1,0,0,0,0,0,0,0,0,0,0,0,0,1,0,1
2024-08-27 19:28:27.334044218,0.0,0.0,0.0,0.0,-0.0016222401754930615,-0.002445240505039692,-0.4996122717857361,-22.004828833333157,-47.9326846666667,848.4000244140625,0,1,1,-22.004826666666666,-47.932683166666656,2.0,0.0,0.0,0.0,0.0,-44,94.0,1,0,0,0,0,0,0,0,0,0,0,0,0,1,0,1
2024-08-27 19:28:27.442310095,0.0,0.0,0.0,0.0,-0.0016222401754930615,-0.002445240505039692,-0.4996122717857361,-22.004828833333157,-47.9326846666667,848.4000244140625,0,1,1,-22.004826666666666,-47.932683166666656,2.0,0.0,0.0,0.0,0.0,-44,94.0,1,0,0,0,0,0,0,0,0,0,0,0,0,1,0,1
2024-08-27 19:28:27.546457291,0.0,0.0,0.0,0.0,-0.001560581149533391,-0.002428718376904726,-0.49956297874450684,-22.004828833333157,-47.9326846666667,848.4000244140625,0,1,1,-22.004826666666666,-47.932683166666656,2.0,0.0,0.0,0.0,0.0,-44,94.0,1,0,0,0,0,0,0,0,0,0,0,0,0,1,0,1
2024-08-27 19:28:27.651774406,0.0,0.0,0.0,0.0,-0.001560581149533391,-0.002428718376904726,-0.49956297874450684,-22.004828833333157,-47.9326846666667,848.4000244140625,0,1,1,-22.004826666666666,-47.932683166666656,2.0,0.0,0.0,0.0,0.0,-44,94.0,1,0,0,0,0,0,0,0,0,0,0,0,0,1,0,1
2024-08-27 19:28:27.760633230,0.0,0.0,0.0,0.0,-0.001560581149533391,-0.002428718376904726,-0.49956297874450684,-22.004829166666603,-47.9326846666667,848.4000244140625,0,1,1,-22.004826666666666,-47.932683166666656,2.0,0.0,0.0,0.0,0.0,-44,94.0,1,0,0,0,0,0,0,0,0,0,0,0,0,1,0,1
2024-08-27 19:28:27.861575365,0.0,0.0,0.0,0.0,-0.001645098440349102,-0.0024959540460258722,-0.4995478689670563,-22.004829166666603,-47.9326846666667,848.4000244140625,0,1,1,-22.004826666666666,-47.932683166666656,2.0,0.0,0.0,0.0,0.0,-44,94.0,1,0,0,0,0,0,0,0,0,0,0,0,0,1,0,1
2024-08-27 19:28:27.961949110,0.0,0.0,0.0,0.0,-0.001903789583593607,-0.0023022666573524475,-0.49956804513931274,-22.004829166666603,-47.9326846666667,848.4000244140625,0,1,1,-22.004826666666666,-47.932683166666656,2.0,0.0,0.0,0.0,0.0,-44,94.0,1,0,0,0,0,0,0,0,0,0,0,0,0,1,0,1
2024-08-27 19:28:28.081541777,0.0,0.0,0.0,0.0,-0.001903789583593607,-0.0023022666573524475,-0.49956804513931274,-22.004829166666603,-47.9326846666667,848.4000244140625,0,1,1,-22.004826666666666,-47.932683166666656,2.0,0.0,0.0,0.0,0.0,-44,94.0,1,0,0,0,0,0,0,0,0,0,0,0,0,1,0,1
2024-08-27 19:28:28.187123060,0.0,0.0,0.0,0.0,-0.0017848301213234663,-0.002293721539899707,-0.4995739161968231,-22.004829499999822,-47.9326846666667,848.2999877929688,0,1,1,-22.004826666666666,-47.932683166666656,2.0,0.0,0.0,0.0,0.0,-44,94.0,1,0,0,0,0,0,0,0,0,0,0,0,0,1,0,1
2024-08-27 19:28:28.328914642,0.0,0.0,0.0,0.0,-0.0017848301213234663,-0.002293721539899707,-0.4995739161968231,-22.004829499999822,-47.9326846666667,848.2999877929688,0,1,1,-22.004826666666666,-47.932683166666656,2.0,0.0,0.0,0.0,0.0,-44,94.0,1,0,0,0,0,0,0,0,0,0,0,0,0,1,0,1
2024-08-27 19:28:28.430061102,0.0,0.0,0.0,0.0,-0.001548892934806645,-0.002515721833333373,-0.4995554983615875,-22.004829499999822,-47.9326846666667,848.2999877929688,0,1,1,-22.004826666666666,-47.932683166666656,2.0,0.0,0.0,0.0,0.0,-44,94.0,1,0,0,0,0,0,0,0,0,0,0,0,0,1,0,1
2024-08-27 19:28:28.546640396,0.0,0.0,0.0,0.0,-0.001369900070130825,-0.002605130895972252,-0.4995829164981842,-22.004829499999822,-47.9326846666667,848.2999877929688,0,1,1,-22.004826666666666,-47.932683166666656,2.0,0.0,0.0,0.0,0.0,-44,94.0,1,0,0,0,0,0,0,0,0,0,0,0,0,1,0,1
2024-08-27 19:28:28.653395414,0.0,0.0,0.0,0.0,-0.001369900070130825,-0.002605130895972252,-0.4995829164981842,-22.004829499999822,-47.9326846666667,848.2999877929688,0,1,1,-22.004826666666666,-47.932683166666656,2.0,0.0,0.0,0.0,0.0,-44,94.0,1,0,0,0,0,0,0,0,0,0,0,0,0,1,0,1
2024-08-27 19:28:28.786502361,0.0,0.0,0.0,0.0,-0.001369900070130825,-0.002605130895972252,-0.4995829164981842,-22.004829833333268,-47.93268483333323,848.2000122070312,0,1,1,-22.004826666666666,-47.932683166666656,2.0,0.0,0.0,0.0,0.0,-44,94.0,1,0,0,0,0,0,0,0,0,0,0,0,0,1,0,1
2024-08-27 19:28:28.890024900,0.0,0.0,0.0,0.0,-0.0015130197862163186,-0.002792604733258486,-0.4995345175266266,-22.004829833333268,-47.93268483333323,848.2000122070312,0,1,1,-22.004826666666666,-47.932683166666656,2.0,0.0,0.0,0.0,0.0,-44,94.0,1,0,0,0,0,0,0,0,0,0,0,0,0,1,0,1
2024-08-27 19:28:28.990797758,0.0,0.0,0.0,0.0,-0.0015146147925406694,-0.0030132108367979527,-0.4995309114456177,-22.004829833333268,-47.93268483333323,848.2000122070312,0,1,1,-22.004826666666666,-47.932683166666656,2.0,0.0,0.0,0.0,0.0,-44,94.0,1,0,0,0,0,0,0,0,0,0,0,0,0,1,0,1
2024-08-27 19:28:29.141087055,0.0,0.0,0.0,0.0,-0.0015146147925406694,-0.0030132108367979527,-0.4995309114456177,-22.004829833333268,-47.93268483333323,848.2000122070312,0,1,1,-22.004826666666666,-47.932683166666656,2.0,0.0,0.0,0.0,0.0,-44,94.0,1,0,0,0,0,0,0,0,0,0,0,0,0,1,0,1
2024-08-27 19:28:29.242728233,0.0,0.0,0.0,0.0,-0.0016913632862269878,-0.0026865999680012465,-0.4995453953742981,-22.004829833333268,-47.93268483333323,848.2000122070312,0,1,1,-22.004826666666666,-47.932683166666656,2.0,0.0,0.0,0.0,0.0,-44,94.0,1,0,0,0,0,0,0,0,0,0,0,0,0,1,0,1
2024-08-27 19:28:29.343316793,0.0,0.0,0.0,0.0,-0.0016913632862269878,-0.0026865999680012465,-0.4995453953742981,-22.004829833333268,-47.93268483333323,848.2000122070312,0,1,1,-22.004826666666666,-47.932683166666656,2.0,0.0,0.0,0.0,0.0,-44,94.0,1,0,0,0,0,0,0,0,0,0,0,0,0,1,0,1
2024-08-27 19:28:29.464627504,0.0,0.0,0.0,0.0,-0.0017261893954128027,-0.002771498402580619,-0.499625027179718,-22.004829833333268,-47.93268483333323,848.2000122070312,0,1,1,-22.004826666666666,-47.932683166666656,2.0,0.0,0.0,0.0,0.0,-44,94.0,1,0,0,0,0,0,0,0,0,0,0,0,0,1,0,1
2024-08-27 19:28:29.568706751,0.0,0.0,0.0,0.0,-0.0017018471844494343,-0.0027249432168900967,-0.49961382150650024,-22.004829833333268,-47.93268483333323,848.2000122070312,0,1,1,-22.004826666666666,-47.932683166666656,2.0,0.0,0.0,0.0,0.0,-44,94.0,1,0,0,0,0,0,0,0,0,0,0,0,0,1,0,1
2024-08-27 19:28:29.702052355,0.0,0.0,0.0,0.0,-0.0017018471844494343,-0.0027249432168900967,-0.49961382150650024,-22.004829666666545,-47.93268516666657,848.2000122070312,0,1,1,-22.004826666666666,-47.932683166666656,2.0,0.0,0.0,0.0,0.0,-44,94.0,1,0,0,0,0,0,0,0,0,0,0,0,0,1,0,1
2024-08-27 19:28:29.802450180,0.0,0.0,0.0,0.0,-0.0015806397423148155,-0.002561628120020032,-0.49962788820266724,-22.004829666666545,-47.93268516666657,848.2000122070312,0,1,1,-22.004826666666666,-47.932683166666656,2.0,0.0,0.0,0.0,0.0,-44,94.0,1,0,0,0,0,0,0,0,0,0,0,0,0,1,0,1
2024-08-27 19:28:29.903675795,0.0,0.0,0.0,0.0,-0.0015806397423148155,-0.002561628120020032,-0.49962788820266724,-22.004829666666545,-47.93268516666657,848.2000122070312,0,1,1,-22.004826666666666,-47.932683166666656,2.0,0.0,0.0,0.0,0.0,-44,94.0,1,0,0,0,0,0,0,0,0,0,0,0,0,1,0,1
2024-08-27 19:28:30.003926515,0.0,0.0,0.0,0.0,-0.0017468018922954798,-0.0025319659616798162,-0.4996693432331085,-22.004829666666545,-47.93268516666657,848.2000122070312,0,1,1,-22.004826666666666,-47.932683166666656,2.0,0.0,0.0,0.0,0.0,-44,94.0,1,0,0,0,0,0,0,0,0,0,0,0,0,1,0,0
2024-08-27 19:28:30.105170250,0.0,0.0,0.0,0.0,-0.0017468018922954798,-0.0025319659616798162,-0.4996693432331085,-22.004829833333268,-47.93268533333325,848.0999755859375,0,1,1,-22.004826666666666,-47.932683166666656,2.0,0.0,0.0,0.0,0.0,-44,94.0,1,0,0,0,0,0,0,0,0,0,0,0,0,1,0,0
2024-08-27 19:28:30.210394859,0.0,0.0,0.0,0.0,-0.00160023698117584,-0.002674223855137825,-0.49974849820137024,-22.004829833333268,-47.93268533333325,848.0999755859375,0,1,1,-22.004826666666666,-47.932683166666656,2.0,0.0,0.0,0.0,0.0,-44,94.0,1,0,0,0,0,0,0,0,0,0,0,0,0,1,0,0
2024-08-27 19:28:30.321168184,0.0,0.0,0.0,0.0,-0.00160023698117584,-0.002674223855137825,-0.49974849820137024,-22.004829833333268,-47.93268533333325,848.0999755859375,0,1,1,-22.004826666666666,-47.932683166666656,2.0,0.0,0.0,0.0,0.0,-44,94.0,0,0,0,0,0,0,0,0,1,0,0,0,0,1,0,0
2024-08-27 19:28:30.422217369,0.0,0.0,0.0,0.0,-0.0015821967972442508,-0.0026345348451286554,-0.4997248649597168,-22.004829833333268,-47.93268533333325,848.0999755859375,0,1,1,-22.004826666666666,-47.932683166666656,2.0,0.0,0.0,0.0,0.0,-44,94.0,0,0,0,0,0,0,0,0,1,0,0,0,0,1,0,0
2024-08-27 19:28:30.529948950,0.0,0.0,0.0,0.0,-0.0015821967972442508,-0.0026345348451286554,-0.4997248649597168,-22.004829833333268,-47.93268533333325,848.0999755859375,0,1,1,-22.004826666666666,-47.932683166666656,2.0,0.0,0.0,0.0,0.0,-45,94.0,0,0,0,0,0,0,0,0,1,0,0,0,0,1,0,0
2024-08-27 19:28:30.632621288,0.0,0.0,0.0,0.0,-0.0011532790958881378,-0.002960383426398039,-0.4974658489227295,-22.004829833333268,-47.93268533333325,848.0999755859375,0,1,1,-22.004826666666666,-47.932683166666656,2.0,0.0,0.0,0.0,0.0,-45,94.0,0,0,0,0,0,0,0,0,1,0,0,0,0,1,0,0
2024-08-27 19:28:30.733309507,0.0,0.0,0.0,0.0,-0.0011532790958881378,-0.002960383426398039,-0.4974658489227295,-22.00483383333303,-47.9326745000003,849.7000122070312,0,1,1,-22.004826666666666,-47.932683166666656,2.0,0.0,0.0,0.0,0.0,-45,94.0,0,0,0,0,0,0,0,0,1,0,0,0,0,1,0,0
2024-08-27 19:28:30.833748817,0.0,0.0,0.0,0.0,-0.001630662940442562,-0.003051210194826126,-0.5005155801773071,-22.00483383333303,-47.9326745000003,849.7000122070312,0,1,1,-22.004826666666666,-47.932683166666656,2.0,0.0,0.0,0.0,0.0,-45,94.0,0,0,0,0,0,0,0,0,1,0,0,0,0,1,0,0
2024-08-27 19:28:30.945822954,0.0,0.0,0.0,0.0,-0.001630662940442562,-0.003051210194826126,-0.5005155801773071,-22.00483383333303,-47.9326745000003,849.7000122070312,0,1,1,-22.004826666666666,-47.932683166666656,2.0,0.0,0.0,0.0,0.0,-45,94.0,0,0,0,0,0,0,0,0,1,0,0,0,0,1,0,0
2024-08-27 19:28:31.047027111,0.0,0.0,0.0,0.0,-0.0015785596333444118,-0.003163214074447751,-0.49987292289733887,-22.00483383333303,-47.9326745000003,849.7000122070312,0,1,1,-22.004826666666666,-47.932683166666656,2.0,0.0,0.0,0.0,0.0,-45,94.0,0,0,0,0,0,0,0,0,1,0,0,0,0,1,0,0
2024-08-27 19:28:31.156334639,0.0,0.0,0.0,0.0,-0.0015785596333444118,-0.003163214074447751,-0.49987292289733887,-22.00483533333263,-47.932669833334074,850.4000244140625,0,0,1,-22.004826666666666,-47.932683166666656,2.0,0.0,0.0,0.0,0.0,-45,94.0,0,0,0,0,0,0,0,0,1,0,0,0,0,1,0,0
2024-08-27 19:28:31.257752419,0.0,0.0,0.0,0.0,-0.0014118527760729194,-0.00267483270727098,-0.49955251812934875,-22.00483533333263,-47.932669833334074,850.4000244140625,0,0,1,-22.004826666666666,-47.932683166666656,2.0,0.0,0.0,0.0,0.0,-45,94.0,0,0,0,0,0,0,0,0,1,0,0,0,0,1,0,0
2024-08-27 19:28:31.374871254,0.0,0.0,0.0,0.0,-0.0009931636741384864,-0.0025735876988619566,-0.4988867938518524,-22.00483533333263,-47.932669833334074,850.4000244140625,0,0,1,-22.004826666666666,-47.932683166666656,2.0,0.0,0.0,0.0,0.0,-45,94.0,0,0,0,0,0,0,0,0,1,0,0,0,0,1,0,0
2024-08-27 19:28:31.511217833,0.0,0.0,0.0,0.0,-0.0009931636741384864,-0.0025735876988619566,-0.4988867938518524,-22.00483533333263,-47.932669833334074,850.4000244140625,0,0,1,-22.004826666666666,-47.932683166666656,2.0,0.0,0.0,0.0,0.0,-45,94.0,0,0,0,0,0,0,0,0,1,0,0,0,0,1,0,0
2024-08-27 19:28:31.611473083,0.0,0.0,0.0,0.0,-0.0003617821785155684,-0.0029270732775330544,-0.49640363454818726,-22.00483533333263,-47.932669833334074,850.4000244140625,0,0,1,-22.004826666666666,-47.932683166666656,2.0,0.0,0.0,0.0,0.0,-45,94.0,0,0,0,0,0,0,0,0,1,0,0,0,0,1,0,0
2024-08-27 19:28:31.719868183,0.0,0.0,0.0,0.0,-0.0003617821785155684,-0.0029270732775330544,-0.49640363454818726,-22.004836333332968,-47.93266533333423,851.0999755859375,0,0,1,-22.004826666666666,-47.932683166666656,2.0,0.0,0.0,0.0,0.0,-45,94.0,0,0,1,0,0,0,0,0,0,0,0,0,0,1,0,0
2024-08-27 19:28:31.821082354,0.052620094269514084,-0.014335060492157936,-0.16987667977809906,0.010405679233372211,0.005093525163829327,0.0011847688583657146,-0.49365031719207764,-22.004836333332968,-47.93266533333423,851.0999755859375,0,0,1,-22.004826666666666,-47.932683166666656,2.0,0.0,0.0,0.0,0.0,-45,93.0,0,0,1,0,0,0,0,0,0,0,0,0,0,1,0,0
2024-08-27 19:28:31.956976891,0.19417667388916016,-0.017583748325705528,-0.37305495142936707,0.06416308134794235,0.005093525163829327,0.0011847688583657146,-0.49365031719207764,-22.004836333332968,-47.93266533333423,851.0999755859375,0,0,1,-22.004826666666666,-47.932683166666656,2.0,0.0,0.0,0.0,0.0,-45,93.0,0,0,1,0,0,0,0,0,0,0,0,0,0,1,0,0
2024-08-27 19:28:32.064345121,0.19417667388916016,-0.017583748325705528,-0.37305495142936707,0.06416308134794235,-0.004007281735539436,0.003643445437774062,-0.49742767214775085,-22.004836333332968,-47.93266533333423,851.0999755859375,0,0,1,-22.004826666666666,-47.932683166666656,2.0,0.0,0.0,0.0,0.0,-45,93.0,0,0,1,0,0,0,0,0,0,0,0,0,0,1,0,0
2024-08-27 19:28:32.166325092,0.24954169988632202,-0.06473708152770996,-0.687073290348053,0.06416308134794235,-0.004007281735539436,0.003643445437774062,-0.49742767214775085,-22.00483649999969,-47.93266416666781,851.5,0,0,1,-22.004826666666666,-47.932683166666656,2.0,0.0,0.0,0.0,0.0,-45,92.0,0,0,1,0,0,0,0,0,0,0,0,0,0,1,0,0
2024-08-27 19:28:32.267424822,0.24954169988632202,-0.06473708152770996,-0.687073290348053,0.17204590141773224,-0.03557225689291954,0.04310454800724983,-0.4911118447780609,-22.00483649999969,-47.93266416666781,851.5,0,0,1,-22.004826666666666,-47.932683166666656,2.0,0.0,0.0,0.0,0.0,-45,92.0,0,0,1,0,0,0,0,0,0,0,0,0,0,1,0,0
2024-08-27 19:28:32.368847847,0.23573142290115356,-0.06313329935073853,-0.8561350703239441,0.17204590141773224,-0.03557225689291954,0.04310454800724983,-0.4911118447780609,-22.00483649999969,-47.93266416666781,851.5,0,0,1,-22.004826666666666,-47.932683166666656,2.0,0.0,0.0,0.0,0.0,-45,92.0,0,0,1,0,0,0,0,0,0,0,0,0,0,1,0,0
2024-08-27 19:28:32.492166519,0.23573142290115356,-0.06313329935073853,-0.8561350703239441,0.333461731672287,-0.014775927178561687,0.08489324897527695,-0.4974389970302582,-22.00483649999969,-47.93266416666781,851.5,0,0,1,-22.004826666666666,-47.932683166666656,2.0,0.0,0.0,0.0,0.0,-45,91.0,0,0,1,0,0,0,0,0,0,0,0,0,0,1,0,0
2024-08-27 19:28:32.617553949,0.15353715419769287,-0.07552605122327805,-0.8781190514564514,0.5099797248840332,-0.023463133722543716,0.07997939735651016,-0.49783414602279663,-22.00483649999969,-47.93266416666781,851.5,0,0,1,-22.004826666666666,-47.932683166666656,2.0,0.0,0.0,0.0,0.0,-44,91.0,0,0,1,0,0,0,0,0,0,0,0,0,0,1,0,0
2024-08-27 19:28:32.748581171,0.15353715419769287,-0.07552605122327805,-0.8781190514564514,0.5099797248840332,-0.023463133722543716,0.07997939735651016,-0.49783414602279663,-22.004835499999352,-47.93266516666726,852.2000122070312,0,0,1,-22.004826666666666,-47.932683166666656,2.0,0.0,0.0,0.0,0.0,-44,91.0,0,0,1,0,0,0,0,0,0,0,0,0,0,1,0,0
2024-08-27 19:28:32.849140406,0.11750832200050354,-0.07546408474445343,-0.644677996635437,0.665555477142334,-0.01191098801791668,0.07136734575033188,-0.49661004543304443,-22.004835499999352,-47.93266516666726,852.2000122070312,0,0,1,-22.004826666666666,-47.932683166666656,2.0,0.0,0.0,0.0,0.0,-44,90.0,0,0,1,0,0,0,0,0,0,0,0,0,0,1,0,0
2024-08-27 19:28:32.953292370,0.09499095380306244,-0.08137418329715729,-0.42922326922416687,0.80063396692276,-0.01191098801791668,0.07136734575033188,-0.49661004543304443,-22.004835499999352,-47.93266516666726,852.2000122070312,0,0,1,-22.004826666666666,-47.932683166666656,2.0,0.0,0.0,0.0,0.0,-44,90.0,0,0,1,0,0,0,0,0,0,0,0,0,0,1,0,0
2024-08-27 19:28:33.053839922,0.09499095380306244,-0.08137418329715729,-0.42922326922416687,0.80063396692276,-0.011087773367762566,0.07310714572668076,-0.49684175848960876,-22.004835499999352,-47.93266516666726,852.2000122070312,0,0,1,-22.004826666666666,-47.932683166666656,2.0,0.0,0.0,0.0,0.0,-44,90.0,0,0,1,0,0,0,0,0,0,0,0,0,0,1,0,0
2024-08-27 19:28:33.169998646,0.06991808861494064,-0.06989359855651855,-0.2430189996957779,0.80063396692276,-0.011087773367762566,0.07310714572668076,-0.49684175848960876,-22.00483483333246,-47.932665500001185,852.5999755859375,0,0,1,-22.004826666666666,-47.932683166666656,2.0,0.0,0.0,0.0,0.0,-44,89.0,0,0,1,0,0,0,0,0,0,0,0,0,0,1,0,0
2024-08-27 19:28:33.270563126,0.06991808861494064,-0.06989359855651855,-0.2430189996957779,0.8675685524940491,0.00414208322763443,0.06531090289354324,-0.49755173921585083,-22.00483483333246,-47.932665500001185,852.5999755859375,0,0,1,-22.004826666666666,-47.932683166666656,2.0,0.0,0.0,0.0,0.0,-44,89.0,0,0,1,0,0,0,0,0,0,0,0,0,0,1,0,0
2024-08-27 19:28:33.373016119,0.08427444100379944,-0.04522974044084549,-0.11519621312618256,0.9113718867301941,0.00414208322763443,0.06531090289354324,-0.49755173921585083,-22.00483483333246,-47.932665500001185,852.5999755859375,0,0,1,-22.00483483333246,-47.932665500001185,2.0,0.0,0.0,0.0,0.0,-44,89.0,0,0,0,1,0,0,0,0,0,0,0,1,0,0,0,0
2024-08-27 19:28:33.483261108,0.08427444100379944,-0.04522974044084549,-0.11519621312618256,0.9113718867301941,0.008249280974268913,0.06749502569437027,-0.4970836639404297,-22.00483483333246,-47.932665500001185,852.5999755859375,0,0,1,-22.00483483333246,-47.932665500001185,2.0,0.0,0.0,0.0,0.0,-44,89.0,0,0,0,1,0,0,0,0,0,0,0,1,0,0,0,0
2024-08-27 19:28:33.602799892,0.1038045808672905,-0.05237158387899399,-0.04474224895238876,0.9243655800819397,-0.006673866882920265,0.06835849583148956,-0.4970724582672119,-22.00483483333246,-47.932665500001185,852.5999755859375,0,0,1,-22.00483483333246,-47.932665500001185,2.0,0.0,0.0,0.0,0.0,-44,88.0,0,0,0,1,0,0,0,0,0,0,0,1,0,0,0,0
2024-08-27 19:28:33.721318722,0.1038045808672905,-0.05237158387899399,-0.04474224895238876,0.9243655800819397,-0.006673866882920265,0.06835849583148956,-0.4970724582672119,-22.00483483333246,-47.932665500001185,852.5999755859375,0,0,1,-22.00483483333246,-47.932665500001185,2.0,0.0,0.0,0.0,0.0,-44,88.0,0,0,0,1,0,0,0,0,0,0,0,1,0,0,0,0
2024-08-27 19:28:33.854086637,0.10747243463993073,-0.035166069865226746,-0.022853147238492966,0.978125810623169,-0.010026340372860432,0.07463433593511581,-0.49666541814804077,-22.004834166666477,-47.9326648333345,852.9000244140625,0,0,1,-22.00483483333246,-47.932665500001185,2.0,0.0,0.0,0.0,0.0,-44,88.0,0,0,0,1,0,0,0,0,0,0,0,1,0,0,0,0
2024-08-27 19:28:33.956239700,0.10047078132629395,-0.05253303423523903,0.03350609913468361,0.9193364977836609,-0.010026340372860432,0.07463433593511581,-0.49666541814804077,-22.004834166666477,-47.9326648333345,852.9000244140625,0,0,1,-22.00483483333246,-47.932665500001185,2.0,0.0,0.0,0.0,0.0,-44,88.0,0,0,0,1,0,0,0,0,0,0,0,1,0,0,0,0
2024-08-27 19:28:34.100483418,0.10047078132629395,-0.05253303423523903,0.03350609913468361,0.9193364977836609,-0.01303741056472063,0.07693777233362198,-0.49606314301490784,-22.004834166666477,-47.9326648333345,852.9000244140625,0,0,1,-22.00483483333246,-47.932665500001185,2.0,0.0,0.0,0.0,0.0,-44,87.0,0,0,0,1,0,0,0,0,0,0,0,1,0,0,0,0
2024-08-27 19:28:34.240490437,0.1039743721485138,-0.04258078336715698,-0.05746176838874817,0.9286117553710938,-0.0072231958620250225,0.07811743766069412,-0.4964185357093811,-22.00483333333286,-47.9326648333345,853.0,0,0,1,-22.00483483333246,-47.932665500001185,2.0,0.0,0.0,0.0,0.0,-44,87.0,0,0,0,1,0,0,0,0,0,0,0,1,0,0,0,0
2024-08-27 19:28:34.372530937,0.09674318134784698,-0.041283559054136276,-0.04269582778215408,0.8898868560791016,-0.013651231303811073,0.0917699858546257,-0.4959490895271301,-22.00483333333286,-47.9326648333345,853.0,0,0,1,-22.00483483333246,-47.932665500001185,2.0,0.0,0.0,0.0,0.0,-44,87.0,0,0,0,1,0,0,0,0,0,0,0,1,0,0,0,0
2024-08-27 19:28:34.472845793,0.09674318134784698,-0.041283559054136276,-0.04269582778215408,0.8898868560791016,-0.013651231303811073,0.0917699858546257,-0.4959490895271301,-22.00483333333286,-47.9326648333345,853.0,0,0,1,-22.00483483333246,-47.932665500001185,2.0,0.0,0.0,0.0,0.0,-44,87.0,0,0,0,1,0,0,0,0,0,0,0,1,0,0,0,0
2024-08-27 19:28:34.589035273,0.05176927149295807,-0.00936443917453289,-0.03074658289551735,0.8894641399383545,-0.010863741859793663,0.08679404109716415,-0.49584078788757324,-22.00483333333286,-47.9326648333345,853.0,0,0,1,-22.00483483333246,-47.932665500001185,2.0,0.0,0.0,0.0,0.0,-44,86.0,0,0,0,0,1,0,0,0,0,0,0,1,0,0,0,0
2024-08-27 19:28:34.729013681,0.05176927149295807,-0.00936443917453289,-0.03074658289551735,0.8894641399383545,-0.010863741859793663,0.08679404109716415,-0.49584078788757324,-22.00483333333286,-47.9326648333345,853.0,0,0,1,-22.00483483333246,-47.932665500001185,2.0,0.0,0.0,0.0,0.0,-44,86.0,0,0,0,0,1,0,0,0,0,0,0,1,0,0,0,0
2024-08-27 19:28:34.837457180,0.1271677017211914,-0.04172593355178833,0.00743815116584301,0.887368381023407,-0.007669369224458933,0.02938130684196949,-0.4964252710342407,-22.004833350329953,-47.93266406563644,853.0,0,0,1,-22.00483483333246,-47.932665500001185,2.0,0.0,0.0,0.0,0.0,-43,86.0,0,0,0,0,1,0,0,0,0,0,0,1,0,0,0,0
2024-08-27 19:28:34.944588900,0.24276331067085266,-0.09610897302627563,-0.02490098774433136,0.887368381023407,-0.007669369224458933,0.02938130684196949,-0.4964252710342407,-22.004833350329953,-47.93266406563644,853.0,0,0,1,-22.00483483333246,-47.932665500001185,2.0,0.0,0.0,0.0,0.0,-43,86.0,0,0,0,0,1,0,0,0,0,0,0,1,0,0,0,0
2024-08-27 19:28:35.056135416,0.24276331067085266,-0.09610897302627563,-0.02490098774433136,0.898644745349884,-0.028668245300650597,0.05215964838862419,-0.4949401617050171,-22.004833350329953,-47.93266406563644,853.0,0,0,1,-22.00483483333246,-47.932665500001185,2.0,0.0,0.0,0.0,0.0,-43,86.0,0,0,0,0,1,0,0,0,0,0,0,1,0,0,0,0
2024-08-27 19:28:35.178982496,0.23738567531108856,-0.09831412881612778,-0.0565694235265255,0.898644745349884,-0.028668245300650597,0.05215964838862419,-0.4949401617050171,-22.004832617609644,-47.932664374922595,853.0999755859375,0,0,1,-22.00483483333246,-47.932665500001185,2.0,0.0,0.0,0.0,0.0,-43,85.0,0,0,0,0,1,0,0,0,0,0,0,1,0,0,0,0
2024-08-27 19:28:35.281797647,0.23738567531108856,-0.09831412881612778,-0.0565694235265255,0.9210280776023865,-0.032812394201755524,0.09022627770900726,-0.49247851967811584,-22.004832617609644,-47.932664374922595,853.0999755859375,0,0,1,-22.00483483333246,-47.932665500001185,2.0,0.0,0.0,0.0,0.0,-43,85.0,0,0,0,0,1,0,0,0,0,0,0,1,0,0,0,0
2024-08-27 19:28:35.387804985,0.18150171637535095,-0.1007743701338768,-0.008208873681724072,0.8993724584579468,-0.023607000708580017,0.10491780191659927,-0.49230051040649414,-22.004832617609644,-47.932664374922595,853.0999755859375,0,0,1,-22.00483483333246,-47.932665500001185,2.0,0.0,0.0,0.0,0.0,-43,85.0,0,0,0,0,1,0,0,0,0,0,0,1,0,0,0,0
2024-08-27 19:28:35.543210983,0.18936927616596222,-0.09046602249145508,-0.01806553453207016,0.8993724584579468,-0.023607000708580017,0.10491780191659927,-0.49230051040649414,-22.004832617609644,-47.932664374922595,853.0999755859375,0,0,1,-22.00483483333246,-47.932665500001185,2.0,0.0,0.0,0.0,0.0,-43,85.0,0,0,0,0,1,0,0,0,0,0,0,1,0,0,0,0
2024-08-27 19:28:35.644045830,0.18936927616596222,-0.09046602249145508,-0.01806553453207016,0.8713605999946594,-0.025189032778143883,0.10464588552713394,-0.4922032356262207,-22.004832617609644,-47.932664374922595,853.0999755859375,0,0,1,-22.00483483333246,-47.932665500001185,2.0,0.0,0.0,0.0,0.0,-43,85.0,0,0,0,0,1,0,0,0,0,0,0,1,0,0,0,0
2024-08-27 19:28:35.746227503,0.18936927616596222,-0.09046602249145508,-0.01806553453207016,0.8713605999946594,-0.025189032778143883,0.10464588552713394,-0.4922032356262207,-22.004831532427396,-47.93266490943816,853.2000122070312,0,0,1,-22.00483483333246,-47.932665500001185,2.0,0.0,0.0,0.0,0.0,-43,85.0,0,0,0,0,1,0,0,0,0,0,0,1,0,0,0,0
2024-08-27 19:28:35.846820116,0.1571425050497055,-0.0900273323059082,-0.05411604791879654,0.905626654624939,-0.038189809769392014,0.1226545050740242,-0.49142828583717346,-22.004831532427396,-47.93266490943816,853.2000122070312,0,0,1,-22.00483483333246,-47.932665500001185,2.0,0.0,0.0,0.0,0.0,-43,84.0,0,0,0,0,1,0,0,0,0,0,0,1,0,0,0,0
2024-08-27 19:28:35.947763443,0.11250618100166321,-0.05774756893515587,-0.09194593131542206,0.905626654624939,-0.038189809769392014,0.1226545050740242,-0.49142828583717346,-22.004831532427396,-47.93266490943816,853.2000122070312,0,0,1,-22.00483483333246,-47.932665500001185,2.0,0.0,0.0,0.0,0.0,-43,84.0,0,0,0,0,1,0,0,0,0,0,0,1,0,0,0,0
2024-08-27 19:28:36.049130917,0.11250618100166321,-0.05774756893515587,-0.09194593131542206,1.0134426355361938,-0.033455781638622284,0.11127089709043503,-0.49035829305648804,-22.004831532427396,-47.93266490943816,853.2000122070312,0,0,1,-22.00483483333246,-47.932665500001185,2.0,0.0,0.0,0.0,0.0,-43,84.0,0,0,0,0,1,0,0,0,0,0,0,1,0,0,0,0
2024-08-27 19:28:36.149709702,0.11250618100166321,-0.05774756893515587,-0.09194593131542206,1.0134426355361938,-0.033455781638622284,0.11127089709043503,-0.49035829305648804,-22.00483123681979,-47.93266513367776,853.2000122070312,0,0,1,-22.00483483333246,-47.932665500001185,2.0,0.0,0.0,0.0,0.0,-43,84.0,0,0,0,0,1,0,0,0,0,0,0,1,0,0,0,0
2024-08-27 19:28:36.250303506,0.11287464201450348,-0.06309118866920471,0.05118812993168831,1.0258407592773438,-0.04039657115936279,0.09603134542703629,-0.4903500974178314,-22.00483123681979,-47.93266513367776,853.2000122070312,0,0,1,-22.00483483333246,-47.932665500001185,2.0,0.0,0.0,0.0,0.0,-43,84.0,0,0,0,0,1,0,0,0,0,0,0,1,0,0,0,0
2024-08-27 19:28:36.351994514,0.15349020063877106,-0.08417630195617676,0.03987807035446167,1.0258407592773438,-0.04039657115936279,0.09603134542703629,-0.4903500974178314,-22.00483123681979,-47.93266513367776,853.2000122070312,0,0,1,-22.00483483333246,-47.932665500001185,2.0,0.0,0.0,0.0,0.0,-43,84.0,0,0,0,0,1,0,0,0,0,0,0,1,0,0,0,0
2024-08-27 19:28:36.460452557,0.15349020063877106,-0.08417630195617676,0.03987807035446167,1.0027379989624023,-0.04107719659805298,0.12475978583097458,-0.4926772713661194,-22.00483123681979,-47.93266513367776,853.2000122070312,0,0,1,-22.00483483333246,-47.932665500001185,2.0,0.0,0.0,0.0,0.0,-43,84.0,0,0,0,0,1,0,0,0,0,0,0,1,0,0,0,0
2024-08-27 19:28:36.561015606,0.10781364887952805,-0.07051040232181549,0.02185453474521637,1.0027379989624023,-0.04107719659805298,0.12475978583097458,-0.4926772713661194,-22.00483123681979,-47.93266513367776,853.2000122070312,0,0,1,-22.00483483333246,-47.932665500001185,2.0,0.0,0.0,0.0,0.0,-43,84.0,0,0,0,0,1,0,0,0,0,0,0,1,0,0,0,0
2024-08-27 19:28:36.661424398,0.10781364887952805,-0.07051040232181549,0.02185453474521637,1.0036929845809937,-0.03156351298093796,0.12498506903648376,-0.4917973577976227,-22.00483123681979,-47.93266513367776,853.2000122070312,0,0,1,-22.00483483333246,-47.932665500001185,2.0,0.0,0.0,0.0,0.0,-43,84.0,0,0,0,0,1,0,0,0,0,0,0,1,0,0,0,0
2024-08-27 19:28:36.763261557,0.10781364887952805,-0.07051040232181549,0.02185453474521637,1.0036929845809937,-0.03156351298093796,0.12498506903648376,-0.4917973577976227,-22.004830327107037,-47.93266563871206,853.2999877929688,0,0,1,-22.00483483333246,-47.932665500001185,2.0,0.0,0.0,0.0,0.0,-43,84.0,0,0,0,0,1,0,0,0,0,0,0,1,0,0,0,0
2024-08-27 19:28:36.864323616,0.1140844002366066,-0.05782447010278702,0.04703415185213089,0.9796673655509949,-0.03984440118074417,0.13132324814796448,-0.4906337261199951,-22.004830327107037,-47.93266563871206,853.2999877929688,0,0,1,-22.00483483333246,-47.932665500001185,2.0,0.0,0.0,0.0,0.0,-43,84.0,0,0,0,0,1,0,0,0,0,0,0,1,0,0,0,0
2024-08-27 19:28:36.964643717,0.06372485309839249,-0.054049864411354065,0.003820984624326229,0.9796673655509949,-0.03984440118074417,0.13132324814796448,-0.4906337261199951,-22.004830327107037,-47.93266563871206,853.2999877929688,0,0,1,-22.00483483333246,-47.932665500001185,2.0,0.0,0.0,0.0,0.0,-44,84.0,0,0,0,0,1,0,0,0,0,0,0,1,0,0,0,0
2024-08-27 19:28:37.065464734,0.06372485309839249,-0.054049864411354065,0.003820984624326229,0.9880101680755615,-0.03455226868391037,0.13383962213993073,-0.4917714297771454,-22.004830327107037,-47.93266563871206,853.2999877929688,0,0,1,-22.00483483333246,-47.932665500001185,2.0,0.0,0.0,0.0,0.0,-44,83.0,0,0,0,0,1,0,0,0,0,0,0,1,0,0,0,0
2024-08-27 19:28:37.168136358,0.06372485309839249,-0.054049864411354065,0.003820984624326229,0.9880101680755615,-0.03455226868391037,0.13383962213993073,-0.4917714297771454,-22.00483009379095,-47.93266581947443,853.2999877929688,0,0,1,-22.00483483333246,-47.932665500001185,2.0,0.0,0.0,0.0,0.0,-44,83.0,0,0,0,0,1,0,0,0,0,0,0,1,0,0,0,0
2024-08-27 19:28:37.269681215,0.032362066209316254,-0.023204389959573746,0.028294067829847336,0.9773411750793457,-0.04053976759314537,0.11398053169250488,-0.49055078625679016,-22.00483009379095,-47.93266581947443,853.2999877929688,0,0,1,-22.00483483333246,-47.932665500001185,2.0,0.4318447709083557,0.013509482145309448,-0.06953924894332886,0.009698569774627686,-44,83.0,0,0,0,1,0,0,0,0,0,0,0,1,0,0,0,0
2024-08-27 19:28:37.370370865,0.018725663423538208,-0.03844885900616646,-0.03303695097565651,0.9608104825019836,-0.04053976759314537,0.11398053169250488,-0.49055078625679016,-22.00483009379095,-47.93266581947443,853.2999877929688,0,0,1,-22.00483483333246,-47.932665500001185,2.0,0.4318447709083557,0.013509482145309448,-0.06953924894332886,0.009698569774627686,-44,83.0,0,0,0,1,0,0,0,0,0,0,0,1,0,0,0,0
2024-08-27 19:28:37.470996618,0.018725663423538208,-0.03844885900616646,-0.03303695097565651,0.9608104825019836,-0.03620827570557594,0.110186867415905,-0.49086666107177734,-22.00483009379095,-47.93266581947443,853.2999877929688,0,0,1,-22.00483483333246,-47.932665500001185,2.0,0.4318447709083557,0.013509482145309448,-0.06953924894332886,0.009698569774627686,-44,83.0,0,0,0,1,0,0,0,0,0,0,0,1,0,0,0,0
2024-08-27 19:28:37.575398207,-0.04012203589081764,-0.06429027020931244,0.022136718034744263,0.9608104825019836,-0.03620827570557594,0.110186867415905,-0.49086666107177734,-22.00483009379095,-47.93266581947443,853.2999877929688,0,0,1,-22.00483483333246,-47.932665500001185,2.0,0.4318447709083557,0.013509482145309448,-0.06953924894332886,0.009698569774627686,-44,83.0,0,0,0,1,0,0,0,0,0,0,0,1,0,0,0,0
2024-08-27 19:28:37.676889181,-0.04012203589081764,-0.06429027020931244,0.022136718034744263,0.9213274121284485,-0.009455257095396519,0.11499997228384018,-0.4918645918369293,-22.00483009379095,-47.93266581947443,853.2999877929688,0,0,1,-22.00483483333246,-47.932665500001185,2.0,0.4318447709083557,0.013509482145309448,-0.06953924894332886,0.009698569774627686,-44,83.0,0,0,0,1,0,0,0,0,0,0,0,1,0,0,0,0
2024-08-27 19:28:37.778052807,-0.04012203589081764,-0.06429027020931244,0.022136718034744263,0.9213274121284485,-0.009455257095396519,0.11499997228384018,-0.4918645918369293,-22.004829874169126,-47.93266614962503,853.2999877929688,0,0,1,-22.00483483333246,-47.932665500001185,2.0,0.4318447709083557,0.013509482145309448,-0.06953924894332886,0.009698569774627686,-44,83.0,0,0,0,0,1,0,0,0,0,0,0,1,0,0,0,0
2024-08-27 19:28:37.878773928,-0.019948415458202362,-0.01507001742720604,0.04331864416599274,0.8901494145393372,-0.018903443589806557,0.09131801873445511,-0.4951696991920471,-22.004829874169126,-47.93266614962503,853.2999877929688,0,0,1,-22.00483483333246,-47.932665500001185,2.0,0.4318447709083557,0.013509482145309448,-0.06953924894332886,0.009698569774627686,-44,83.0,0,0,0,0,1,0,0,0,0,0,0,1,0,0,0,0
2024-08-27 19:28:37.979507208,0.025874894112348557,-0.024479461833834648,-0.010886919684708118,0.8855870366096497,-0.018903443589806557,0.09131801873445511,-0.4951696991920471,-22.004829874169126,-47.93266614962503,853.2999877929688,0,0,1,-22.00483483333246,-47.932665500001185,2.0,0.4318447709083557,0.013509482145309448,-0.06953924894332886,0.009698569774627686,-43,83.0,0,0,0,0,1,0,0,0,0,0,0,1,0,0,0,0
2024-08-27 19:28:38.081537962,0.025874894112348557,-0.024479461833834648,-0.010886919684708118,0.8855870366096497,-0.005461543798446655,0.05588797852396965,-0.4918021559715271,-22.004829874169126,-47.93266614962503,853.2999877929688,0,0,1,-22.00483483333246,-47.932665500001185,2.0,0.4318447709083557,0.013509482145309448,-0.06953924894332886,0.009698569774627686,-43,83.0,0,0,0,0,1,0,0,0,0,0,0,1,0,0,0,0
2024-08-27 19:28:38.188673496,0.08310168236494064,-0.004089432768523693,-0.03029940277338028,0.8855870366096497,-0.005461543798446655,0.05588797852396965,-0.4918021559715271,-22.00482986619513,-47.93266625781743,853.2999877929688,0,0,0,-22.00483483333246,-47.932665500001185,2.0,0.4318447709083557,0.013509482145309448,-0.06953924894332886,0.009698569774627686,-43,83.0,0,0,0,0,1,0,0,0,0,0,0,1,0,0,0,0
2024-08-27 19:28:38.298375607,0.08310168236494064,-0.004089432768523693,-0.03029940277338028,0.9116811752319336,-0.028906969353556633,0.04550091549754143,-0.4906840920448303,-22.00482986619513,-47.93266625781743,853.2999877929688,0,0,0,-22.00483483333246,-47.932665500001185,2.0,0.4318447709083557,0.013509482145309448,-0.06953924894332886,0.009698569774627686,-43,83.0,0,0,0,0,1,0,0,0,0,0,0,1,0,0,0,0
2024-08-27 19:28:38.398859262,0.10772629082202911,-0.039935700595378876,-0.026890456676483154,0.9249074459075928,-0.03972204402089119,0.04250429570674896,-0.489196240901947,-22.00482986619513,-47.93266625781743,853.2999877929688,0,0,0,-22.00483483333246,-47.932665500001185,2.0,0.4318447709083557,0.013509482145309448,-0.06953924894332886,0.009698569774627686,-43,83.0,0,0,0,0,1,0,0,0,0,0,0,1,0,0,0,0
2024-08-27 19:28:38.512807608,0.10772629082202911,-0.039935700595378876,-0.026890456676483154,0.9249074459075928,-0.03972204402089119,0.04250429570674896,-0.489196240901947,-22.00482986619513,-47.93266625781743,853.2999877929688,0,0,0,-22.00483483333246,-47.932665500001185,2.0,0.4318447709083557,0.013509482145309448,-0.06953924894332886,0.009698569774627686,-43,83.0,0,0,0,0,1,0,0,0,0,0,0,1,0,0,0,0
2024-08-27 19:28:38.617521524,0.14097504317760468,-0.08156706392765045,-0.017387792468070984,0.9283304810523987,-0.03475582227110863,0.046531420201063156,-0.4882109761238098,-22.00482986619513,-47.93266625781743,853.2999877929688,0,0,0,-22.00483483333246,-47.932665500001185,2.0,0.4318447709083557,0.013509482145309448,-0.06953924894332886,0.009698569774627686,-43,83.0,0,0,0,0,1,0,0,0,0,0,0,1,0,0,0,0
2024-08-27 19:28:38.718713284,0.14097504317760468,-0.08156706392765045,-0.017387792468070984,0.9283304810523987,-0.03475582227110863,0.046531420201063156,-0.4882109761238098,-22.00482986619513,-47.93266625781743,853.2999877929688,0,0,0,-22.00483483333246,-47.932665500001185,2.0,0.4318447709083557,0.013509482145309448,-0.06953924894332886,0.009698569774627686,-43,82.0,0,0,0,0,1,0,0,0,0,0,0,1,0,0,0,0
2024-08-27 19:28:38.820064783,0.1804026961326599,-0.09439653903245926,0.011909904889762402,0.9283304810523987,-0.03475582227110863,0.046531420201063156,-0.4882109761238098,-22.004829393870885,-47.93266651698682,853.2999877929688,0,0,0,-22.00483483333246,-47.932665500001185,2.0,0.4318447709083557,0.013509482145309448,-0.06953924894332886,0.009698569774627686,-43,82.0,0,0,0,0,1,0,0,0,0,0,0,1,0,0,0,0
2024-08-27 19:28:38.921542645,0.1804026961326599,-0.09439653903245926,0.011909904889762402,0.946165919303894,-0.02806694060564041,0.05781090632081032,-0.48802462220191956,-22.004829393870885,-47.93266651698682,853.2999877929688,0,0,0,-22.00483483333246,-47.932665500001185,2.0,0.4318447709083557,0.013509482145309448,-0.06953924894332886,0.009698569774627686,-43,82.0,0,0,0,0,1,0,0,0,0,0,0,1,0,0,0,0
2024-08-27 19:28:39.022337198,0.17295566201210022,-0.08617551624774933,0.05017126351594925,0.921855092048645,-0.03133999556303024,0.07135802507400513,-0.48599475622177124,-22.004829393870885,-47.93266651698682,853.2999877929688,0,0,0,-22.00483483333246,-47.932665500001185,2.0,0.4318447709083557,0.013509482145309448,-0.06953924894332886,0.009698569774627686,-43,82.0,0,0,0,0,1,0,0,0,0,0,0,1,0,0,0,0
2024-08-27 19:28:39.128615140,0.17295566201210022,-0.08617551624774933,0.05017126351594925,0.921855092048645,-0.03133999556303024,0.07135802507400513,-0.48599475622177124,-22.004829393870885,-47.93266651698682,853.2999877929688,0,0,0,-22.00483483333246,-47.932665500001185,2.0,0.4318447709083557,0.013509482145309448,-0.06953924894332886,0.009698569774627686,-43,82.0,0,0,0,0,1,0,0,0,0,0,0,1,0,0,0,0
2024-08-27 19:28:39.235183001,0.1405838280916214,-0.09347953647375107,0.02691163867712021,0.9058376550674438,-0.04443212226033211,0.05902380123734474,-0.4853859841823578,-22.004828767287925,-47.932666829686404,853.2999877929688,0,0,0,-22.00483483333246,-47.932665500001185,2.0,0.4318447709083557,0.013509482145309448,-0.06953924894332886,0.009698569774627686,-43,82.0,0,0,0,0,1,0,0,0,0,0,0,1,0,0,0,0
2024-08-27 19:28:39.337038040,0.1405838280916214,-0.09347953647375107,0.02691163867712021,0.9058376550674438,-0.04443212226033211,0.05902380123734474,-0.4853859841823578,-22.004828767287925,-47.932666829686404,853.2999877929688,0,0,0,-22.00483483333246,-47.932665500001185,2.0,0.4318447709083557,0.013509482145309448,-0.06953924894332886,0.009698569774627686,-43,82.0,0,0,0,0,1,0,0,0,0,0,0,1,0,0,0,0
2024-08-27 19:28:39.437787294,0.18333107233047485,-0.10735447704792023,0.009633457288146019,0.8941870331764221,-0.03448709473013878,0.0631072148680687,-0.4835553467273712,-22.004828767287925,-47.932666829686404,853.2999877929688,0,0,0,-22.00483483333246,-47.932665500001185,2.0,0.4318447709083557,0.013509482145309448,-0.06953924894332886,0.009698569774627686,-43,82.0,0,0,0,0,1,0,0,0,0,0,0,1,0,0,0,0
2024-08-27 19:28:39.538603306,0.18333107233047485,-0.10735447704792023,0.009633457288146019,0.8941870331764221,-0.03448709473013878,0.0631072148680687,-0.4835553467273712,-22.004828767287925,-47.932666829686404,853.2999877929688,0,0,0,-22.00483483333246,-47.932665500001185,2.0,0.4318447709083557,0.013509482145309448,-0.06953924894332886,0.009698569774627686,-43,82.0,0,0,0,0,1,0,0,0,0,0,0,1,0,0,0,0
2024-08-27 19:28:39.644157171,0.17745502293109894,-0.138000950217247,-0.034969598054885864,0.9054352045059204,-0.027973968535661697,0.08159568905830383,-0.48442697525024414,-22.004828767287925,-47.932666829686404,853.2999877929688,0,0,0,-22.00483483333246,-47.932665500001185,2.0,0.4318447709083557,0.013509482145309448,-0.06953924894332886,0.009698569774627686,-43,82.0,0,0,0,0,1,0,0,0,0,0,0,1,0,0,0,0
2024-08-27 19:28:39.748071909,0.17745502293109894,-0.138000950217247,-0.034969598054885864,0.9054352045059204,-0.027973968535661697,0.08159568905830383,-0.48442697525024414,-22.004828767287925,-47.932666829686404,853.2999877929688,0,0,0,-22.00483483333246,-47.932665500001185,2.0,0.4318447709083557,0.013509482145309448,-0.06953924894332886,0.009698569774627686,-43,82.0,0,0,0,0,1,0,0,0,0,0,0,1,0,0,0,0
2024-08-27 19:28:39.849016905,0.13587665557861328,-0.07987029105424881,-0.04160657152533531,0.934992253780365,-0.027973968535661697,0.08159568905830383,-0.48442697525024414,-22.004827863634112,-47.93266749354557,853.2999877929688,0,0,0,-22.00483483333246,-47.932665500001185,2.0,0.4318447709083557,0.013509482145309448,-0.06953924894332886,0.009698569774627686,-43,82.0,0,0,0,0,1,0,0,0,0,0,0,1,0,0,0,0
2024-08-27 19:28:39.949413061,0.13587665557861328,-0.07987029105424881,-0.04160657152533531,0.934992253780365,-0.009792140685021877,0.07393770664930344,-0.4844370484352112,-22.004827863634112,-47.93266749354557,853.2999877929688,0,0,0,-22.00483483333246,-47.932665500001185,2.0,0.4318447709083557,0.013509482145309448,-0.06953924894332886,0.009698569774627686,-43,82.0,0,0,0,0,1,0,0,0,0,0,0,1,0,0,0,0
2024-08-27 19:28:40.050993681,0.13489453494548798,-0.08327370136976242,-0.029805485159158707,0.9410086870193481,-0.022938676178455353,0.07445985078811646,-0.48419877886772156,-22.004827863634112,-47.93266749354557,853.2999877929688,0,0,0,-22.00483483333246,-47.932665500001185,2.0,0.4318447709083557,0.013509482145309448,-0.06953924894332886,0.009698569774627686,-43,82.0,0,0,0,0,1,0,0,0,0,0,0,1,0,0,0,0
2024-08-27 19:28:40.153819084,0.13489453494548798,-0.08327370136976242,-0.029805485159158707,0.9410086870193481,-0.022938676178455353,0.07445985078811646,-0.48419877886772156,-22.004827863634112,-47.93266749354557,853.2999877929688,0,0,0,-22.00483483333246,-47.932665500001185,2.0,0.4318447709083557,0.013509482145309448,-0.06953924894332886,0.009698569774627686,-43,82.0,0,0,0,0,1,0,0,0,0,0,0,1,0,0,0,0
2024-08-27 19:28:40.255116224,0.13436461985111237,-0.08899959921836853,-0.016512148082256317,0.9518392086029053,-0.018366076052188873,0.08314613997936249,-0.4847324788570404,-22.004827371857935,-47.93266783504304,853.2999877929688,0,0,0,-22.00483483333246,-47.932665500001185,2.0,0.4318447709083557,0.013509482145309448,-0.06953924894332886,0.009698569774627686,-43,82.0,0,0,0,0,1,0,0,0,0,0,0,1,0,0,0,0
