timestamp,rollspeed_integ,pitchspeed_integ,yawspeed_integ,baro_pressure_pa,baro_alt_meter,xyz[0],xyz[1],xyz[2],q[0],q[1],q[2],q[3],roll_body,pitch_body,yaw_body,thrust_body[2],lat,lon,alt,eph,epv,hdop,vdop,noise_per_ms,jamming_indicator,vel_m_s,cog_rad,x,y,z,vx,vy,vz,z_deriv,ax,ay,az,heading,evh,magnetometer_ga[0],magnetometer_ga[1],magnetometer_ga[2],class
615291088,0.0,0.0,0.0,100548.125,64.88083499999999,-0.0050344615855000005,-0.0008024313299999999,0.0033678993050000024,-0.3395726875,-0.0104567665,-0.0015123019750000002,0.9405204875000001,0.0,0.0,-2.4490600333333337,-0.001,362048146.0,1382529219.5,40985.0,1.7530001,3.07350015,0.77,1.35,103.0,24.0,0.045000001,1.1893106,-0.2806493033333333,0.18529496666666667,-2.8962075666666665,0.005915490233333333,-0.0032885773666666666,-0.013573377666666666,-0.013822855666666667,-0.21182670536666667,-0.025744787666666658,0.23076529333333332,-2.4488448,0.14864781,-0.15820016999999997,0.155620095,0.96884769,0
615491088,0.0,0.0,0.0,100549.0,64.808174,-0.00266842633,-0.004788052046,-0.006675468899999999,-0.3393180375,-0.010009768249999999,-0.001618923375,0.9406170425,0.0,0.0,-2.44878975,-0.001,362048146.0,1382529219.5,40985.0,1.7530001,3.07350015,0.77,1.35,103.0,24.0,0.045000001,1.1893106,-0.28646851500000003,0.189850325,-2.9098799,0.0051016816,-0.0003419355999999999,-0.0176002855,-0.0265999835,0.13344157499999998,0.288267724,0.23243280300000002,-2.44859675,0.14985963000000002,-0.15375958,0.15416884,0.988061,0
615691088,0.0,0.0,0.0,100548.0,64.89008,0.0018589899223999998,0.0059436406353,0.0014490236099999998,-0.3392966875,-0.009839063375,-0.001703127775,0.94062644,0.0,0.0,-2.4490133,-0.001,362048146.0,1382529219.5,40985.0,1.7530001,3.07350015,0.77,1.35,103.0,24.0,0.045000001,1.1893106,-0.294164135,0.19353949,-2.9193476499999997,0.00517964855,0.00025213199999999996,-0.022470777,-0.0339718255,0.37718916,-0.20638465,0.43878603,-2.4490133,0.14878752,-0.16264075,0.1512663,0.98165655,0
615891088,0.0,0.0,0.0,100549.25,64.78703,-7.184993239999996e-05,-0.0019803125600000005,0.00025321364000000017,-0.33920612250000004,-0.009669643124999999,-0.0017512966749999997,0.9406607675,0.0,0.0,-2.44930875,-0.001,362048149.0,1382529222.0,41074.0,1.751,3.0700002,0.77,1.35,103.0,27.0,0.017,1.1893106,-0.30040757500000004,0.20010139999999998,-2.925483,-0.0007459835200000001,0.0017133332999999997,-0.027259631,-0.037327177,-0.582374665,0.30192359999999996,-1.1275919,-2.4493442500000002,0.14808772,-0.15968037,0.1512663,0.988061,0
616091088,0.0,0.0,0.0,100546.75,64.99577,0.00446189185,-0.006675441666999999,-0.000571768228,-0.339109675,-0.00978773325,-0.001721464,0.9406943750000001,-4.4213615e-05,-0.00016687566,-2.44926535,-0.001,362048149.0,1382529222.0,41074.0,1.751,3.0700002,0.77,1.35,103.0,27.0,0.017,1.1893106,-0.30232314,0.203303915,-2.93102165,0.00528777345,0.00016817069999999995,-0.024641317500000003,-0.032705582999999996,0.2545089,-0.4451086925,0.292065595,-2.44967585,0.147710075,-0.15375958,0.1512663,0.97845435,0
616291088,0.0,0.0,0.0,100550.5,64.681335,-0.018332631940000003,-0.0272593203,-0.00475729264,-0.33899811750000003,-0.009115709,-0.001817444775,0.9407410075,0.0026351000500000003,-0.0014750031,-2.4490411,-0.0260033765,362048149.0,1382529222.0,41074.0,1.751,3.0700002,0.77,1.35,103.0,27.0,0.017,1.1893106,-0.30264621,0.206813505,-2.9361606,-0.00016667064999999995,0.0043664975,-0.026896924000000003,-0.0328410315,-0.5219612,0.687716115,-1.2252158850000001,-2.4499106,0.148953105,-0.15375958,0.15416884,0.96244323,0
616491088,0.0,0.0,0.0,100546.8,64.99313,-0.005324446710000001,0.0008184908999999978,-0.002636839304,-0.33869162,-0.007971858425,-0.0022248989750000003,0.9408609625,0.00462535235,-0.0024945540849999996,-2.4490411,-0.0596645175,362048149.0,1382529222.0,41074.0,1.751,3.0700002,0.77,1.35,103.0,27.0,0.017,1.1893106,-0.30394931999999997,0.208082185,-2.93903625,0.0030212804500000003,0.00684887545,-0.0279729575,-0.0299355815,0.017065150000000084,1.2766501,-0.6081962000000001,-2.45054745,0.14805942,-0.1507992,0.1483638,0.9688477,0
616691088,0.0,0.0,0.0,100548.0,64.89008,-0.010274829074,-0.01104827928,-0.00688677576,-0.33816180250000005,-0.0062573409,-0.002655695925,0.9410633225,0.00355290725,-0.0014403259499999998,-2.4490411,-0.09928083,362048149.0,1382529222.0,41074.0,1.751,3.0700002,0.77,1.35,103.0,27.0,0.017,1.1893106,-0.30429576,0.20623974,-2.9389222999999998,0.003590759,0.0032899260000000003,-0.03680823,-0.032603125000000004,0.12948965,2.3738098,-0.9084340000000001,-2.451687,0.14811817500000002,-0.15671997,0.1483638,0.9720499,0
616891088,0.0,0.0,0.0,100549.5,64.76589,-0.014737701197800001,-0.015087716640000002,-0.01155020877,-0.3375222475,-0.004166755875000001,-0.0037013722,0.9413006625,0.0037583025,0.00039328375000000006,-2.4490411,-0.150192405,362048153.0,1382529221.0,41124.0,1.7490001,3.065,0.77,1.35,103.0,22.0,0.048,1.1893106,-0.3042019,0.20332799000000001,-2.9369164000000003,0.0028286318,0.00305301065,-0.0253596815,-0.014744180499999999,1.2100692499999999,1.151057265,0.473177102,-2.4532106000000002,0.152053045,-0.14783882,0.14546129,0.9720499,0
617091088,0.0025731325,-7.205017e-05,0.00015980036,100548.25,64.87159,-0.0470397797,-0.0784082607,0.03522049637,-0.3379236325,0.00091945245,-0.0057660318,0.9411508975,0.007310942,0.00297705875,-2.4490411,-0.201991295,362048153.0,1382529221.0,41124.0,1.7490001,3.065,0.77,1.35,103.0,22.0,0.048,1.1893106,-0.305627585,0.20432205,-2.93146145,-0.014677151815000001,0.0055858145,-0.045003333,-0.026112905999999998,-1.630296185,1.8707409449999999,-1.35781455,-2.4517088,0.152313545,-0.14487843,0.13965626,0.98165655,0
617291088,0.014149241,0.008496744,-0.0013775186,100546.0,65.05919,-0.09619277250000001,-0.1461710557,0.14763674899999998,-0.346399615,0.017516742749999998,-0.012259510625,0.9378173525,0.019639656499999998,0.010551973,-2.4490411,-0.25348483499999996,362048153.0,1382529221.0,41124.0,1.7490001,3.065,0.77,1.35,103.0,22.0,0.048,1.1893106,-0.314508835,0.20641881,-2.9309798000000002,-0.0653481365,0.0160017965,-0.09750582999999999,-0.07204796799999999,1.7968923499999998,2.48919993,-2.5525414,-2.43031585,0.16839605000000002,-0.1271161,0.1280462,0.9976676,0
617491088,0.030178193,0.024006618,-0.0062367073,100547.5,64.93236,0.12303067720999998,0.028869629199999997,0.168075537,-0.36196221749999996,0.02187457875,-0.010731483499999998,0.9318555775000001,0.019858457000000003,0.0306668005,-2.4490411,-0.26115811,362048153.0,1382529221.0,41124.0,1.7490001,3.065,0.77,1.35,103.0,22.0,0.048,1.1893106,-0.33131833,0.210138565,-2.9598798,-0.13585123,-0.005956646249999999,-0.292551905,-0.2650704,2.0251044499999997,-3.7860334,-1.027508788,-2.39655585,0.19246287,-0.115274556,0.1512663,0.9976676,0
617691088,0.043303948,0.036305904,-0.012520683,100548.0,64.89008,0.06810433161999999,0.1012693157,0.09814261140000001,-0.37454602,0.009760548125,-0.00559692505,0.9271278375,0.034408313999999995,0.033590400500000006,-2.4490411,-0.24959956500000002,362048153.0,1382529221.0,41124.0,1.7490001,3.065,0.77,1.35,103.0,22.0,0.048,1.1893106,-0.35423821499999997,0.210631185,-3.0195736,-0.1883374,0.0002931737000000001,-0.41116269,-0.37460411,-3.0224956,4.43967135,1.06531595,-2.3718767,0.214533975,-0.14783882,0.18609649,0.93042105,0
617891088,0.050975632,0.043667864,-0.018510325,100549.25,64.78703,0.055796596200000007,0.03383252155,0.04554756826,-0.38092045,0.0027371628,-0.0044784001249999995,0.9245904675000001,0.029385409,0.0308758375,-2.4490411,-0.262813195,362048158.0,1382529221.0,41112.0,1.7470001,3.061,0.77,1.35,103.0,35.0,0.055000003,1.1893106,-0.36502403,0.20538439,-3.07104835,-0.16034503,-0.020992686,-0.42289941,-0.36380412500000003,-2.5289176,0.24356075,2.78945115,-2.3591559,0.22928053999999998,-0.15375958,0.22382918,0.8759834,0
618091088,0.058011588,0.050759293,-0.024243848,100545.49,65.10147,-0.01896022237,0.0005403466000000002,0.011244254755,-0.38347771750000004,0.0012503390850000001,-0.003667743375,0.9235413775,0.020122816,0.02046129775,-2.4490411,-0.26225339000000003,362048158.0,1382529221.0,41112.0,1.7470001,3.061,0.77,1.35,103.0,35.0,0.055000003,1.1893106,-0.362552165,0.20344318,-3.1246966499999997,-0.104479505,-0.023407439000000002,-0.5132018300000001,-0.43089128,2.895455985,-0.1273711500000001,-0.22902309999999998,-2.35432185,0.23940234500000002,-0.16560113,0.2296342,0.80873686,0
618291088,0.06399796,0.05542136,-0.029364645,100548.0,64.89008,0.059235454119999996,-0.01536268656,-0.0309627741,-0.382594195,5.589783500000001e-05,-0.0013146119000000001,0.923913725,0.020318443,0.011944821750000001,-2.4490411,-0.261909575,362048158.0,1382529221.0,41112.0,1.7470001,3.061,0.77,1.35,103.0,35.0,0.055000003,1.1893106,-0.352052155,0.209792725,-3.197478,-0.074949119,-0.0009872995000000002,-0.6082644500000001,-0.5066111849999999,-5.5461623499999995,5.0042572,-0.2626971,-2.35668195,0.24179177000000002,-0.16560113,0.2296342,0.7478947,0
618491088,0.06612682,0.05921589,-0.033889044,100542.5,65.35249,-0.006634166899999999,-0.040800722039999994,-0.027106489900000003,-0.38022400000000006,0.0023505171285,0.0014357224601000002,0.92488814,0.008458714275000001,-1.589254999999996e-05,-2.4490411,-0.26083704500000005,362048158.0,1382529221.0,41112.0,1.7470001,3.061,0.77,1.35,103.0,35.0,0.055000003,1.1893106,-0.3341801,0.22010684000000003,-3.2814511,-0.009155298,-0.006754304,-0.719112905,-0.594788875,2.379126825,0.46386825,-3.20029925,-2.3623989,0.24047680999999999,-0.17152192,0.21802415,0.69345707,0
618691088,0.07009141,0.06236101,-0.03806944,100540.5,65.51895,-0.025552057,-0.0075832977999999995,-0.034221955899999996,-0.3772833925,0.0052183175,-0.00045972545500000005,0.9260821625,0.002442592735,-0.0031113418000000004,-2.4490411,-0.26835152500000004,362048158.0,1382529221.0,41112.0,1.7470001,3.061,0.77,1.35,103.0,35.0,0.055000003,1.1893106,-0.32095080499999995,0.22786578000000002,-3.3756406500000002,0.01436995925,-0.0049026528,-0.798248375,-0.6492849350000001,1.207409,1.5642935999999998,-2.00632277,-2.36857725,0.24282681,-0.16856152,0.20060904,0.6518283,0
618891088,0.075129785,0.06474365,-0.041845266,100541.5,65.43704,-0.007797557799999996,-0.0102939623,-0.041411357100000004,-0.373975575,0.00709667485,-0.0020390263075,0.9274069475,0.01074698615,0.0024715151,-2.4490411,-0.26859666,362048158.0,1382529219.0,41029.0,1.7500001,3.0690002,0.77,1.35,103.0,34.0,0.043,1.1893106,-0.31782531999999997,0.241028455,-3.4928605,0.0099306695,-0.01156801475,-0.91514805,-0.75068304,4.3285338,-7.7318940000000005,-2.20280685,-2.3753339,0.24965371999999997,-0.16264075,0.17448644,0.6166039,0
619091088,0.07855447,0.06732715,-0.044416312,100537.0,65.812256,-0.10526867379999998,0.0582806602,0.0435428446,-0.372829925,0.0046153649250000005,-0.0022033987,0.9278681775,-0.041503268499999996,-0.006466479000000001,-2.3799334,-0.252427555,362048158.0,1382529219.0,41029.0,1.7500001,3.0690002,0.77,1.35,103.0,34.0,0.043,1.1893106,-0.328770165,0.24914326,-3.6252855,0.0052451821499999995,0.00953377885,-1.00021905,-0.8158596,4.95936065,-1.2115912999999998,-0.298167875,-2.3769361,0.24373571500000002,-0.16560113,0.15997386,0.5557618,0
619291088,0.081606224,0.06817327,-0.04536028,100532.49,66.19011,-0.1388352292,-0.313127112,-0.35428993805000003,-0.367078885,0.014959640375,-0.010606605875,0.9299102875,0.0277997975,-0.060996919,-2.3799334,-0.16110456,362048158.0,1382529219.0,41029.0,1.7500001,3.0690002,0.77,1.35,103.0,34.0,0.043,1.1893106,-0.3355695,0.25493951,-3.72435625,0.06264771649999999,0.16427629000000002,-0.47796267,-0.26882438,0.37910745,2.7619635000000002,4.1679588,-2.39539275,0.2463359,-0.16264075,0.12224116,0.52694184,0
619491088,0.08292177,0.06932974,-0.043771423,100531.5,66.27466,0.407610279,0.01510504560000001,-0.923697604,-0.286255085,0.054323096,-0.006338024450000001,0.955949925,0.030129339999999998,-0.095303243,-2.3799334,-0.212014825,362048158.0,1382529219.0,41029.0,1.7500001,3.0690002,0.77,1.35,103.0,34.0,0.043,1.1893106,-0.31374855,0.30895467,-3.6451515,0.2116495,0.39812398,0.41556693499999997,0.636588115,0.690728915,-0.7914066299999999,-0.3784736500000001,-2.5763534999999997,0.247198205,-0.12119533,0.055483337,0.54615515,0
619691088,0.06608931,0.055893604,-0.0356677,100530.75,66.33807,0.02278775197000002,0.22064209999999998,0.1124478668,-0.2567614775,0.01158042325,0.0333055315,0.96580784,-0.00960799548,-0.010521614,-2.3799334,-0.20963178999999998,362048158.0,1382529219.0,41029.0,1.7500001,3.0690002,0.77,1.35,103.0,34.0,0.043,1.1893106,-0.27304874,0.34017694,-3.5328386,0.17858678,0.22177171,0.2976722,0.505933195,2.8122065999999997,-9.51726025,-0.8679027,-2.62081265,0.2579839,-0.16856152,0.119338654,0.514133,0
619891088,0.0620458,0.058342017,-0.02751412,100532.24,66.21124,-0.3490228315,0.536044871,0.348995359,-0.28061207499999996,-0.01203610785,-0.0029683683249999994,0.9594690925,-0.042381005,0.108121865,-2.3799334,-0.238287535,362048197.0,1382529190.0,40771.0,1.8240001,3.104,0.77,1.35,103.0,17.0,0.23700002,6.1633263,-0.18265711,0.31465241,-3.4768494,0.290422085,0.14559792,0.27527699,0.435120865,3.26145185,-2.65616325,-3.6331417999999998,-2.5661225500000002,0.26728907,-0.18632385,0.10772859,0.5077286,0
620091088,0.06405772,0.051638722,-0.02536162,100532.25,66.21124,-0.10319360505,-0.03237162349999999,0.36636195299999996,-0.3142256075,-0.0254210275,-0.02775753775,0.9485320525000001,-0.032529920500000004,0.11395973799999999,-2.3799334,-0.23069612,362048197.0,1382529190.0,40771.0,1.8240001,3.104,0.77,1.35,103.0,17.0,0.23700002,6.1633263,-0.06405443499999999,0.2885305,-3.4424588500000004,0.416755545,0.18439843500000003,0.320524545,0.42452755,2.09232746,-3.5624722999999996,1.7641676499999999,-2.49590755,0.27303095499999996,-0.21296732,0.09611855,0.4949197,0
620291088,0.065811865,0.055180162,-0.026858842,100532.49,66.19011,0.0334071041,-0.1250634055,0.29887190500000005,-0.34423845999999997,-0.03565597975,-0.0312321815,0.9376269,-0.0197385725,0.0166912785,-2.3799334,-0.23347151,362048197.0,1382529190.0,40771.0,1.8240001,3.104,0.77,1.35,103.0,17.0,0.23700002,6.1633263,0.053672370500000004,0.276042665,-3.4069076999999997,0.51148481,0.28301432,0.42246569,0.470925155,-2.13067128,2.476762,0.3351341,-2.43408705,0.277529045,-0.21888812,0.10772859,0.49171746,0
620491088,0.06944715,0.055330195,-0.030191727,100533.24,66.12933,0.2790228999,-0.6739777140000001,0.22865912100000002,-0.36809965250000004,0.013764847125,-0.0024203869249999994,0.92942089,0.080540195,-0.114092372,-2.3799334,-0.23909353,362048197.0,1382529190.0,40771.0,1.8240001,3.104,0.77,1.35,103.0,17.0,0.23700002,6.1633263,0.15430769500000002,0.27460260999999997,-3.3582418,0.535010935,0.25153578,0.5120013649999999,0.50878629,2.3867050499999998,-5.6813456,-1.3297051500000001,-2.38318705,0.28747201499999997,-0.15375958,0.119338654,0.52694184,0
620691088,0.07322078,0.06075738,-0.03423808,100531.5,66.27466,0.254095790946,-0.32378208899999994,0.1493744434,-0.38417224,0.04166561175,0.058200379999999996,0.9203751750000001,0.0698184855,-0.146864415,-2.3799334,-0.2370851,362048197.0,1382529190.0,40771.0,1.8240001,3.104,0.77,1.35,103.0,17.0,0.23700002,6.1633263,0.21573151000000002,0.239107795,-3.3066528,0.44508733,0.03884344,0.565813935,0.513415625,-1.37149585,-0.45102622000000003,0.7693224650000001,-2.35347665,0.27240579,-0.09455185,0.188999,0.5301441,0
620891088,0.07031449,0.068359986,-0.038546704,100536.5,65.85453,-0.5740910410000001,0.33075835437,0.086040513,-0.39151660250000003,0.05509784375000001,0.030650355999999997,0.9178111675,-0.079584292,-0.042839596349999995,-2.3799334,-0.23387541,362048196.0,1382529189.0,40477.0,1.8520001,3.131,0.77,1.35,103.0,24.0,0.27800003,6.1633263,0.22496201,0.14872998999999998,-3.2574149500000003,0.302745865,-0.22791941,0.63031215,0.52795238,0.56312725,3.61569695,1.9089901500000002,-2.33456835,0.252692245,-0.067908354,0.17738895,0.55255955,0
621091088,0.07295176,0.0708958,-0.042260233,100534.0,66.06327,-0.46659527700000003,0.5370229980000001,0.04578996109999999,-0.39378126500000005,0.029682388,-0.0391155165,0.9176189674999999,-0.13152364500000002,0.050932167,-2.3799334,-0.23858863,362048196.0,1382529189.0,40477.0,1.8520001,3.131,0.77,1.35,103.0,24.0,0.27800003,6.1633263,0.172785165,0.063730833,-3.2022869,0.083836708,-0.278422575,0.7120318999999999,0.56072238,-2.2488082,-1.3196262,0.7792983775,-2.33033835,0.245969415,-0.12415571,0.12224116,0.5557618,0
621291088,0.082829975,0.06796559,-0.04548574,100535.5,65.93909,0.60449854735,0.0733084988,0.01145529973,-0.394111455,0.0025222928500000007,-0.045039334,0.9177311275,0.04507867,0.055123979,-2.3799334,-0.27740924,362048196.0,1382529189.0,40477.0,1.8520001,3.131,0.77,1.35,103.0,24.0,0.27800003,6.1633263,0.09919219500000001,0.029087706499999998,-3.13802685,-0.0440499265,-0.155519945,0.72875088,0.534616335,-2.32071825,2.2956406,0.28751994999999997,-2.3314068499999996,0.240425045,-0.16856152,0.110631116,0.55896395,0
621491088,0.085573,0.07226991,-0.048717756,100535.74,65.917946,0.7137117519999999,0.13478482400000003,0.0043619445,-0.3937863075,-0.03846576575,0.01517203445,0.9180140000000001,0.16690043999999998,0.079557585,-2.3799334,-0.267744205,362048196.0,1382529189.0,40477.0,1.8520001,3.131,0.77,1.35,103.0,24.0,0.27800003,6.1633263,0.0373267675,0.0464329925,-3.11252575,0.027807522,-0.08964921549999999,0.35806578499999997,0.1254619585,1.9381048,-0.9207308000000003,-1.042519975,-2.3289803,0.23734403999999998,-0.19520502,0.2093166,0.5365485,0
621691088,0.07781813,0.06836015,-0.051213257,100536.0,65.896805,-0.16989869279999997,-0.291263642,-0.02206895628,-0.38950076250000004,-0.04514389825,0.0505542645,0.9184654650000001,0.0499160175,-0.0252900875,-2.3799334,-0.21360167000000002,362048196.0,1382529189.0,40477.0,1.8520001,3.131,0.77,1.35,103.0,24.0,0.27800003,6.1633263,0.045803773000000006,0.049827173,-3.1483489000000002,0.22833062,-0.15797666999999999,0.30993923,0.046095916,0.6176129,-3.3309992499999996,-0.08755435,-2.337692,0.227753765,-0.20408617,0.27897695,0.49812192,0
621891088,0.073772214,0.06659191,-0.052855305,100536.75,65.83339,-0.641682196,-0.33162041929999997,-0.0050042416025,-0.38695073750000003,0.011206222299999999,0.01843981985,0.921562555,-0.0477991085,-0.059426612,-2.3799334,-0.24491095499999999,362048192.0,1382529185.0,40434.0,1.858,3.154,0.77,1.35,103.0,15.0,0.078,6.1633263,0.061325974000000005,0.036383245,-3.1425826,0.2774703,-0.240738515,0.47722822,0.199829595,-1.10489145,-2.29740752,2.04874848,-2.3464049,0.21591323,-0.15968037,0.2296342,0.5557618,0
622091088,0.0856361,0.071353,-0.054649897,100539.5,65.60351,0.5657179065,0.1575340759,-0.0218123527,-0.38572597999999997,0.017527881749999998,0.013072316925,0.9221655249999999,0.14631297999999998,-0.0012758085000000013,-2.3799334,-0.240713235,362048192.0,1382529185.0,40434.0,1.858,3.154,0.77,1.35,103.0,15.0,0.078,6.1633263,0.045938945,0.017240922,-3.1255922,0.20611336,-0.29407479999999997,0.45810222,0.16901869,-3.8956913999999996,4.7229366,1.34077075,-2.3494945,0.20417952,-0.14783882,0.19770655,0.58778393,0
622291088,0.08337465,0.07533775,-0.056345187,100537.74,65.75148,0.42491901300000007,0.6806701549999999,-0.043863432,-0.3844965025,-0.040106975749999996,0.0547115495,0.9203458975,0.18088092,0.18903171,-2.3799334,-0.24478452,362048192.0,1382529185.0,40434.0,1.858,3.154,0.77,1.35,103.0,15.0,0.078,6.1633263,0.0230527665,-0.009369694,-3.11851525,0.312504605,-0.41088356000000004,0.44097428,0.137209885,3.54545218,-3.31778055,-0.29049881999999994,-2.3467461,0.202461535,-0.18336345,0.290587,0.54615515,0
622491088,0.08309476,0.071860455,-0.05818029,100535.5,65.93909,0.010614735900000005,0.2881454479,-0.06891630350000001,-0.38042280500000003,-0.11090922875,0.04777005000000001,0.91684179,0.15981998,0.160615555,-2.3799334,-0.245982985,362048192.0,1382529185.0,40434.0,1.858,3.154,0.77,1.35,103.0,15.0,0.078,6.1633263,0.0517943,-0.035473398,-3.1052699500000003,0.5985004,-0.42485375999999997,0.48782285999999997,0.17265940000000002,-5.3406155,1.4677638499999999,-0.737081065,-2.3401243999999997,0.19660529,-0.2840166,0.3283197,0.4949197,0
622691088,0.07986089,0.06705318,-0.059026837,100541.195,65.46082,-0.478785389,-0.584497572,0.002427232930000001,-0.3787413875,-0.078143289,0.033919292,0.92131558,0.028083614500000003,0.02403500885,-2.3799334,-0.302087355,362048190.0,1382529182.0,40183.0,1.8820001,3.173,0.94,1.68,103.0,29.0,0.17400001,6.1633263,0.15867287,-0.052037093,-3.08992615,0.96056775,-0.40777441999999997,0.42328675,0.100404968,2.01293315,0.9522340000000002,0.02471002499999997,-2.35564435,0.20037534,-0.26329392,0.3254172,0.5653685,0
622891088,0.083529904,0.07339878,-0.06047935,100543.25,65.28907,-0.6758169119999999,-0.370172338,-0.0032207819999999997,-0.3809882725,-0.005739497,-0.005610551625,0.9242970475000001,-0.14710727,-0.0429261705,-2.3799334,-0.23207774,362048190.0,1382529182.0,40183.0,1.8820001,3.173,0.94,1.68,103.0,29.0,0.17400001,6.1633263,0.31420257500000004,-0.08034925500000001,-3.11029425,1.0672129,-0.39390595,-0.014583658499999999,-0.32592481500000003,6.55392575,-7.5447391999999995,-4.38426165,-2.3591853499999997,0.20479387999999998,-0.14487843,0.2296342,0.7062659,0
623091088,0.08292206,0.07234554,-0.061502118,100539.75,65.582375,-0.573781605,-0.46588060099999995,-0.0382722487,-0.378482725,0.05301745149999999,-0.048709810250000006,0.922550025,-0.22837589,-0.15533945500000002,-2.3799334,-0.242961345,362048190.0,1382529182.0,40183.0,1.8820001,3.173,0.94,1.68,103.0,29.0,0.17400001,6.1633263,0.405931115,-0.091326138,-3.1522311,0.82291653,-0.28239482,0.08221949249999999,-0.204454585,1.7610048,0.766407,-0.388367025,-2.3581214,0.201943375,-0.053106423,0.10192357,0.7639059,0
623291088,0.08821551,0.0782293,-0.062636904,100539.5,65.60351,0.024360276599999987,0.07089606399999998,-0.020695415389999996,-0.3755048,0.09637145650000001,-0.06937906999999999,0.91916606,-0.149001405,-0.077913548,-2.3799334,-0.246241745,362048190.0,1382529182.0,40183.0,1.8820001,3.173,0.94,1.68,103.0,29.0,0.17400001,6.1633263,0.33817248,-0.0619315025,-3.15321825,0.30357201,-0.137834005,0.120912825,-0.127985265,-7.6424838,4.6781385,1.686574635,-2.35347105,0.19476352,0.059388287,-0.0025669478,0.80873686,0
623491088,0.09177234,0.080209464,-0.06327607,100546.0,65.05919,0.624744997,0.4897835840000001,0.004315985029,-0.376684515,0.046404965000000006,-0.04969650125,0.92356829,-0.007467426999999999,0.028677352000000003,-2.3799334,-0.248103245,362048190.0,1382529182.0,40183.0,1.8820001,3.173,0.94,1.68,103.0,29.0,0.17400001,6.1633263,0.152614615,-0.0131206752,-3.14234195,-0.11493585749999999,-0.027078415,0.139404415,-0.07138910500000001,0.2529882,0.01093944999999999,1.9256174499999998,-2.3643966499999998,0.194121705,0.020903254,0.023555681,0.795928,0
623691088,0.087832786,0.07626104,-0.064113244,100541.99,65.39477,0.3588544955,0.11601964900000002,-0.0009566620100000002,-0.37918996,-0.009797471825,-0.00278356465,0.925192625,0.0266288405,0.026982185,-2.3799334,-0.24535039,362048190.0,1382529182.0,40183.0,1.8820001,3.173,0.94,1.68,103.0,29.0,0.17400001,6.1633263,0.0033079499999999987,0.026943496,-3.12147035,-0.25604672,0.027643136,0.12151074249999999,-0.051092060499999994,2.032190275,-2.4503439449999997,-0.08060765000000003,-2.3628356999999998,0.192668165,-0.029423328,0.13385123,0.7703103,0
623891088,0.084746584,0.075695656,-0.06511986,100542.5,65.35249,0.08801031999644,0.042016645219999996,-0.00243625473,-0.3818977175,-0.016059675875,0.010620452,0.9239975975,0.039388355,0.0345005285,-2.3799334,-0.25391865,362048182.0,1382529186.0,40220.0,1.8550001,3.1350002,0.77,1.35,103.0,40.0,0.010000001,6.1633263,-0.0709642325,0.0407024985,-3.10230565,-0.22497008000000002,0.0221431395,0.071695855,-0.068515125,-0.6069905500000004,-2.38245658,-0.7172044,-2.3564135000000004,0.18938979,-0.029423328,0.1512663,0.7767147,0
624091088,0.083437376,0.07503091,-0.066268,100547.0,64.97464,-0.072589793305,0.01578919912,-0.026366193149999995,-0.384040145,-0.020439785,0.01035864335,0.9230288849999999,0.021475764,0.0239785975,-2.3799334,-0.23897473000000002,362048182.0,1382529186.0,40220.0,1.8550001,3.1350002,0.77,1.35,103.0,40.0,0.010000001,6.1633263,-0.076218743,0.030233505,-3.0952658499999997,-0.132793295,-0.0008197549999999997,0.030163420500000003,-0.085132975,3.6620858,-1.77712775,-0.5464625350000001,-2.35229305,0.18397652,-0.032383714,0.15997386,0.767108,0
624291088,0.08264932,0.07408707,-0.067045495,100544.24,65.20716,-0.0540522256,-0.0296424026,-0.0475822657,-0.384274565,-0.016280754499999998,0.006382633625,0.9230507000000001,0.01507231475,0.016236572499999997,-2.3799334,-0.244668915,362048182.0,1382529186.0,40220.0,1.8550001,3.1350002,0.77,1.35,103.0,40.0,0.010000001,6.1633263,-0.046216045,0.019981468,-3.0849948,-0.071717683,-0.0096196715,0.056631975,-0.0374474955,-1.4172371,-3.2432746999999997,-0.8636293500000001,-2.3524079,0.17758834,-0.014621392,0.14546129,0.7703103,0
624491088,0.082803085,0.073224366,-0.06771754,100546.25,65.038055,-0.0498393398,-0.0724612851,-0.0482588401,-0.384269,-0.0095586121,0.0025115937999999997,0.923164675,0.00286542698,0.00578187435,-2.3799334,-0.243164935,362048182.0,1382529186.0,40220.0,1.8550001,3.1350002,0.77,1.35,103.0,40.0,0.010000001,6.1633263,-0.015086291,0.0151942545,-3.07280395,-0.027818909,-0.0016573851499999998,0.0590701415,-0.017993896,-1.954180665,3.5349454000000002,0.430004715,-2.35262035,0.17009765500000001,0.00314093,0.1280462,0.767108,0
624691088,0.083550386,0.0720953,-0.06784385,100542.49,65.35249,-0.045910709503999995,-0.0059834543599999995,-0.012730397,-0.385209285,-0.006255820525,0.0005542664375000001,0.9228062825000001,0.005343566625,0.004506836685,-2.3517425,-0.24101073,362048182.0,1382529186.0,40220.0,1.8550001,3.1350002,0.77,1.35,103.0,40.0,0.010000001,6.1633263,0.002106268365,0.008466275249999999,-3.0715425,-0.020668306,0.01007813304,0.050861962,-0.022660216499999997,-2.877291785,6.36179835,-0.88673333,-2.3500249,0.164325905,0.029784415,0.10192357,0.7703103,0
624891088,0.083805226,0.070894524,-0.06794112,100539.75,65.582375,0.008272589406000003,-0.0102522913,-0.00205245956,-0.3874058625,-0.004220251875,-0.0015127689,0.9218977575,-0.0025556152499999997,0.00434646275,-2.34834275,-0.24397316,362048178.0,1382529184.0,40220.0,1.8590001,3.1420002,0.77,1.35,102.0,36.0,0.047000002,6.1633263,0.00903012875,-0.00375950805,-3.0765661,-0.010011221825,-0.005489438500000001,0.0612075015,-0.0140999072,1.1754013,4.0215502800000005,1.5116231999999998,-2.3455011,0.16419073,0.04458635,0.087410994,0.767108,0
625091088,0.08349524,0.07154034,-0.06877356,100546.75,64.99577,-0.03663015157,0.0049880114999999985,-0.031051473749999996,-0.38599171000000004,-0.0027778944,-0.00200052085,0.9224946,-0.0052816033,0.01246494175,-2.3496553999999996,-0.261744,362048178.0,1382529184.0,40220.0,1.8590001,3.1420002,0.77,1.35,102.0,36.0,0.047000002,6.1633263,0.0122440975,-0.012249853500000001,-3.0766572,-0.0251214825,-0.0247894105,0.051642483999999995,-0.023468549335,-0.903027225,-1.8671061500000001,0.33703023,-2.3498581,0.1632253,0.06234868,0.078703456,0.7607036,0
625291088,0.084254235,0.07199025,-0.069267295,100543.74,65.246796,0.029616585299999998,0.03138149985,-0.00915823913,-0.3853112625,-0.0046595982250000004,-0.0021475128825,0.922770325,0.00446246565,0.009010199,-2.3505436499999997,-0.22744254,362048178.0,1382529184.0,40220.0,1.8590001,3.1420002,0.77,1.35,102.0,36.0,0.047000002,6.1633263,0.0131970675,-0.0183110305,-3.09150875,-0.038037815,-0.008487406999999999,-0.062648125,-0.135363095,0.5599829499999999,2.7177545,-0.8410776560000001,-2.35065395,0.167102645,0.07419022,0.067093395,0.7478947,0
625491088,0.08302828,0.07024948,-0.06937324,100546.25,65.038055,-0.009021166499999999,-0.0008147396499999987,-0.00701361812,-0.3843040675,-0.007443598175,-0.0018750303125,0.923174335,-0.008505169830000001,0.00808828975,-2.3525854,-0.24481232,362048178.0,1382529184.0,40220.0,1.8590001,3.1420002,0.77,1.35,102.0,36.0,0.047000002,6.1633263,0.014856102999999999,-0.022095746,-3.10136585,-0.0283908125,-0.01072941789,0.042426663499999996,-0.024670022,1.0768651,-0.901579465,2.2106933,-2.3525966499999997,0.16757867999999998,0.080111,0.06419089,0.72547925,0
625691088,0.08220193,0.06686319,-0.06956273,100544.0,65.225655,0.10977872043999999,-0.35841118950000006,0.00887445152,-0.3850210725,0.0032317854499999995,0.005725395115,0.9228092025,0.032078546,-0.074629468,-2.351893,-0.250879415,362048168.0,1382529194.0,40353.0,1.9060001,3.1750002,0.77,1.35,102.0,16.0,0.079,6.1633263,0.015493233,-0.0262479735,-3.0946396500000004,-0.055745468,-0.025750517,0.053110805,-0.006582867399999999,-1.37632467,1.9963167,-0.06857095000000002,-2.3509037499999996,0.1715781,0.1037941,0.058385853,0.71907485,0
625891088,0.08220219,0.07185872,-0.07019713,100545.0,65.143745,-0.0942075094,-0.013466334399999997,0.0377384266,-0.387395165,0.02739325025,0.020260738,0.9212758,0.00672826495,-0.027174497,-2.351893,-0.245470495,362048168.0,1382529194.0,40353.0,1.9060001,3.1750002,0.77,1.35,102.0,16.0,0.079,6.1633263,-0.000608992,-0.0401562395,-3.0903735,-0.134628645,-0.12841365700000001,0.0216059235,-0.031207154,-2.71737775,-1.3691386749999999,-1.88102265,-2.34523905,0.17578496,0.16300184,0.06419089,0.6998615,0
626091088,0.08324986,0.07754822,-0.07135228,100545.0,65.143745,0.035716757919999995,0.715009829,0.038725164699999995,-0.39067315750000003,0.0003055057499999998,0.002995137175,0.9202709325,0.0033294805,0.136746565,-2.3439025,-0.249998365,362048168.0,1382529194.0,40353.0,1.9060001,3.1750002,0.77,1.35,102.0,16.0,0.079,6.1633263,-0.0324667845,-0.059339448,-3.09104395,-0.172186225,-0.175667555,0.0431428235,-0.005847428,1.4853574999999999,0.0670831999999999,2.35264495,-2.3376105000000003,0.17979051499999998,0.1481999,0.052580826,0.69025487,0
626291088,0.0833396,0.069423325,-0.07244639,100541.5,65.43704,-0.0036696743000000005,-0.11508602489999997,0.0425851067,-0.3934593675,-0.0466630865,-0.013798801749999999,0.9180207,0.00607668235,0.0368118775,-2.3306894,-0.25457083999999996,362048168.0,1382529194.0,40353.0,1.9060001,3.1750002,0.77,1.35,102.0,16.0,0.079,6.1633263,-0.0562887585,-0.06866800249999999,-3.0888997,-0.1199676825,-0.09759102,0.06033584,0.0123784735,3.14835825,2.01622685,-1.5069503649999998,-2.3302527499999997,0.18361409,0.04754674,0.049678314,0.677446,0
626491088,0.08397533,0.06974842,-0.07367901,100544.99,65.143745,-0.027954167749999998,-0.25111104799999995,0.0838835374,-0.3994418175,-0.018405735,-0.0025953190949999996,0.9165468099999999,0.008678105,-0.02532898,-2.3223002,-0.25109709999999996,362048168.0,1382529194.0,40353.0,1.9060001,3.1750002,0.77,1.35,102.0,16.0,0.079,6.1633263,-0.07058707,-0.0626742475,-3.0871396,-0.09447872700000001,-0.039369335000000005,0.0382877715,-0.0094766215,0.3196241000000002,0.6658962,-1.99141545,-2.3176246000000003,0.18857369499999999,0.1037941,0.040970765,0.66783935,0
626691088,0.08001838,0.06901021,-0.0757514,100544.25,65.20452,-0.44806870410000005,-0.3960645971,0.0407057376,-0.40539286,0.023599710475,-0.0010768667299999998,0.9136610999999999,-0.1226175525,-0.0735258125,-2.3223003,-0.250546365,362048173.0,1382529210.0,40410.0,2.071,3.2900002,0.77,1.35,102.0,16.0,0.71300006,6.1633263,-0.09941372000000001,-0.055249866,-3.0877715,-0.192523615,-0.047982625,0.0215536935,-0.024607091999999997,-2.357132,-1.26259912,-0.9439422500000001,-2.30445005,0.19488335,0.15412068,0.03516574,0.6518283,0
626891088,0.079928614,0.07510319,-0.076954156,100548.75,64.82931,-0.47056488199999996,0.222660408,-0.008121404091999998,-0.402817255,0.05440416275,-0.055228585250000004,0.9118211775,-0.17563782,-0.0102872412,-2.3223002,-0.2468005,362048173.0,1382529210.0,40410.0,2.071,3.2900002,0.77,1.35,102.0,16.0,0.71300006,6.1633263,-0.16698533,-0.0531929305,-3.09228535,-0.418765985,0.00011256649999999944,-0.0006661047500000003,-0.044256619999999997,-2.4401649,-2.3477972,0.08076235,-2.3069777499999997,0.20106824499999998,0.17780378,-0.04320215,0.6614349,0
627091088,0.08901421,0.073815286,-0.07703011,100545.74,65.08033,0.744312593,0.11350864810000001,-0.031128220700000004,-0.3997916,0.02670444525,-0.04515603625,0.9148239625,0.041108742499999996,0.0006588704999999999,-2.3223002,-0.250576815,362048173.0,1382529210.0,40410.0,2.071,3.2900002,0.77,1.35,102.0,16.0,0.71300006,6.1633263,-0.27690952,-0.038843711,-3.0874344000000002,-0.628887735,0.10009297,0.038386234,0.0027917004,-0.6551347000000001,-0.33600759999999985,0.357566,-2.3179057,0.20726004,0.1481999,-0.054812208,0.6614349,0
627291088,0.08799599,0.07406142,-0.07668157,100543.99,65.2283,0.7791062710000001,0.321818334,-0.036575979300000006,-0.39751243,-0.022657849695000003,0.025060501375,0.9166451099999999,0.18904838000000002,0.0835988855,-2.3223002,-0.24979126499999998,362048173.0,1382529210.0,40410.0,2.071,3.2900002,0.77,1.35,102.0,16.0,0.71300006,6.1633263,-0.37576939,-0.00833340915,-3.0816805,-0.61314598,0.102474655,-0.01166195625,-0.040447529999999995,-6.1016862,2.6431641750000003,-3.21076725,-2.32247915,0.21269833999999999,0.13339797,0.058385853,0.6550305,0
627491088,0.080815315,0.071596935,-0.07622912,100543.74,65.246796,0.011328988000000017,0.23394392879999998,-0.037649582,-0.393248065,-0.07522449,0.05565146925,0.9146073025000001,0.114311758,0.0959879075,-2.3223002,-0.24349692,362048173.0,1382529210.0,40410.0,2.071,3.2900002,0.77,1.35,102.0,16.0,0.71300006,6.1633263,-0.412325575,0.018826746999999998,-3.09090275,-0.3127833,0.0248504295,-0.006529778499999998,-0.0343047388,2.9415085149999998,-1.6418099750000001,1.831023735,-2.32184635,0.21677517000000002,0.080111,0.1483638,0.6198061,0
627691088,0.077891015,0.06603656,-0.07557509,100546.0,65.05919,-0.5462546269999999,-0.43845696199999995,-0.006320083714,-0.3938941625,-0.0471176615,0.02198632025,0.917447715,-0.008808208750000001,0.00434267775,-2.3223002,-0.252905885,362048158.0,1382529205.0,40255.0,2.2410002,3.4750001,0.77,1.35,102.0,51.0,0.38200003,6.1633263,-0.389113785,0.0361000665,-3.0868876,-0.053087555,-0.022253337499999998,0.037879627,0.0137037091,5.90465935,-3.28833245,0.054833750000000014,-2.3282305,0.22007593,0.07715061,0.104826085,0.6262106,0
627891088,0.08285296,0.0685535,-0.07501655,100543.5,65.26794,-0.1095025589,-0.45554023800000004,-0.010724453924,-0.3937965475,0.0042912171750000005,0.007133180075,0.919071665,-0.01192834765,-0.113229685,-2.3223003,-0.2462379,362048158.0,1382529205.0,40255.0,2.2410002,3.4750001,0.77,1.35,102.0,51.0,0.38200003,6.1633263,-0.349895015,0.0587111885,-3.08366585,-0.0216268343,-0.018492974000000002,0.001459668,-0.0195688923,-4.8428628,3.10219815,-0.489225715,-2.3324077,0.22403651000000002,0.13635837,0.043873284,0.63581717,0
628091088,0.080312945,0.06644948,-0.07413383,100543.74,65.246796,-0.356227568,-0.646884339,-0.0189532608,-0.39058248500000003,0.0678056235,0.013154815625,0.91772884,-0.11176414500000001,-0.23348373500000003,-2.3223002,-0.248705695,362048158.0,1382529205.0,40255.0,2.2410002,3.4750001,0.77,1.35,102.0,51.0,0.38200003,6.1633263,-0.34794704,0.06910358750000001,-3.08709365,-0.19597303500000002,-0.13696206,-0.0140419457,-0.03245739,-4.31261485,-0.04807319999999993,0.16379615000000003,-2.33460465,0.22947361,0.19852649,0.02936071,0.603795,0
628291088,0.08187549,0.07477941,-0.07324844,100546.25,65.038055,-0.2626853596,0.303768339,0.0068674639240000005,-0.38462487749999996,0.11038656125,-0.0125213047,0.91626131,-0.134376945,-0.093395451,-2.3223002,-0.243926005,362048158.0,1382529205.0,40255.0,2.2410002,3.4750001,0.77,1.35,102.0,51.0,0.38200003,6.1633263,-0.41340831,0.03671245,-3.08815445,-0.5398562,-0.276363315,-0.0125034015,-0.0272963705,2.80881785,-2.856539925,-2.643371985,-2.33719835,0.233395005,0.2666154,-0.025787063,0.603795,0
628491088,0.082312115,0.07503256,-0.07172813,100546.0,65.05919,0.250103067,0.773499351,0.037418701732,-0.383982755,0.045672702999999995,-0.0353444905,0.9212492325,-0.043409695000000005,0.06707398,-2.3223002,-0.251384845,362048158.0,1382529205.0,40255.0,2.2410002,3.4750001,0.77,1.35,102.0,51.0,0.38200003,6.1633263,-0.53556582,-0.032134818,-3.08583925,-0.8318098700000001,-0.274343585,0.0354677995,0.021997887,0.21320197,0.9836891999999999,0.49747185,-2.3496858,0.23770267,0.18964532,-0.028689576,0.63581717,0
628691088,0.084779724,0.071823165,-0.07089602,100543.99,65.2283,0.515993194,0.588040986,0.0436075061,-0.38603760499999995,-0.031288736375,-0.024156603750000002,0.921357235,0.0750872875,0.175417655,-2.3223003,-0.249260075,362048158.0,1382529205.0,40255.0,2.2410002,3.4750001,0.77,1.35,102.0,51.0,0.38200003,6.1633263,-0.65575125,-0.110065935,-3.0818208,-0.840435735,-0.171278875,-0.0005616584500000002,-0.0119017125,-1.09296945,6.0728089,-0.05033684999999999,-2.3475573499999998,0.24127145,0.09491293,0.006140595,0.66463715,0
628891088,0.08252478,0.06991275,-0.07054713,100541.75,65.41591,0.30062801440000003,0.383868483,0.00496272811,-0.38474416,-0.100492215,0.0010541018749999995,0.9173803575,0.11962485,0.199117945,-2.3223002,-0.24625092999999998,362048172.0,1382529180.0,40388.0,2.443,3.7340002,0.77,1.35,102.0,24.0,0.245,6.1633263,-0.7125079,-0.17345875,-3.0866462,-0.553273115,-0.064490603,-0.0171668375,-0.0287743125,-2.83114745,3.5759073500000005,-1.35257435,-2.3386355500000002,0.24565839,0.009061705,0.08160597,0.67104155,0
629091088,0.0749996,0.05917043,-0.06972641,100543.5,65.26794,-0.2324099312,-0.647853181,0.0397679688,-0.385617235,-0.08636460375,0.012207709999999998,0.9182597050000001,0.012161731499999998,0.04540118,-2.3223002,-0.24762817,362048172.0,1382529180.0,40388.0,2.443,3.7340002,0.77,1.35,102.0,24.0,0.245,6.1633263,-0.68247342,-0.19628865499999998,-3.0935282500000003,-0.16891119999999998,0.0233532975,0.025952638700000003,0.008964762000000001,6.2165377,1.7276822,1.47791615,-2.3400118,0.24931340000000002,0.00018054433,0.104826085,0.66463715,0
629291088,0.07169976,0.063987866,-0.069398925,100543.0,65.31021,-0.761620303,-0.42941913200000004,0.0253593635,-0.39093713750000003,-0.015265178249999999,-0.020475594425,0.9197339675,-0.152655695,-0.02585102715,-2.3223002,-0.247464085,362048172.0,1382529180.0,40388.0,2.443,3.7340002,0.77,1.35,102.0,24.0,0.245,6.1633263,-0.6041315650000001,-0.179579445,-3.0975426500000003,-0.0319970755,0.106262197,0.014546566,-0.00894733055,2.37483955,1.51455595,-0.07502885000000004,-2.3368531,0.25110297,0.086031765,0.03516574,0.69345707,0
629491088,0.075042546,0.06620735,-0.069458604,100547.25,64.9535,-0.5864993490000001,-0.500423376,-0.0032362261899999993,-0.3928427975,0.05651614175,-0.06439911175,0.9153299,-0.23670022,-0.1113044,-2.3223002,-0.25327135,362048172.0,1382529180.0,40388.0,2.443,3.7340002,0.77,1.35,102.0,24.0,0.245,6.1633263,-0.5562770349999999,-0.136587705,-3.10402675,-0.222825575,0.226257635,0.025332115,-0.0040382585,1.4229659499999998,-0.8004156,-1.2851337175,-2.3243282499999998,0.25457465,0.15708107,-0.057714723,0.69345707,0
629691088,0.08209546,0.073324285,-0.06981436,100544.24,65.20716,0.1792690226,-0.03268752813,-0.0029487039,-0.39249705500000004,0.09075555499999999,-0.0795628985,0.9117850675000001,-0.15450812,-0.10604716,-2.3223002,-0.252609675,362048172.0,1382529180.0,40388.0,2.443,3.7340002,0.77,1.35,102.0,24.0,0.245,6.1633263,-0.5961565099999999,-0.07859124,-3.1039015,-0.596972595,0.33601892499999997,0.041915688,0.0111586675,3.4465684999999997,-3.529614,-1.9366878025,-2.31714455,0.25673305999999996,0.21628882,-0.1128625,0.67104155,0
629891088,0.087759584,0.07261988,-0.06999717,100547.25,64.9535,0.9251828499999999,-0.10314712955000001,-0.002805753242,-0.39682001,0.075287355,-0.024568521,0.9140774625,0.06575545,-0.12288937,-2.3223002,-0.25423019999999996,362048191.0,1382529174.0,40575.0,2.608,4.01,0.77,1.35,102.0,39.0,0.38300002,6.1633263,-0.70444895,-0.017317553,-3.1021136,-0.96621752,0.36299999,0.051430180500000006,0.018636065,-4.38814475,4.038544,-1.6684481375,-2.3160615,0.26039529,0.21924919,-0.060617235,0.69345707,0
630091088,0.082710326,0.07485689,-0.07035758,100544.99,65.143745,0.678501978,0.306861375,-0.00380896045,-0.40246049,0.031246928750000003,0.056070975999999995,0.9129374524999999,0.185758035,-0.026808873,-2.3223002,-0.24519362,362048191.0,1382529174.0,40575.0,2.608,4.01,0.77,1.35,102.0,39.0,0.38300002,6.1633263,-0.816109,0.010153371000000001,-3.1012421999999997,-1.0323077500000002,0.141064975,0.0005739454999999999,-0.0300672285,4.618333775,-4.5349531,-2.34872585,-2.3142617999999997,0.26433368,0.21332842,0.09031351,0.7062659,0
630291088,0.08255241,0.07566452,-0.071325205,100544.99,65.143745,0.46317538229999994,0.560916759,-0.0468495207,-0.40419617750000003,-0.034107455,0.09000142475,0.909337265,0.24594125500000003,0.08258297,-2.3223002,-0.249641195,362048191.0,1382529174.0,40575.0,2.608,4.01,0.77,1.35,102.0,39.0,0.38300002,6.1633263,-0.86657538,-0.029201504,-3.1048139499999996,-0.83049275,-0.120021271,0.0035557359500000005,-0.0250320765,-2.4855923499999997,3.3462942499999997,0.21512023500000002,-2.3039261,0.26691388000000005,0.12451681,0.20351158,0.7350859,0
630491088,0.07578576,0.072605826,-0.07226552,100544.49,65.18603,-0.538363104,0.381666297,-0.06161152290000001,-0.4041980625,-0.07956685899999999,0.0674513735,0.9085077825,0.06601252656,0.14419967,-2.3223002,-0.24866302499999998,362048191.0,1382529174.0,40575.0,2.608,4.01,0.77,1.35,102.0,39.0,0.38300002,6.1633263,-0.828194615,-0.11330416000000001,-3.1075101500000004,-0.42183638,-0.294211,0.030038791500000002,0.0028756245,-0.4350958500000002,4.8026791,1.37595605,-2.2955966,0.26802909500000005,0.0061013177,0.27026942,0.7478947,0
630691088,0.07604719,0.06695501,-0.0727228,100546.5,65.016914,-0.778338134,-0.2355674795,-0.0441126157,-0.406037485,-0.06256927024999999,-0.006097249250000001,0.9113991724999999,-0.06901771500000001,0.0500765105,-2.3223002,-0.275122535,362048191.0,1382529174.0,40575.0,2.608,4.01,0.77,1.35,102.0,39.0,0.38300002,6.1633263,-0.730920625,-0.182906335,-3.1004218000000003,-0.0852409725,-0.285848185,0.03404944585,0.011334038500000001,6.799296200000001,-3.291630675,1.07563065,-2.3018195500000003,0.270675795,-0.061987583,0.1715839,0.79272574,0
630891088,0.08632026,0.06677896,-0.07316869,100547.0,64.97464,0.04050143660000001,-0.41503609380000006,-0.027680945100000003,-0.40618528,-0.00178419165,-0.02135365625,0.913425685,-0.018652612,-0.0018711389999999974,-2.3223002,-0.258452835,362048171.0,1382529139.0,40063.0,2.7480001,4.2720003,0.77,1.35,102.0,26.0,0.416,6.1633263,-0.6439022999999999,-0.22017525500000001,-3.1197584999999997,0.00364846939,-0.165938885,-0.24790904000000002,-0.266460875,4.8846989999999995,-3.071552925,-0.73750746,-2.3054825,0.27300383,0.0061013177,0.08160597,0.83755684,0
631091088,0.08473797,0.07581263,-0.07326109,100549.0,64.808174,0.13769212599999997,0.336855492,-0.0481461773,-0.4024746125,-0.018246870875,-0.01787377875,0.9149737,-0.003721598315,0.0544137164,-2.3223002,-0.23031482,362048171.0,1382529139.0,40063.0,2.7480001,4.2720003,0.77,1.35,102.0,26.0,0.416,6.1633263,-0.5999372249999999,-0.2435116,-3.1761905,-0.0034125809,-0.08409216,-0.284289865,-0.29612893,2.6370164000000003,-3.2365648,0.7201435,-2.31482125,0.27483146,-0.005740231,0.110631116,0.8151413,0
631291088,0.08331472,0.06909877,-0.0725292,100542.25,65.37363,0.002909618800000002,-0.24124115380000002,-0.046549909,-0.3988908025,-0.01312234525,-0.00860249825,0.91683749,-0.0102654982,0.001840595825,-2.3223003,-0.221945785,362048171.0,1382529139.0,40063.0,2.7480001,4.2720003,0.77,1.35,102.0,26.0,0.416,6.1633263,-0.5871852900000001,-0.28518948499999996,-3.19618415,0.0006111394999999999,-0.033692618,-0.040814818499999996,-0.03677945,-2.560863995,1.553983,1.63533145,-2.3211323000000004,0.27366974,-0.017581778,0.12514369,0.78311914,0
631491088,0.08197698,0.06937978,-0.07194107,100541.99,65.39477,-0.064956883043,-0.0713509705,-0.010680499520000001,-0.4012620825,0.00023636378500000018,-0.006654703725,0.9159306850000001,-0.002985061,-0.0022734161499999997,-2.3223002,-0.26363395,362048171.0,1382529139.0,40063.0,2.7480001,4.2720003,0.77,1.35,102.0,26.0,0.416,6.1633263,-0.58083225,-0.33117531,-3.17945145,0.0017642379500000002,-0.0212233645,-0.0040696699999999975,0.0103044175,-0.8791981000000001,2.17216175,1.619494005,-2.3143605000000003,0.256941365,-0.005740231,0.12224116,0.7895236,0
631691088,0.082839005,0.06811728,-0.07206922,100546.75,64.99577,0.1580246258,-0.1218696703,-0.037174911500000005,-0.4054885925,0.0053705013749999995,0.007791388775,0.91401511,0.005891939,-0.017422351,-2.3223002,-0.241825305,362048171.0,1382529139.0,40063.0,2.7480001,4.2720003,0.77,1.35,102.0,26.0,0.416,6.1633263,-0.5667527,-0.35248210999999996,-3.1891564,-0.006766742599999999,-0.0570735715,-0.105449365,-0.089346338,1.1934819,-3.7707561,0.1198822,-2.30583845,0.24295698,-0.0027798433,0.13675375,0.77991694,0
631891088,0.08073471,0.07189867,-0.07230766,100542.75,65.33135,-0.1152829074,0.17149909504,-0.058047798299999995,-0.407843995,-0.0029161295,-0.0004621585499999998,0.9130224149999999,0.00034485474999999995,0.0103354765,-2.3223002,-0.248668505,362048175.0,1382529138.0,39967.0,2.6880002,4.085,0.77,1.35,102.0,24.0,0.030000001,6.1633263,-0.5519820449999999,-0.35198119,-3.20183565,-0.033726724,-0.046400719,-0.055628647499999996,-0.0384647185,-5.25917675,1.1751990499999998,0.49678710000000004,-2.3007841,0.23564217999999998,-0.017581778,0.13965626,0.7639059,0
632091088,0.08115358,0.07043093,-0.07240826,100544.49,65.18603,-0.012326671800000003,-0.041266946900000004,-0.0536096813,-0.408696765,-0.0019673763250000003,-0.0039738713249999995,0.9126588375000001,-0.0014108522999999999,-0.0003904474999999999,-2.3223003,-0.248145035,362048175.0,1382529138.0,39967.0,2.6880002,4.085,0.77,1.35,102.0,24.0,0.030000001,6.1633263,-0.5432361800000001,-0.34837113,-3.2060221,-0.034886712,-0.024920843,-0.08212267000000001,-0.061231345,-2.4889002,3.8322689499999996,-0.5458246499999999,-2.2995235000000003,0.230074585,-0.029423328,0.14546129,0.7607036,0
632291088,0.08152234,0.07120107,-0.07260862,100545.24,65.122604,0.0037859953,-0.016822946899999996,-0.059531270000000004,-0.4084091225,0.001077931865,-0.003328526325,0.9127918025,-0.00723770275,0.00036031945000000005,-2.3223002,-0.238165075,362048175.0,1382529138.0,39967.0,2.6880002,4.085,0.77,1.35,102.0,24.0,0.030000001,6.1633263,-0.527184455,-0.351208935,-3.2138746,-0.023145437499999998,-0.030704184,-0.08706433,-0.06048868,6.06812,-1.37685988,0.39316894999999996,-2.3004749999999996,0.208536215,-0.03830449,0.1483638,0.7607036,0
632491088,0.08132798,0.07091013,-0.07254253,100541.24,65.45818,0.0015976946999999991,0.005435520349999999,-0.06056852979999999,-0.40702355,0.00019030844750000004,-0.0016902487000000001,0.9134151899999999,-0.007796288708,0.0008310384600000001,-2.3223002,-0.245116775,362048175.0,1382529138.0,39967.0,2.6880002,4.085,0.77,1.35,102.0,24.0,0.030000001,6.1633263,-0.50228271,-0.35229367,-3.2166448499999998,-0.043675566,-0.024805871,-0.055614993,-0.023187968,-0.92789525,-0.8582378499999999,-0.316771085,-2.3034696500000003,0.198087925,-0.050146036,0.15416884,0.74469256,0
632691088,0.080941096,0.07075848,-0.072429314,100546.0,65.05919,-0.027563138800000005,-0.015847301355,-0.048402862000000005,-0.40545828,0.001245525625,-0.0029436011,0.9141072024999999,-0.00833629005,-0.0035594489000000005,-2.3223003,-0.24936064000000002,362048163.0,1382529139.0,40246.0,2.6250002,3.9420002,0.83,1.4,102.0,34.0,0.25,6.1633263,-0.481354165,-0.34944709,-3.22048625,-0.046078153499999996,-0.015321383,-0.07602212,-0.041605522000000006,-1.2002869,-0.4748241499999999,-0.5938528999999999,-2.3070561,0.18572518,-0.06494798,0.15416884,0.7414903,0
632891088,0.07967871,0.070797846,-0.07195265,100542.5,65.35249,0.02737238232,-0.0516434699425,-0.07105762909999999,-0.40232415749999995,0.004930738174999999,-0.0023324872,0.9154791125,-0.0130285035,-0.010846136999999999,-2.3223002,-0.2423203,362048163.0,1382529139.0,40246.0,2.6250002,3.9420002,0.83,1.4,102.0,34.0,0.25,6.1633263,-0.45044485,-0.3461921,-3.2241504,-0.0321347235,-0.0159561452,-0.07655777750000001,-0.0378285935,3.84090095,-4.4067168,0.01049089999999997,-2.3146849,0.180121695,-0.073829144,0.16577889,0.72547925,0
633091088,0.080798075,0.07260622,-0.070561334,100541.74,65.41591,0.13021195903,0.09848254006300002,-0.1294157582,-0.395676925,0.0058518587950000004,-0.00124578835,0.918354895,0.0327288595,0.033519453,-2.3223002,-0.25300806,362048163.0,1382529139.0,40246.0,2.6250002,3.9420002,0.83,1.4,102.0,34.0,0.25,6.1633263,-0.42636244,-0.347839255,-3.22225965,-0.019957033,0.010492858447500001,-0.040906687500000004,0.0034474759999999997,1.0572165500000001,-6.0098651499999995,-0.5186829999999999,-2.3305096499999998,0.1774751,-0.08863108,0.16287638,0.722277,0
633291088,0.085227735,0.07366526,-0.06625609,100539.75,65.582375,0.3522492606,0.04329557549999999,-0.24438793800000003,-0.37938441,-0.0173599735,0.02221369675,0.9247046050000001,0.11035436500000001,0.008432165750000001,-2.3223002,-0.26417204,362048163.0,1382529139.0,40246.0,2.6250002,3.9420002,0.83,1.4,102.0,34.0,0.25,6.1633263,-0.39978704,-0.34845709999999996,-3.2211231,0.10648012000000001,0.088191643,-0.019699334025,0.021085437635000003,0.9440562699999999,4.1346627,-0.32257207,-2.36759795,0.17982878,-0.13303687,0.1919015,0.69665927,0
633491088,0.07679252,0.07074954,-0.058434978,100542.75,65.33135,-0.45882995639999996,-0.1873048405,-0.13179717959999998,-0.36115445,-0.013933077425,0.02563806625,0.931914415,-0.069643152,-0.04206392,-2.3223002,-0.239618485,362048163.0,1382529139.0,40246.0,2.6250002,3.9420002,0.83,1.4,102.0,34.0,0.25,6.1633263,-0.36192677,-0.347309315,-3.2367835,0.255737285,0.04895152,-0.123778047,-0.090794978,0.08802310000000002,-2.5894933,0.4533425,-2.40484,0.18485747,-0.13599727,0.22382918,0.6838504,0
633691088,0.07455704,0.06827102,-0.052069195,100542.0,65.39477,-0.3173557704,-0.2412854272,-0.020559092979999995,-0.35487015,0.03536938225,-0.012586209349999999,0.9340517625,-0.0604877035,-0.0613396665,-2.3223002,-0.24135500999999998,362048161.0,1382529143.0,39825.0,2.703,4.031,0.77,1.35,102.0,37.0,0.11100001,6.1633263,-0.31376219,-0.34821174,-3.26293705,0.23049094999999997,0.08110044,-0.11334981999999999,-0.08798986,-3.5596387499999995,7.2360261999999995,-0.844731675,-2.41400495,0.19112843000000002,-0.091591455,0.13385123,0.7062659,0
633891088,0.07829143,0.07260873,-0.04688673,100541.0,65.47668,0.31279131149999995,0.1389212313,-0.001222818547,-0.3551686425,0.0291891005,-0.0073246153375,0.93427966,0.036511178,-0.0295298665,-2.3223002,-0.25029142,362048161.0,1382529143.0,39825.0,2.703,4.031,0.77,1.35,102.0,37.0,0.11100001,6.1633263,-0.282300325,-0.329857325,-3.278379,0.15098339500000002,0.117694365,-0.068247118,-0.045349144,-1.1801491999999998,3.36401415,-0.47093364999999987,-2.41436435,0.195283975,-0.091591455,0.1280462,0.69665927,0
634091088,0.08098417,0.073832996,-0.04174522,100540.5,65.51895,0.5625682189999999,0.1650017795,0.025765464149999993,-0.35660194749999996,-0.004316335175,0.0331666795,0.9334674,0.142853575,-0.021711144,-2.3223002,-0.246612625,362048161.0,1382529143.0,39825.0,2.703,4.031,0.77,1.35,102.0,37.0,0.11100001,6.1633263,-0.271941215,-0.30055827,-3.28469135,0.188012255,0.0854144185,-0.08541069800000001,-0.060319574,3.081140225,-1.5150150000000004,-2.01003717,-2.4111051999999997,0.197849185,-0.12119533,0.188999,0.6614349,0
634291088,0.076727316,0.07349376,-0.0380184,100542.25,65.37363,-0.024728282,0.26546499795,0.04799034429999999,-0.36172938,-0.028151405999999997,0.050313416,0.9304405375,0.08558808849999999,0.054721364999999994,-2.3223002,-0.24618642000000002,362048161.0,1382529143.0,39825.0,2.703,4.031,0.77,1.35,102.0,37.0,0.11100001,6.1633263,-0.24174859999999998,-0.30321246,-3.29412535,0.35572495000000004,-0.0330846125,-0.074402675,-0.0476184915,2.9951735999999998,-4.2226757,0.6878566749999999,-2.3970812500000003,0.201907315,-0.13303687,0.2296342,0.6390194,0
634491088,0.07421206,0.06743722,-0.03480067,100539.24,65.62465,-0.567541617,-0.22781116240000002,0.0435750131,-0.36688177000000005,-0.0203323621,0.0170817915,0.9297365424999999,-0.082574785,-0.018661211,-2.3223002,-0.24334935,362048161.0,1382529143.0,39825.0,2.703,4.031,0.77,1.35,102.0,37.0,0.11100001,6.1633263,-0.174436315,-0.32590441000000003,-3.2984861,0.52481985,-0.0912908,-0.0591042825,-0.030302916,6.17101975,-11.055892,1.307609625,-2.38812565,0.205572935,-0.15375958,0.19770655,0.6294128,0
634691088,0.07669667,0.064691536,-0.03233406,100541.75,65.41591,-0.1742525938,-0.4555785050000001,0.06585104680000001,-0.37181206499999997,0.03310745775,-0.013706859750000001,0.9274865475000001,-0.0596508935,-0.10636994,-2.3223002,-0.25329475,362048161.0,1382529143.0,39825.0,2.703,4.031,0.77,1.35,102.0,37.0,0.11100001,6.1633263,-0.10669313,-0.343229085,-3.2921369,0.47523095,-0.071059075,0.063024939,0.09396141999999999,1.9976526749999999,-8.9567675,1.9758011,-2.3756402999999997,0.20907083999999998,-0.10935379,0.110631116,0.6582327,0
634891088,0.081219204,0.07250345,-0.031420413,100538.74,65.66692,0.293445809,0.1529223072,0.0740911129,-0.38072974000000004,0.04174091025,0.009645675025000001,0.923630735,0.04577069,-0.027426807499999997,-2.3223002,-0.24856507,362048164.0,1382529140.0,39774.0,2.713,4.0880003,0.77,1.35,102.0,17.0,0.025,6.1633263,-0.07933794999999999,-0.362275455,-3.2786733,0.30826361,-0.06779834500000001,0.0023249577999999997,0.0318666885,-2.1097745,3.3681717,-1.8359164000000001,-2.35695165,0.21188408,-0.053106423,0.13094871,0.67424375,0
635091088,0.079296626,0.07265539,-0.030603962,100543.0,65.31021,0.011719524299999997,0.26813272860000004,-0.018720379939999997,-0.38447419499999996,0.011936083375,0.015393296249999999,0.92289664,0.01462535815,-0.0066496726999999995,-2.3223002,-0.240210995,362048164.0,1382529140.0,39774.0,2.713,4.0880003,0.77,1.35,102.0,17.0,0.025,6.1633263,-0.079962315,-0.38544665,-3.2763137,0.262704725,-0.065771519,0.0247583675,0.047026200000000004,0.397035,3.6124139,-1.8675802000000001,-2.35250615,0.212929075,-0.091591455,0.1686814,0.6614349,0
635291088,0.078034304,0.07037036,-0.027546639,100537.75,65.74884,0.02859345705,-0.0424846818,-0.06899265899999998,-0.3788620975,0.0023552778,0.00981024875,0.9253935275,-0.01009469315,-0.056991284999999996,-2.3223002,-0.24193989999999999,362048164.0,1382529140.0,39774.0,2.713,4.0880003,0.77,1.35,102.0,17.0,0.025,6.1633263,-0.084525285,-0.40083544000000004,-3.26300275,0.28590842,-0.062481524999999996,0.18150008499999998,0.19351923999999998,4.46198785,-6.9520049,3.0782737350000002,-2.3663849,0.20915529,-0.115274556,0.16287638,0.6582327,0
635491088,0.07709039,0.06880643,-0.024697835,100538.74,65.66692,-0.0364125276,-0.029002352100000017,0.0387039568,-0.3781189925,0.015227696749999999,0.007755771925,0.92558516,0.021975579500000002,-0.024605090000000003,-2.3223002,-0.24763234,362048164.0,1382529140.0,39774.0,2.713,4.0880003,0.77,1.35,102.0,17.0,0.025,6.1633263,-0.0940330675,-0.40940039,-3.2471229,0.234250185,-0.05221866,0.10032788000000001,0.09587976749999999,-1.6429546999999998,1.5786775,1.051050475,-2.3650328,0.20236678,-0.10047262,0.1512663,0.67424375,0
635691088,0.077438414,0.06840933,-0.02309672,100540.75,65.49782,0.0826168718,0.0643900206,0.0345377624,-0.3811449725,0.006326115825,0.01155625275,0.92441839,0.00852054985,-0.002749070000000001,-2.3223002,-0.23377767500000002,362048164.0,1382529140.0,39774.0,2.713,4.0880003,0.77,1.35,102.0,17.0,0.025,6.1633263,-0.118484835,-0.41108833,-3.25926435,0.21042290000000002,-0.039502853500000004,0.08151781250000001,0.052153202999999995,0.90261899,1.98625207,1.9914745,-2.35908855,0.19038634,-0.115274556,0.16287638,0.67104155,0
635891088,0.074197195,0.069997914,-0.021835739,100542.75,65.33135,-0.011737548920000002,0.17819400159999998,0.023352841359999998,-0.38381272499999997,-0.014197136249999999,0.005129010348749999,0.92325386,0.0035608053000000003,0.011500142500000001,-2.3223002,-0.232945815,362048175.0,1382529152.0,39627.0,2.615,3.9320002,0.77,1.35,102.0,24.0,0.010000001,6.1633263,-0.140376275,-0.40166233,-3.2646916,0.23049542,-0.004539603200000001,0.176366635,0.12693611999999999,0.7750417,0.2871799500000001,1.13399088,-2.35290375,0.18690741,-0.14487843,0.1686814,0.6614349,0
636091088,0.070301265,0.06316966,-0.020886803,100540.25,65.54009,-0.29061224,-0.3391935759,0.07897479,-0.38751872749999994,0.0097720589,0.00101650755,0.9216768899999999,-0.0521047775,-0.06277169,-2.3223002,-0.244845,362048175.0,1382529152.0,39627.0,2.615,3.9320002,0.77,1.35,102.0,24.0,0.010000001,6.1633263,-0.16459826,-0.38615031,-3.2544274499999997,0.209501565,0.028371630999999998,0.17031072,0.104592565,2.7816774,-2.0265058,-1.90148765,-2.34353165,0.17764132500000002,-0.1300765,0.1686814,0.67424375,0
636291088,0.07768076,0.06802993,-0.021850493,100538.0,65.73034,0.2547599619,0.19047810540000001,0.06768666409999999,-0.3951374225,0.017034197425,-0.0009468192499999994,0.9184009325,0.038521513,-0.0048312325,-2.3223002,-0.240420365,362048175.0,1382529152.0,39627.0,2.615,3.9320002,0.77,1.35,102.0,24.0,0.010000001,6.1633263,-0.20894693,-0.37412962,-3.2546359000000002,0.12070935999999999,0.032826297,0.166481265,0.08406703500000001,-0.22032335000000014,0.88526605,0.8792810799999999,-2.3272485,0.174332535,-0.10639339,0.14546129,0.69665927,0
636491088,0.07589747,0.06671488,-0.022752242,100540.5,65.51895,0.035373752040000005,-0.00041458919999999984,0.0361780876,-0.39950285500000005,0.00120070085,0.008476029999999999,0.9166905825,0.018486905,-0.008102215999999999,-2.3223002,-0.24349976,362048175.0,1382529152.0,39627.0,2.615,3.9320002,0.77,1.35,102.0,24.0,0.010000001,6.1633263,-0.24338544,-0.36701216999999997,-3.25705125,0.08129402999999999,0.038996223499999996,0.19662206,0.096103293,-1.8221938,2.4767022499999998,0.07099489999999997,-2.3187046000000002,0.17110862500000001,-0.13303687,0.17738895,0.6838504,0
636691088,0.07389759,0.06655052,-0.02375706,100540.5,65.51895,-0.20930161200000003,-0.009912804699999996,0.01948887835,-0.4019143075,0.00440266181,0.0029229908249999996,0.9156276950000001,-0.030952131,-0.0063745397,-2.3223003,-0.24275539000000002,362048175.0,1382529152.0,39627.0,2.615,3.9320002,0.77,1.35,102.0,24.0,0.010000001,6.1633263,-0.26075073,-0.361371285,-3.25944475,0.067692091,0.052255619999999996,0.18735062000000002,0.07204479999999999,-3.5378541,0.05988334999999978,1.5104191500000002,-2.3139472,0.16578301,-0.13895765,0.18319398,0.6870526,0
636891088,0.078618065,0.06753748,-0.024524555,100543.49,65.27058,0.19855001400000002,-0.02099667814,-0.00344362323,-0.4021850525,0.0065166159,0.0021468899000000002,0.91549938,-0.0045791849999999995,-0.0314353155,-2.3223002,-0.243445065,362048182.0,1382529164.0,39597.0,2.542,3.8470001,0.77,1.35,102.0,30.0,0.067,6.1633263,-0.267069685,-0.36003889499999997,-3.2558442,0.06081838,0.06462116,0.18703461500000002,0.06515421,0.63394995,-1.6652384,1.20200665,-2.3140478,0.16351036,-0.13895765,0.16577889,0.6998615,0
637091088,0.07350236,0.06805658,-0.024919908,100542.25,65.37363,-0.12220141570000001,-0.028652676620000005,0.0023900945199999994,-0.40156484,0.012591601625,0.002119485775,0.915724115,-0.0023830619999999983,-0.0017680849,-2.3223002,-0.242395535,362048182.0,1382529164.0,39597.0,2.542,3.8470001,0.77,1.35,102.0,30.0,0.067,6.1633263,-0.271239115,-0.361700355,-3.2422801,0.024711989,0.067719465,0.18896154999999998,0.07070695,-3.7963370000000003,0.5686323499999999,0.499090515,-2.31506005,0.15986022500000002,-0.13303687,0.18029144,0.7062659,0
637291088,0.07370782,0.069962345,-0.025253398,100542.74,65.33135,0.11764868584499999,0.246155825,-0.015078738737,-0.40073390999999997,-0.0018267254000000003,0.005058883675,0.9161473474999999,0.008015430175,0.0294540995,-2.3223002,-0.24258525,362048182.0,1382529164.0,39597.0,2.542,3.8470001,0.77,1.35,102.0,30.0,0.067,6.1633263,-0.27193045,-0.364187135,-3.2223122,0.032277352,0.081572675,0.190363915,0.079834073,0.538742775,-0.42184608,0.005557449999999964,-2.31747355,0.15850559,-0.15671997,0.19770655,0.7094682,0
637491088,0.071851365,0.06430442,-0.025185024,100544.0,65.225655,-0.10455868580000001,-0.17960999170999997,0.00404234983,-0.3992093225,-0.002373878125,0.0006069682974999999,0.9168100849999999,0.006996663,-0.009323929,-2.3223003,-0.24368261,362048182.0,1382529164.0,39597.0,2.542,3.8470001,0.77,1.35,102.0,30.0,0.067,6.1633263,-0.261019435,-0.36664303,-3.19810375,0.04956615,0.108318793,0.18299403,0.08230947999999999,-3.95995565,3.9465363000000004,-1.9157462955000002,-2.32038475,0.155772395,-0.17744268,0.20351158,0.7062659,0
