timestamp,rollspeed_integ,pitchspeed_integ,yawspeed_integ,baro_pressure_pa,xyz[0],xyz[1],xyz[2],q[0],q[1],q[2],q[3],roll_body,pitch_body,yaw_body,thrust_body[2],lat,lon,alt,eph,hdop,vdop,noise_per_ms,jamming_indicator,vel_m_s,cog_rad,x,y,z,vx,vy,vz,z_deriv,ax,ay,az,heading,evh,magnetometer_ga[0],magnetometer_ga[1],magnetometer_ga[2],class
340325029,0.7074948608540482,0.90704287528376,0.473107059033246,0.4523809523807358,0.5946930252609164,0.5620751968957884,0.4203626949167748,0.6029736510704183,0.2828972203309883,0.778505333149328,0.948840417544597,0.6370669484375914,0.4909721045015129,0.8529141758706191,0.2422334653972478,0.1893687707488425,0.2524964336771518,0.4501302029512668,0.1705736639438094,0.0376811594202898,0.0054127200748552,0.2533333333333334,0.1694915254237288,0.0025804494535519,0.931254442913399,0.143307106778105,0.2813116630907917,0.809567402682552,0.3224622317924344,0.636306610248341,0.6560524958083417,0.5587657148251733,0.182974801955817,0.4918586794563653,0.6319933843627831,0.1793446009529592,0.0285498456000647,0.7296137163135201,0.7489655223540075,0.8704819155281976,2
340525029,0.7184415237392743,0.9039657541382684,0.4764729702154995,0.5076190476188458,0.5765354944361035,0.5254473703128246,0.4200202047639318,0.6025684813246283,0.2876500673267337,0.7740292870559021,0.9487335197747532,0.6164858335823125,0.4633508941527835,0.8529141758706191,0.2611045090808666,0.1893687707488425,0.2524964336771518,0.4501302029512668,0.1705736639438094,0.0376811594202898,0.0054127200748552,0.2533333333333334,0.1694915254237288,0.0025804494535519,0.931254442913399,0.1430103420206259,0.2810947881616389,0.810007944962361,0.3313355658020759,0.6346136983571921,0.6615623883021241,0.5647137814307198,0.4841752376367982,0.4962560787474936,0.7199234054631548,0.1796280867661344,0.0283505360545545,0.7310443251840023,0.7379310394806804,0.865461813832193,2
340725029,0.7122273472566621,0.9034791112904774,0.4803043949622314,0.4920634920631528,0.586383235523673,0.475704515583787,0.4190781868721652,0.6025855924341759,0.316585650856607,0.7792644119469271,0.9486466105467856,0.6138204453709151,0.4518137638451281,0.8529141758706191,0.2329768344584666,0.1893687707488425,0.2524964336771518,0.4501302029512668,0.1705736639438094,0.0376811594202898,0.0054127200748552,0.2533333333333334,0.1694915254237288,0.0025804494535519,0.931254442913399,0.1428910461499694,0.280123927025694,0.8124104896166958,0.3271640876219348,0.6271772030230547,0.686283252497791,0.5914872326279259,0.4471374404888342,0.5499372203613105,0.5654775720619025,0.1795955936724647,0.027795458405418,0.746781096213723,0.7379310394806804,0.8674698670521093,2
340925029,0.6940233102620115,0.9157775598021674,0.4831783730693729,0.5158730158727849,0.5783129083383557,0.6068723238374331,0.4211048403885249,0.6019349388581263,0.3271730518551518,0.7789102758661183,0.9483455090658874,0.5991688879261885,0.4549827996861881,0.8529141758706191,0.2456041452071546,0.1893687707488425,0.2524964336771518,0.4501302029512668,0.1705736639438094,0.0376811594202898,0.0054127200748552,0.2533333333333334,0.1694915254237288,0.0025804494535519,0.931254442913399,0.1423644144433904,0.2786707158269992,0.8145918895485189,0.3151817262553977,0.6123452910225341,0.6726167655397889,0.5759588808223114,0.4252793253353923,0.3233613812379147,0.639391575295793,0.1800536659731993,0.0268712973740867,0.7582260171942391,0.7379310394806804,0.8674698670521093,2
341125029,0.6556056592007213,0.9056092211917436,0.4859979931078491,0.4285714285711037,0.5338253892256881,0.6060838366516357,0.4199969638656017,0.601523823850053,0.3061615379846108,0.7523059912292112,0.9479761961294694,0.5225956251290714,0.506040115784684,0.8529141758706191,0.2513946026842794,0.1893687707488425,0.2524964336771518,0.4501302029512668,0.1705736639438094,0.0376811594202898,0.0054127200748552,0.2533333333333334,0.1694915254237288,0.0025804494535519,0.931254442913399,0.1412370773123004,0.2770214028368328,0.8146168029399599,0.2979311244791456,0.6153768431329133,0.6618304956101502,0.5609277077756565,0.3251411462091905,0.4713437162403404,0.6614474306386764,0.1802991677249655,0.0279460582409639,0.7339055574225489,0.7144827616522159,0.8704819155281976,2
341325029,0.7394966817057604,0.909839204426372,0.4873503920710035,0.4603174603171283,0.5795030891453314,0.5495106162972866,0.4199489008010023,0.6006999820934177,0.3256632357143747,0.7243602300339401,0.9462991982984632,0.5283979437150627,0.499615086962363,0.8529141758706191,0.2346431926299395,0.1893687707488425,0.2524964336771518,0.4476914810069028,0.165809036991706,0.0376811594202898,0.0054127200748552,0.1466666666666667,0.2542372881355932,0.0065270192774741,0.931254442913399,0.1394676355016268,0.27899164069535,0.8142762389814828,0.2748042438005595,0.651112727451015,0.673070039589761,0.5688380799228059,0.6546908420893108,0.4263260859400921,0.6802764896037963,0.1810152278876181,0.0279258835764658,0.7353361725753167,0.691034486675025,0.8704819155281976,2
341525029,0.7593775663228837,0.9077896083176548,0.4893712463525279,0.4551111111109094,0.6892660182097216,0.5873857555368518,0.4191631982992253,0.6005240745551953,0.2710686288354032,0.7657853186453155,0.9476472124807566,0.7106053652756928,0.5271171955228161,0.8529141758706191,0.2290917987561322,0.1893687707488425,0.2524964336771518,0.4476914810069028,0.165809036991706,0.0376811594202898,0.0054127200748552,0.1466666666666667,0.2542372881355932,0.0065270192774741,0.931254442913399,0.1372279134681234,0.2843732596113735,0.8147160192208704,0.259478556174576,0.6824158851147928,0.6782290309449547,0.5714964315719803,0.6764258587169957,0.1936765096732696,0.5463441834802557,0.1809946221549585,0.0267882423152807,0.7210300186313748,0.7393103453847315,0.858433705946951,2
341725029,0.6632375159454529,0.8996318767485322,0.4898456210268298,0.5076190476188458,0.60585555576355,0.5118911058089616,0.422542856653764,0.6013052136717291,0.2227425290078471,0.8196192084420332,0.9463316281546708,0.7231787970405347,0.4847301304424966,0.8529141758706191,0.2416115665203049,0.1893687707488425,0.2524964336771518,0.4476914810069028,0.165809036991706,0.0376811594202898,0.0054127200748552,0.1466666666666667,0.2542372881355932,0.0065270192774741,0.931254442913399,0.1364827413794632,0.2885498918751139,0.8153027015063387,0.2908007148827876,0.6760488946380885,0.6670568061615726,0.5577865177614352,0.3493318549227238,0.5702942959636875,0.5866286844941063,0.1816018852174588,0.0273434652220014,0.7210300186313748,0.7903448372870912,0.8504015871286438,2
341925029,0.674911967499877,0.9023449433196948,0.4875178596003579,0.5631746031745024,0.5187132365933034,0.519597744646307,0.4222666652867214,0.5989529838583441,0.2744494871139138,0.7897064475077862,0.9472777234423624,0.5989899776195452,0.4705315145166875,0.8529141758706191,0.2450803219818398,0.1893687707488425,0.2524964336771518,0.4476914810069028,0.165809036991706,0.0376811594202898,0.0054127200748552,0.1466666666666667,0.2542372881355932,0.0065270192774741,0.931254442913399,0.1384729424771525,0.2868600382999587,0.8156724648400768,0.3337389296071053,0.640883901200195,0.6774359267697059,0.5684129475587231,0.2183969111434907,0.3747036504660339,0.6045732087968847,0.1820136639869878,0.0275089781695443,0.7324749451692976,0.7503448306341198,0.8614457606937966,2
342125029,0.7095315906971759,0.9040195672370936,0.4860736476253343,0.4838095238096684,0.5726761176689057,0.5413866450762754,0.4203223290578155,0.5979235591491379,0.3018100260085073,0.7685966571724787,0.947215240139031,0.5965243761376846,0.4673704565053923,0.8529141758706191,0.2327304417409113,0.1893687707488425,0.2524964336771518,0.4476914810069028,0.165809036991706,0.0376811594202898,0.0054127200748552,0.1466666666666667,0.2542372881355932,0.0065270192774741,0.931254442913399,0.1407851632411639,0.2823105237972357,0.8178781691232632,0.3465255015211055,0.6302793528213322,0.686254430634875,0.5792176816933936,0.3835822154831154,0.5058920118333131,0.6496075441723849,0.182645329727925,0.0272425434803159,0.7381974052971161,0.7324137992320474,0.8604417278130813,2
342325029,0.7316055775984038,0.894571323934463,0.4860414795627815,0.55523809523811,0.6102264042631463,0.4550374374853713,0.4191348748276173,0.5977977464442354,0.3094571529698346,0.7766232919978322,0.9471098595554424,0.6396851246341124,0.3996946929411772,0.8529141758706191,0.2394060813950718,0.1880398670909926,0.2553495008032769,0.449138180465424,0.1623785055861916,0.0376811594202898,0.0054127200748552,0.1466666666666667,0.3559322033898305,0.0089556772920461,0.931254442913399,0.141916494401136,0.2792663079357855,0.8199049765207647,0.3414413000033534,0.6250814993462935,0.676184045703333,0.5702608705473882,0.4411111573500182,0.3323938389091123,0.6456357638600513,0.1828290726962625,0.0267182281596062,0.7410586346361462,0.7406896612682398,0.8574296950138858,2
342525029,0.7309772397536091,0.9129039984488652,0.4846377010552721,0.4603174603171283,0.5645584681221796,0.5902088210973164,0.4203037440107781,0.5978893151170137,0.3478067322442418,0.7817883532965232,0.9467810055642284,0.6110884462731576,0.4307957458884277,0.8529141758706191,0.2522844916319265,0.1880398670909926,0.2553495008032769,0.449138180465424,0.1623785055861916,0.0376811594202898,0.0054127200748552,0.1466666666666667,0.3559322033898305,0.0089556772920461,0.931254442913399,0.1419787571636519,0.2769534696837606,0.8207224316923056,0.323264539807816,0.6107917705105592,0.6639876969683217,0.556222509150376,0.413719581681093,0.3058743276923864,0.4711479286968362,0.1827823118486535,0.0273449662170401,0.7610872480796781,0.7337931122642822,0.8604417278130813,2
342725029,0.7221065078248222,0.9054553598064394,0.484852378194947,0.5076190476188458,0.5860385380127118,0.6174894317915487,0.4194292756833462,0.5977124381108284,0.3009672746881117,0.773398263513061,0.9471712475431864,0.6092434986229207,0.4877945860496088,0.8529141758706191,0.2346893593256805,0.1880398670909926,0.2553495008032769,0.449138180465424,0.1623785055861916,0.0376811594202898,0.0054127200748552,0.1466666666666667,0.3559322033898305,0.0089556772920461,0.931254442913399,0.140623722679398,0.2742078828924749,0.8207070438061305,0.310255409596358,0.5985149045106619,0.6842511589824473,0.5749533032398003,0.6368607085648581,0.1965371458570723,0.5887733719661059,0.1827984926791191,0.0274298773449799,0.7367667901443483,0.7365517288245069,0.8554216574708625,2
342925029,0.7249978699395062,0.9027083875924528,0.483715698854976,0.4917460317460609,0.5809710090359569,0.5371621332864422,0.4201369037909817,0.5972157917917165,0.2965754203668655,0.7721945247580619,0.9470164422951068,0.613593145961512,0.4695235064878806,0.8529141758706191,0.2349470886364517,0.1880398670909926,0.2553495008032769,0.449138180465424,0.1623785055861916,0.0376811594202898,0.0054127200748552,0.1466666666666667,0.3559322033898305,0.0089556772920461,0.931254442913399,0.1392738830431672,0.2728644556913368,0.8214818997336036,0.301892896606947,0.6011312691373908,0.683157265403299,0.5713165043353265,0.4288040938906657,0.3355472018178302,0.6368633208715732,0.1830468421402182,0.0259651805626824,0.7339055574225489,0.7365517288245069,0.858433705946951,2
343125029,0.7328562531175886,0.9014284980124756,0.4816171050889491,0.4444444444443434,0.5888202193096962,0.5518620164559298,0.4197847427774785,0.5965957806743086,0.2978699902734628,0.7731371964536885,0.9468179115069264,0.6155813591558863,0.464269578884239,0.8529141758706191,0.2407156798021068,0.1880398670909926,0.2553495008032769,0.449138180465424,0.1623785055861916,0.0376811594202898,0.0054127200748552,0.1466666666666667,0.3559322033898305,0.0089556772920461,0.931254442913399,0.1383062229520129,0.2725151063507959,0.820484630661415,0.304056770422462,0.6032237066891881,0.6738930664035561,0.5562759633301959,0.6295642879767541,0.2857841629720505,0.584753093572398,0.1834829359663582,0.0277952647286389,0.7296137163135201,0.7379310394806804,0.8564256684039278,2
343325029,0.723285533309146,0.9088556017280448,0.479239870373681,0.3885714285715949,0.5868671560099241,0.6938270902740016,0.4203412109824649,0.5962831248325609,0.2631689346051186,0.7689037316276321,0.94655569953494,0.6136747970871709,0.5895090956434134,0.8529141758706191,0.2440037894075714,0.1887043189199175,0.2596291012596339,0.454015624354152,0.1606632398834343,0.0376811594202898,0.0054127200748552,0.0533333333333334,0.2711864406779661,0.0033394052823315,0.931254442913399,0.1374466684893747,0.2737947981558916,0.8185748014040732,0.3087052900487923,0.6118307126107058,0.6763848104826277,0.5532639523530114,0.5986475166326444,0.2581422460402644,0.618252310794211,0.1837797549006661,0.0288311772615585,0.7138769452837995,0.7406896612682398,0.8534136356047323,2
343525029,0.720656786652741,0.8947985643963335,0.4772445569381184,0.3171428571426986,0.5817391312149963,0.4453865616870611,0.4192470764411178,0.5966349447563453,0.2496471576710613,0.7664680348522718,0.9465032772664828,0.6212324630142514,0.4865874384586404,0.8529141758706191,0.2452817314202651,0.1887043189199175,0.2596291012596339,0.454015624354152,0.1606632398834343,0.0376811594202898,0.0054127200748552,0.0533333333333334,0.2711864406779661,0.0033394052823315,0.931254442913399,0.1377735030343783,0.2758766614946871,0.8166539205864252,0.3243593139188414,0.6337605435230542,0.6856785056546164,0.5575449088716364,0.4249983294476702,0.5735516382428157,0.6405340964988993,0.183611389562726,0.0299846354597101,0.7067238690367077,0.7406896612682398,0.851405598061709,2
343725029,0.7254492427584943,0.9044994773929526,0.474396045213831,0.4841269841267603,0.5834212536881369,0.4982364083253114,0.4192848602558368,0.5964647110293766,0.2961616508551766,0.7742369468010489,0.9467769300613535,0.6142425801123454,0.4587105484096133,0.8529141758706191,0.2431477892083271,0.1887043189199175,0.2596291012596339,0.454015624354152,0.1606632398834343,0.0376811594202898,0.0054127200748552,0.0533333333333334,0.2711864406779661,0.0033394052823315,0.931254442913399,0.1385492438016071,0.2789851954773464,0.8144874426300533,0.3402464311325048,0.6404255603903926,0.674945233949509,0.5412399952544752,0.7584416037573107,0.2694748056474672,0.5696734930316907,0.1836185745524272,0.0307802919480542,0.725321868438953,0.7379310394806804,0.8534136356047323,2
343925029,0.7204242520487583,0.908233408963906,0.4727239016659512,0.4126984126983188,0.5893732745269882,0.5460535387723785,0.4202901505279786,0.5967924857240079,0.3021526372129472,0.7769677547116932,0.9468723386286494,0.6188395553130497,0.4632662472160113,0.8529141758706191,0.2374029201665539,0.1887043189199175,0.2596291012596339,0.454015624354152,0.1606632398834343,0.0376811594202898,0.0054127200748552,0.0533333333333334,0.2711864406779661,0.0033394052823315,0.931254442913399,0.1391776289774778,0.2809946566131233,0.8122386346952147,0.3348527636594826,0.6395312503270588,0.6715178463987951,0.534942026427038,0.5406279710653568,0.4170776365926869,0.6563975975819281,0.1834421041956166,0.0302888532606107,0.7281830992277414,0.7406896612682398,0.8554216574708625,2
344125029,0.7238858383578094,0.9087212239782062,0.4712581698527848,0.4841269841267603,0.5793482728385195,0.5620199245682137,0.4189524970309327,0.5973765077669582,0.3001139242181209,0.7747465220353021,0.9470689342302796,0.6138232312546819,0.4720674848990319,0.8529141758706191,0.2615414453206927,0.1887043189199175,0.2596291012596339,0.454015624354152,0.1606632398834343,0.0376811594202898,0.0054127200748552,0.0533333333333334,0.2711864406779661,0.0033394052823315,0.931254442913399,0.1390932148724979,0.2813354396302921,0.8099108578539745,0.3328835756183082,0.6310516160878524,0.6683925209103815,0.5303556362746344,0.8089535349785882,0.15501615067864,0.5389968306895365,0.1830467107074797,0.0298804696319733,0.725321868438953,0.7379310394806804,0.8534136356047323,2
344325029,0.7314017318091833,0.9137879403537744,0.4697608210040629,0.4206349206347113,0.5981630151254702,0.608382113737251,0.4203507595716037,0.5976555182230489,0.2870465121944688,0.7757470299188404,0.947145557941733,0.628708276472438,0.5015265370904881,0.8529141758706191,0.2448462206595385,0.1906976744066923,0.2582025676965713,0.4529822675980655,0.1597103144930137,0.0376811594202898,0.0054127200748552,0.0533333333333334,0.3389830508474576,0.0021250760473588,0.931254442913399,0.1388830860254627,0.2813631598344437,0.8083191863951067,0.3293734513795255,0.633984180816397,0.6823755539706505,0.5443639195557943,0.6429821362815467,0.4556249428309353,0.6506568550051552,0.182927559628266,0.0292500517157349,0.7224606400664284,0.742068971449201,0.8524096089947741,2
344525029,0.7214950504594331,0.9052821407209144,0.4692768256962383,0.4444444444443434,0.5775526427614023,0.5016063996577468,0.4202037883984325,0.5981853494305354,0.2817514881503562,0.7731554678664209,0.9473062345458058,0.6135535593922837,0.4661867068181526,0.8529141758706191,0.2566506265303392,0.1906976744066923,0.2582025676965713,0.4529822675980655,0.1597103144930137,0.0376811594202898,0.0054127200748552,0.0533333333333334,0.3389830508474576,0.0021250760473588,0.931254442913399,0.1389008720712908,0.2811492326331846,0.8079103043283442,0.3322590931627544,0.6355033060943511,0.7162353848832177,0.5796164163174379,0.6255280024831771,0.5040704678998943,0.7199786502218117,0.1825068434325233,0.0295368870257039,0.7181687926751139,0.7379310394806804,0.8493975761955787,2
344725029,0.7686003562501176,0.9092369070090762,0.4666589187703758,0.3647619047619628,0.6142326433847949,0.5454769364848274,0.4209264149647386,0.5978905705780259,0.2892450393878043,0.7817467047368586,0.9471706960150196,0.6644369800371174,0.4758567962225529,0.8529141758706191,0.229378360398878,0.1906976744066923,0.2582025676965713,0.4529822675980655,0.1597103144930137,0.0376811594202898,0.0054127200748552,0.0533333333333334,0.3389830508474576,0.0021250760473588,0.931254442913399,0.1390705965448124,0.2809162542702506,0.8101313046974994,0.334458727514159,0.6363636333050079,0.7169491857703174,0.5805506341688701,0.4093505137610682,0.7243996553915059,0.6444801635335188,0.1827139814283029,0.0293007950318808,0.7224606400664284,0.7448275899102746,0.8524096089947741,2
344925029,0.7362139084750007,0.906991503391218,0.4641787685938712,0.4206349206347113,0.5477602005493566,0.5543058384022839,0.4221402642056722,0.5975733146107934,0.2861324683827194,0.7793910347282322,0.947072270491892,0.6113874442294294,0.4787181611762726,0.8529141758706191,0.2506437517404966,0.1906976744066923,0.2582025676965713,0.4529822675980655,0.1597103144930137,0.0376811594202898,0.0054127200748552,0.0533333333333334,0.3389830508474576,0.0021250760473588,0.931254442913399,0.1393607190901344,0.279696987612039,0.8107084377873259,0.3390427843132083,0.6257206909427392,0.6974068614191611,0.5590322277699026,0.3834634714798614,0.6031795489502441,0.6122569266819885,0.1828698460524538,0.0289695754600159,0.7181687926751139,0.7406896612682398,0.8524096089947741,2
345125029,0.7655937428622973,0.9070013384494688,0.4612281381636003,0.4996825396824533,0.5727905759501127,0.5503600167170302,0.4210302230663879,0.5973377532851358,0.3021353010539607,0.7621597688719419,0.9469289737982264,0.5776235626170676,0.4871756318334523,0.8529141758706191,0.2367801471750688,0.1906976744066923,0.2582025676965713,0.4529822675980655,0.1597103144930137,0.0376811594202898,0.0054127200748552,0.0533333333333334,0.3389830508474576,0.0021250760473588,0.931254442913399,0.139654162741535,0.2782962873194889,0.8109142518754041,0.3386279304642735,0.6245743956272297,0.7100975004107556,0.5708288164072061,0.4266902949557067,0.4192028234192547,0.6651187053925691,0.1830189930033067,0.0309538909011279,0.7167381736563241,0.7241379352950063,0.8614457606937966,2
345325029,0.7461937519025541,0.907408087493608,0.4587745787628771,0.4285714285711037,0.5984666169874227,0.5605310641606999,0.420605270721321,0.597271005415881,0.294013612610427,0.7699402643192217,0.9470237669761988,0.6166081842656673,0.4806559701646505,0.8529141758706191,0.2359697219632602,0.1953488372091669,0.2610556348226964,0.4543462985160997,0.1606632398834343,0.0376811594202898,0.0054127200748552,0.0533333333333334,0.135593220338983,0.0129022465088038,0.931254442913399,0.1394863526173687,0.2781543025058834,0.8117604572921652,0.3326346416599291,0.6299147893757119,0.7144432283083113,0.5748146892726995,0.5974123768753918,0.2261076358914678,0.641515140534443,0.1830685139384228,0.0321225043072506,0.7167381736563241,0.7379310394806804,0.8554216574708625,2
345525029,0.7462599937838235,0.90771247298023,0.4554054209891252,0.4365079365074962,0.5932779066627664,0.5448680049957865,0.4216051304870789,0.5968882691587556,0.2904441507361596,0.7738514162538083,0.9469148159734252,0.6228687932976783,0.4783360379073758,0.8529141758706191,0.238735689332914,0.1953488372091669,0.2610556348226964,0.4543462985160997,0.1606632398834343,0.0376811594202898,0.0054127200748552,0.0533333333333334,0.135593220338983,0.0129022465088038,0.931254442913399,0.139115517042487,0.2785967858374874,0.8125689150564005,0.3269017323201899,0.6375090997356858,0.7104671391045652,0.5695787239146585,0.4551999909627961,0.4697617734138858,0.6257676693363486,0.1833051950930762,0.0350148894672902,0.7167381736563241,0.742068971449201,0.8554216574708625,2
345725029,0.7503581101703289,0.908288965781505,0.4523802827732289,0.4126984126983188,0.588624197770648,0.5460557477364119,0.4212149521815875,0.5968684265732221,0.2903078231282025,0.776017700342433,0.9469113248968888,0.6278047170877824,0.4778536392150987,0.8529141758706191,0.2353598186274185,0.1953488372091669,0.2610556348226964,0.4543462985160997,0.1606632398834343,0.0376811594202898,0.0054127200748552,0.0533333333333334,0.135593220338983,0.0129022465088038,0.931254442913399,0.1390876284530157,0.2791480528158455,0.8129921485553974,0.3248342590013908,0.642029854159443,0.7138871577324059,0.571357325295365,0.2555305411625611,0.8057623015451947,0.5784977167944506,0.1833650407999786,0.0447111237402718,0.7167381736563241,0.7448275899102746,0.8564256684039278,2
345925029,0.7534476379129168,0.9074932003444232,0.450381722746168,0.4603174603171283,0.5831400402025579,0.548590721497008,0.4204550472166277,0.5974467045184912,0.2908852687103972,0.775568941304747,0.9470991463627008,0.6150235202221718,0.4763531793866143,0.8529141758706191,0.2347018793355071,0.1953488372091669,0.2610556348226964,0.4543462985160997,0.1606632398834343,0.0376811594202898,0.0054127200748552,0.0533333333333334,0.135593220338983,0.0129022465088038,0.931254442913399,0.1394980185463186,0.279189344714052,0.8129371908319588,0.3299536484167743,0.6378618405511798,0.7147945665424519,0.5696175411941079,0.3621665235036967,0.7593892853014736,0.6771731449787333,0.1830691711021151,0.0605811604237835,0.7138769452837995,0.7434482797293134,0.8564256684039278,2
346125029,0.731298368873676,0.9062364392565152,0.449037961503514,0.3647619047619628,0.5736571811125187,0.5490981064321483,0.4199828633710683,0.5980617858913071,0.2921984578349315,0.7741198107226492,0.94729630897399,0.6096322802451806,0.4740926005221421,0.8529141758706191,0.2406931948864998,0.1953488372091669,0.2610556348226964,0.4543462985160997,0.1606632398834343,0.0376811594202898,0.0054127200748552,0.0533333333333334,0.135593220338983,0.0129022465088038,0.931254442913399,0.1405104599097398,0.2775385474655741,0.8124621346359197,0.3366672205441464,0.6306538841505707,0.7096024806245859,0.5612091215708213,0.6461600764670675,0.3941916210625954,0.6583452055250191,0.1825496028834287,0.077450117375391,0.7124463286812734,0.7434482797293134,0.8594377168800161,2
346325029,0.7414749778893721,0.9059242167227376,0.4474469231726073,0.4365079365074962,0.5821037355501962,0.5526781817886849,0.4207525444370549,0.5983679778054114,0.295901037367667,0.7704531014200632,0.947382660868231,0.6078735952635784,0.4773604913537828,0.8529141758706191,0.2376466233009029,0.1973421926668379,0.2596291012596339,0.471417352126648,0.1778158969110065,0.0376811594202898,0.0054127200748552,0.0533333333333334,0.2711864406779661,0.0025804494535519,0.931254442913399,0.1409580144852991,0.2755376676609232,0.8107852390243426,0.3374851462686396,0.6289039233141495,0.707108767541531,0.5531243132559044,0.722244218249312,0.3468293552891944,0.5256614658880756,0.1823996673361452,0.0922691831564018,0.7081544861224864,0.7406896612682398,0.8604417278130813,2
346525029,0.7459600252647175,0.9056490482129038,0.4456122564457284,0.3726984126983552,0.5929185168014603,0.5518208567773811,0.4222528790779685,0.5984717641981938,0.2929553937043793,0.7721719033115697,0.9474254594539744,0.6135080614418775,0.4790104735320899,0.8529141758706191,0.2313251748592177,0.1973421926668379,0.2596291012596339,0.471417352126648,0.1778158969110065,0.0376811594202898,0.0054127200748552,0.0533333333333334,0.2711864406779661,0.0025804494535519,0.931254442913399,0.1408097916356726,0.2760391816570847,0.8085216275659317,0.3310751048916659,0.6330047339035958,0.709697368728332,0.5506243175680546,0.4974129697084924,0.3891228668446357,0.6043299840236528,0.1823290733519659,0.1074262794760119,0.7067238690367077,0.7434482797293134,0.8634537825599269,2
346725029,0.7432054270341278,0.9060870461505688,0.4428370908825856,0.4047619047614716,0.590852700387063,0.5512541649987456,0.4226173283103052,0.5982185415899197,0.2911496052145217,0.7747410912363164,0.9473474927230552,0.6220045351891246,0.476520570321317,0.8529141758706191,0.2358862910921918,0.1973421926668379,0.2596291012596339,0.471417352126648,0.1778158969110065,0.0376811594202898,0.0054127200748552,0.0533333333333334,0.2711864406779661,0.0025804494535519,0.931254442913399,0.1405513689753563,0.2781146477912979,0.8066701881752213,0.3246866319944987,0.6387052468870846,0.6959350186272183,0.5337623459492525,0.2174312070284985,0.5008840780163865,0.60147880725692,0.1824580088683743,0.1199619283099269,0.7052932553336981,0.7475862140738951,0.8624497716268618,2
346925029,0.7491285552509692,0.9063332883034104,0.4400490432018001,0.3806349206347477,0.5871555672980407,0.5424059312093434,0.4216460473072239,0.5981539120081641,0.2916943335846882,0.7758154481412158,0.9473256193094788,0.6219861848911281,0.4689358879527319,0.8529141758706191,0.2440990947884967,0.1973421926668379,0.2596291012596339,0.471417352126648,0.1778158969110065,0.0376811594202898,0.0054127200748552,0.0533333333333334,0.2711864406779661,0.0025804494535519,0.931254442913399,0.1403324399223454,0.2794856641991157,0.8041395220202141,0.32590363781719,0.6425910127988463,0.6953365840037918,0.5317496318496603,0.2586023175433014,0.7620269929244434,0.7011045544413661,0.1825148900368431,0.1304983163112696,0.703862638731172,0.7489655223540075,0.8664658247652581,2
347125029,0.7338101682087771,0.9076038659407696,0.4368199505337465,0.4920634920631528,0.5803349553740778,0.575291847461606,0.4227996941614241,0.5978349812850255,0.2908820538884759,0.7766185882088781,0.9472209295874884,0.6205319231325407,0.5028784464074554,0.8529141758706191,0.2444225306170049,0.1973421926668379,0.2596291012596339,0.471417352126648,0.1778158969110065,0.0376811594202898,0.0054127200748552,0.0533333333333334,0.2711864406779661,0.0025804494535519,0.931254442913399,0.1400820256234988,0.2808369654874203,0.801612459763624,0.3269987071421005,0.6413942750251095,0.6948905261784251,0.5298679970034232,0.2336492021225011,0.7831770424848465,0.5962564574904697,0.1826343331888089,0.1348930361076946,0.7024320269611735,0.7517241436663545,0.8694778889182395,2
347325029,0.7410639582164135,0.90241316631672,0.4316615932067146,0.5234920634920854,0.5839170362563602,0.5716935589436228,0.4235768864349717,0.5968140709282048,0.2656762996442185,0.7693198668523215,0.9467784724050342,0.6100948871850367,0.507942183052488,0.8529141758706191,0.2364814958558094,0.1960132890380919,0.2610556348226964,0.4644318604555035,0.1787688223014272,0.0376811594202898,0.0054127200748552,0.0533333333333334,0.6271186440677966,0.0071341833636915,0.931254442913399,0.140008381183907,0.2825075941868619,0.7988020586383786,0.3410003988326808,0.6390493602605822,0.6966967963250041,0.5296890923819241,0.7195993727265637,0.4126936406979976,0.608497886574851,0.1833747960298983,0.1324014650421726,0.6852646373959157,0.7475862140738951,0.8664658247652581,2
347525029,0.7315414157762081,0.9022427420248964,0.424521363035071,0.4841269841267603,0.5868787784000946,0.5432236332652376,0.4230471123942674,0.5956360825246738,0.2666809167432286,0.7707099850221165,0.9464118803409056,0.6206553735153084,0.514614015691433,0.8529141758706191,0.2330615832253062,0.1960132890380919,0.2610556348226964,0.4644318604555035,0.1787688223014272,0.0376811594202898,0.0054127200748552,0.0533333333333334,0.6271186440677966,0.0071341833636915,0.931254442913399,0.140342742602512,0.2847246653132065,0.7970396595250778,0.3463806470965676,0.6540862312979706,0.6973252909894934,0.5299630756109973,0.4011581694816941,0.6579399477259797,0.5652722365781052,0.1841191580422282,0.1254449986272351,0.6809727972533924,0.7531034566985894,0.8674698670521093,2
347725029,0.7594034070567605,0.9188717984536218,0.4160002889931083,0.4603174603171283,0.584672904021082,0.5600444080946266,0.4232183718742309,0.5943884402716687,0.295762339915453,0.7735808636337936,0.9460868212505164,0.6199960894446385,0.5095722307360367,0.8529141758706191,0.2439142935263721,0.1960132890380919,0.2610556348226964,0.4644318604555035,0.1787688223014272,0.0376811594202898,0.0054127200748552,0.0533333333333334,0.6271186440677966,0.0071341833636915,0.931254442913399,0.1407096479601568,0.287223056927671,0.7951472683585161,0.3514781435908068,0.6570174389935847,0.697440753175678,0.5302264721353593,0.4584343870646057,0.5585042876534551,0.6690897854221747,0.1848997078685412,0.1188351975073024,0.7010014103586474,0.7489655223540075,0.87650597799121,2
347925029,0.7552661695592155,0.9037542313636786,0.4089216025800293,0.5314285714284779,0.590235801594193,0.5132331649176402,0.424047005250105,0.5938410471520319,0.2717103691663183,0.7714425342191857,0.9458529694374228,0.6092973630973798,0.5036855110485281,0.8529141758706191,0.2446450398356857,0.1960132890380919,0.2610556348226964,0.4644318604555035,0.1787688223014272,0.0376811594202898,0.0054127200748552,0.0533333333333334,0.6271186440677966,0.0071341833636915,0.931254442913399,0.1409286495264008,0.2892158937011332,0.7927422865567718,0.357733673419729,0.6569708293588139,0.6926513318130357,0.5256488847832298,0.6904742480419761,0.4084066518645073,0.687159977541061,0.1851780824085549,0.1073336696960996,0.6866952588309693,0.7489655223540075,0.872489937394328,2
348125029,0.7452386047763757,0.914299237447562,0.400516616523066,0.4365079365074962,0.5806698674100532,0.5222426132206852,0.4223257395303705,0.5933135329729771,0.300081552939849,0.7758607205865523,0.9457418490905262,0.6104035561607549,0.4424591801132409,0.8529141758706191,0.2561798687816903,0.1960132890380919,0.2610556348226964,0.4644318604555035,0.1787688223014272,0.0376811594202898,0.0054127200748552,0.0533333333333334,0.6271186440677966,0.0071341833636915,0.931254442913399,0.140898167863712,0.2893834974909641,0.7909764849132481,0.3546438123067435,0.6581993578521458,0.6802539525674484,0.5154751290741376,0.426936564594266,0.3429634092414956,0.6378976689897515,0.1856731165160661,0.0931355478088789,0.7095850954762213,0.7517241436663545,0.87650597799121,2
348325029,0.749553607322448,0.910368931658866,0.3930182932662001,0.5711111111108949,0.5879535255902771,0.5186841055237605,0.4216718722368437,0.5933040224922597,0.3065686140169507,0.7772402988747663,0.9457129490145862,0.6217805312244735,0.4318712705655127,0.8529141758706191,0.2327575258438016,0.1953488372091669,0.2653352355118841,0.4632745008886867,0.1770535375401622,0.0376811594202898,0.0054127200748552,0.0533333333333334,0.3389830508474576,0.0053126900425015,0.931254442913399,0.1407388562904714,0.2886343816847422,0.791064914176382,0.3472601766743918,0.6565106022507652,0.6981066965071056,0.5405760834818729,0.2616166929757749,0.7014329338808551,0.6927800600864535,0.1857072014062345,0.0805622449811446,0.7067238690367077,0.7544827649787016,0.8805220593480138,2
348525029,0.7454555709382147,0.9115978174647096,0.3848952989983275,0.5076190476188458,0.572160340872221,0.6134608416817261,0.4225169228691182,0.5929646481134506,0.296324177107641,0.7720474314438043,0.9456285884273056,0.5989229375890492,0.4935293698923642,0.8529141758706191,0.2341388957787045,0.1953488372091669,0.2653352355118841,0.4632745008886867,0.1770535375401622,0.0376811594202898,0.0054127200748552,0.0533333333333334,0.3389830508474576,0.0053126900425015,0.931254442913399,0.1399274912220585,0.2867895937687236,0.7927393834986385,0.3399610053129298,0.6495099844299814,0.6963694672362092,0.5458597342511055,0.3409466484985882,0.6813498484472876,0.622548535921002,0.1858371445736376,0.069591811177923,0.6995707889235938,0.7517241436663545,0.8785140374818834,2
348725029,0.7815821169321209,0.915527941616033,0.3771878833348688,0.5711111111108949,0.5811374211901132,0.5945004042971145,0.4214092960319628,0.5930982432224263,0.2909246495368931,0.7547668877195662,0.9454151915360468,0.5854993738205311,0.5312172194604969,0.8529141758706191,0.2264534386617149,0.1953488372091669,0.2653352355118841,0.4632745008886867,0.1770535375401622,0.0376811594202898,0.0054127200748552,0.0533333333333334,0.3389830508474576,0.0053126900425015,0.931254442913399,0.1392655237176492,0.2859102518094631,0.7933790917548194,0.3308111453772215,0.6557223014040575,0.6897993922225238,0.5435811432181927,0.4143576561395767,0.5528097497046564,0.562415228791918,0.1858626863358078,0.0610749232325771,0.6895564872034938,0.7282758677387391,0.8845381469755746,2
348925029,0.7771024297090038,0.9073911080320484,0.3717692774462123,0.603174603174466,0.6032786859263202,0.5815642652546125,0.4205362813616995,0.5942911590089184,0.2459045579011921,0.7613107750142125,0.9456551256404676,0.6154903064373379,0.561877762594426,0.8529141758706191,0.2358353234904269,0.1953488372091669,0.2653352355118841,0.4632745008886867,0.1770535375401622,0.0376811594202898,0.0054127200748552,0.0533333333333334,0.3389830508474576,0.0053126900425015,0.931254442913399,0.1386935596382313,0.2865618187108046,0.7936221461265416,0.335433913764727,0.6726320366074129,0.6789861278834357,0.536145224866553,0.64329410886577,0.2292908234862564,0.649333365606142,0.1851760963138407,0.0564104439622144,0.6695278740982389,0.7489655223540075,0.8755019858704164,2
349125029,0.7550309148779826,0.9172817739587322,0.3681636248422115,0.5238095238091773,0.5995064493304114,0.4163400790383175,0.4220917889033816,0.5956163490042863,0.2890639834852258,0.7858673662409978,0.946373445600833,0.6500443677785077,0.424420236109936,0.8529141758706191,0.2215881574639079,0.1953488372091669,0.2653352355118841,0.4632745008886867,0.1770535375401622,0.0376811594202898,0.0054127200748552,0.0533333333333334,0.3389830508474576,0.0053126900425015,0.931254442913399,0.138950990317518,0.2881903312246869,0.795101768030513,0.3429677619280723,0.6824490690163385,0.6910636833286177,0.5551842105891152,0.4374655325318213,0.5898140059099939,0.6881275731789779,0.1842038591403331,0.0546360257305411,0.7081544861224864,0.7655172502280899,0.8835341046887235,2
349325029,0.7776198444035811,0.9171469602792004,0.363350255093436,0.6111111111108585,0.573631114569467,0.475614538357697,0.4214662169968489,0.5961671279907841,0.3257172369267611,0.7812165636086791,0.946483818965721,0.6106438597736668,0.3853344237190129,0.8529141758706191,0.2384311209306,0.1960132890380919,0.2681883024051785,0.4624891497540611,0.1734324401150714,0.0376811594202898,0.0054127200748552,0.0533333333333334,0.3728813559322034,0.0034911961141469,0.931254442913399,0.1397792770740198,0.287751724991084,0.7972467410482608,0.3430373446075899,0.6650133551687969,0.6780080293675115,0.5486005473339183,0.5396041483006077,0.5027203923598974,0.6174158530817375,0.1838916917829033,0.0509448045550325,0.7195994020288488,0.7475862140738951,0.8905622251154799,2
349525029,0.7483030918078073,0.9261324884305472,0.3599636729524681,0.5473015873017175,0.5454100190955007,0.6200749711531957,0.4229451681076823,0.5971188353007336,0.3478298472420937,0.7711923176934696,0.9465219247240804,0.562242472065503,0.4496411420358217,0.8529141758706191,0.2350751934845815,0.1960132890380919,0.2681883024051785,0.4624891497540611,0.1734324401150714,0.0376811594202898,0.0054127200748552,0.0533333333333334,0.3728813559322034,0.0034911961141469,0.931254442913399,0.1398797891167601,0.2847877740572123,0.7990511846559962,0.3200336178326158,0.6467145587462477,0.6774363221260028,0.5529453752579523,0.4060801826374075,0.4686497752544629,0.608324798598379,0.1835227892933805,0.0473030032376786,0.7195994020288488,0.7379310394806804,0.8925702657938818,2
349725029,0.8016134458218613,0.9308203552623568,0.3567250490066211,0.55523809523811,0.5950744196807438,0.8238560656804002,0.4236752394756182,0.5981201018129534,0.273864768742515,0.7431016011821844,0.9464362714321838,0.5734607598736253,0.6520055141228558,0.8529141758706191,0.2211776194832546,0.1960132890380919,0.2681883024051785,0.4624891497540611,0.1734324401150714,0.0376811594202898,0.0054127200748552,0.0533333333333334,0.3728813559322034,0.0034911961141469,0.931254442913399,0.1388987082764135,0.281920645205835,0.8010902557713654,0.3007777697350098,0.656308926674981,0.6864824280743973,0.5669777338411354,0.483327607670336,0.5504589794674174,0.7293828847745922,0.182674084290368,0.0443975126155809,0.6752503356758157,0.7241379352950063,0.8865461688417049,2
349925029,0.7814364327946914,0.9094133495525012,0.355537660290265,0.515555555555693,0.5966192732354496,0.5013895915666575,0.4215843271508998,0.5997206643358809,0.2042804273453955,0.7417155750866617,0.9460727079350062,0.5965307902145052,0.5963854175126674,0.8529141758706191,0.229558441442475,0.1960132890380919,0.2681883024051785,0.4624891497540611,0.1734324401150714,0.0376811594202898,0.0054127200748552,0.0533333333333334,0.3728813559322034,0.0034911961141469,0.931254442913399,0.1382473248035154,0.2834059477949729,0.8029490372043729,0.3122451961671985,0.6990494528483033,0.6814307390106711,0.5645921681330424,0.515483075770302,0.4004024655230218,0.7438789421645371,0.1812732449568111,0.040807164762563,0.6480686395579305,0.7393103453847315,0.8744979592604583,2
350125029,0.7992365863190516,0.9083347044936748,0.3563708280030023,0.4761904761903679,0.636398979346011,0.2951424451846945,0.4212158571561989,0.6001216726404397,0.2760929587675553,0.7772180030901252,0.9477174036321172,0.6643158352451707,0.3890066345478997,0.8529141758706191,0.2374973514329372,0.1960132890380919,0.2681883024051785,0.4624891497540611,0.1734324401150714,0.0376811594202898,0.0054127200748552,0.0533333333333334,0.3728813559322034,0.0034911961141469,0.931254442913399,0.1392184916346251,0.2891381506172765,0.8043442157509372,0.3379191991800671,0.7276355971253735,0.6723806600555557,0.5573929260086873,0.6157904620669554,0.3726365587872292,0.6684970214988062,0.1813083959125249,0.0388014641770829,0.6967095605510691,0.7572413862910488,0.8865461688417049,2
350325029,0.7498047344544585,0.9240647140536128,0.3573144989676567,0.5076190476188458,0.5714269276517666,0.562813028268632,0.4220175527722201,0.6012392098691359,0.3191888106423935,0.8055951144577461,0.947558337103254,0.6432680586192984,0.4164066338865679,0.8529141758706191,0.2509023686137257,0.1933554817223921,0.2738944366574287,0.4638531806720951,0.168667813162968,0.0376811594202898,0.0054127200748552,0.0533333333333334,0.1016949152542373,0.0069823925318761,0.931254442913399,0.1409040298334802,0.2918668767239605,0.80628165910256,0.3490113099123161,0.7022994475158413,0.6606534563981475,0.5497344127393017,0.6872654291874747,0.3232487826669519,0.6838632904796373,0.1801682461138428,0.0371588268539117,0.725321868438953,0.7724138011328964,0.8885541907078353,2
350525029,0.7635221960303673,0.9190037180443554,0.3577947860127149,0.6587301587301226,0.5652002991612455,0.6887589418015123,0.4200521512563085,0.6012722129822674,0.2771915860960806,0.7750712399295654,0.9482415798722114,0.5973694789366351,0.5564262447013539,0.8529141758706191,0.2306918721494788,0.1933554817223921,0.2738944366574287,0.4638531806720951,0.168667813162968,0.0376811594202898,0.0054127200748552,0.0533333333333334,0.1016949152542373,0.0069823925318761,0.931254442913399,0.1422206758121021,0.2876409893396108,0.8086854435532278,0.3487172915795082,0.6708605304413467,0.6591648069452128,0.5549664383911368,0.3411427478855171,0.5118083446388983,0.6199792991699892,0.1806351536153281,0.0357255379893048,0.6938483370110721,0.7503448306341198,0.8835341046887235,2
350725029,0.7704632411560488,0.9125446325405726,0.3623591511291378,0.5234920634920854,0.5795949249099291,0.4446707959607521,0.4191613223450728,0.6030714873535776,0.2951012781284066,0.7674663536089095,0.9488373444683554,0.596673926184334,0.4309762711576175,0.8529141758706191,0.231048403299344,0.1933554817223921,0.2738944366574287,0.4638531806720951,0.168667813162968,0.0376811594202898,0.0054127200748552,0.0533333333333334,0.1016949152542373,0.0069823925318761,0.931254442913399,0.1430667805202548,0.2814300109768762,0.8120234638957982,0.3500429952825076,0.6645040708226979,0.6659104222287031,0.5691788693616411,0.4825547353582535,0.5405073710938617,0.6193890982103105,0.1794532958276482,0.0350980575042174,0.7081544861224864,0.7365517288245069,0.8885541907078353,2
350925029,0.7561410744065132,0.91252571803554,0.367806201924959,0.5869841269841345,0.5898885715470987,0.561960571262041,0.4202157689140195,0.6042491752220402,0.3047169724296767,0.7734114792860769,0.9492461023122252,0.6203657738918922,0.4565967881193097,0.8529141758706191,0.2435438572313291,0.1933554817223921,0.2738944366574287,0.4638531806720951,0.168667813162968,0.0376811594202898,0.0054127200748552,0.0533333333333334,0.1016949152542373,0.0069823925318761,0.931254442913399,0.1433055665970327,0.2778272820546293,0.8155414827265277,0.3419742696945234,0.6588195961898907,0.6551839739844045,0.5634694875843299,0.3961662279273824,0.3054187792485967,0.6271977587456516,0.1786600408366192,0.0338863510147268,0.7138769452837995,0.7489655223540075,0.8855421265548539,2
351125029,0.761702712357031,0.9140087024160336,0.3734149121277292,0.5473015873017175,0.5865253614431002,0.535648416661851,0.4210441587230575,0.6053623522685727,0.3113366950434444,0.7748965412244353,0.94957389582121,0.6132941833758065,0.4496651233618891,0.8529141758706191,0.2546460398227219,0.1933554817223921,0.2738944366574287,0.4638531806720951,0.168667813162968,0.0376811594202898,0.0054127200748552,0.0533333333333334,0.1016949152542373,0.0069823925318761,0.931254442913399,0.1428020666118301,0.2761737285196717,0.8173771008946058,0.3285771291004314,0.6538362592187547,0.6509944133796077,0.5612124567559327,0.2191929599622229,0.5578141369575015,0.6432289728372447,0.1778591335394855,0.0326434302843244,0.7224606400664284,0.7434482797293134,0.8885541907078353,2
351325029,0.7580455684941453,0.9171368854596184,0.3786998120600903,0.5234920634920854,0.5944170344595973,0.576977436144939,0.4220500639193615,0.6056467044931397,0.3053799691713605,0.7771418847597283,0.949681321896982,0.6142244243203453,0.4620317038578282,0.8529141758706191,0.224524093044302,0.1999999999825377,0.2738944366574287,0.461497127268218,0.1654278477770299,0.0376811594202898,0.0054127200748552,0.0533333333333334,0.2372881355932203,0.0036429872495446,0.931254442913399,0.1419275222136342,0.2741010487799984,0.8192905626762353,0.3189098466891673,0.6451674298690069,0.6619678436839287,0.5743469966007491,0.2453933402109752,0.6643314666297,0.739682176422512,0.177623387017639,0.031256639986453,0.7210300186313748,0.7462068962895381,0.8855421265548539,2
351525029,0.7618129154867999,0.9137607674028824,0.3823901738954798,0.4920634920631528,0.6046695292642779,0.5722960722587188,0.4217487093813188,0.6051319509361484,0.285844398336632,0.777927200848314,0.9495246666105605,0.6433326924074297,0.486848456516583,0.8529141758706191,0.2479692570956987,0.1999999999825377,0.2738944366574287,0.461497127268218,0.1654278477770299,0.0376811594202898,0.0054127200748552,0.0533333333333334,0.2372881355932203,0.0036429872495446,0.931254442913399,0.1413890186405232,0.2728309823558793,0.8202720431000585,0.3181415659718942,0.6397546469051681,0.6496934648376693,0.5608390108770908,0.3955260052891448,0.7248397500825967,0.6264832131675668,0.1779893979869161,0.0304180518120569,0.7138769452837995,0.7475862140738951,0.8805220593480138,2
351725029,0.7246118589767949,0.914039895607432,0.3851830616782696,0.5473015873017175,0.5660909405132996,0.5518064199410366,0.4212086735585524,0.6043949032225733,0.27994846790388,0.7816298938542984,0.9492378061674848,0.6009223128509008,0.4860020933345206,0.8529141758706191,0.2482755064875167,0.1999999999825377,0.2738944366574287,0.461497127268218,0.1654278477770299,0.0376811594202898,0.0054127200748552,0.0533333333333334,0.2372881355932203,0.0036429872495446,0.931254442913399,0.1415555786365499,0.271111603324619,0.8206582613739813,0.3273223853966918,0.6306239576417212,0.6489950882903978,0.5583997858921046,0.5401014458802544,0.6664184662219419,0.6092241442926936,0.1784902005312809,0.0297969465209509,0.7095850954762213,0.7531034566985894,0.879518029602677,2
351925029,0.7365689985595592,0.915349573716462,0.3881451296418925,0.5711111111108949,0.5750317134189478,0.5485411844336131,0.4205964720510108,0.6038045481301546,0.2901812185926475,0.7718764571961788,0.949122832864167,0.6083192864810074,0.4796037986815427,0.8529141758706191,0.2373466540858723,0.1999999999825377,0.2738944366574287,0.461497127268218,0.1654278477770299,0.0376811594202898,0.0054127200748552,0.0533333333333334,0.2372881355932203,0.0036429872495446,0.931254442913399,0.1420080786146103,0.2700111786407825,0.821022313352956,0.3356741707480306,0.6230832666545503,0.6652070768953426,0.5727989294692706,0.752353901008682,0.3151391096506589,0.6056914509531611,0.178849639863636,0.0292437410806799,0.7124463286812734,0.7434482797293134,0.8805220593480138,2
352125029,0.7494520044369261,0.9157427338633236,0.3929362349214474,0.5,0.5901616505533496,0.5538031087983115,0.4192995157361965,0.6043358844366538,0.2905067201615036,0.7702287804199451,0.9492805079939004,0.6163622051422669,0.484189765989759,0.8529141758706191,0.2351519003976334,0.1999999999825377,0.2738944366574287,0.461497127268218,0.1654278477770299,0.0376811594202898,0.0054127200748552,0.0533333333333334,0.2372881355932203,0.0036429872495446,0.931254442913399,0.1425359720514461,0.2698556918323204,0.8216870416072688,0.3307821153856378,0.6290653127011593,0.6569744171758578,0.5618950691828948,0.4741461750443358,0.4499210841105647,0.6153061132516904,0.1786510742031302,0.028579623404864,0.7110157169112749,0.7434482797293134,0.879518029602677,2
352325029,0.7348130286900149,0.91320063407427,0.3991972047166497,0.4682539682539754,0.5804869137205623,0.544452044197736,0.418594663766086,0.6053590366881391,0.2875618401737589,0.7728409023413961,0.9496154829801728,0.6156772995728063,0.4802506764129667,0.8529141758706191,0.252736287818969,0.1999999999825377,0.2582025676965713,0.454015624354152,0.1578044637121723,0.0376811594202898,0.0054127200748552,0.0533333333333334,0.1525423728813559,0.00197328476017,0.931254442913399,0.1427283351563585,0.2707724644681105,0.8213436338165979,0.329314708762173,0.633170497899909,0.6539373510271548,0.5560898654407116,0.4620292067862771,0.4035207698217625,0.5824771000569158,0.1780148813345357,0.0279833248812249,0.7138769452837995,0.7462068962895381,0.8775100077365467,2
352525029,0.7423517547898361,0.9132183255543294,0.4064258225972056,0.4444444444443434,0.5945133985436504,0.5571024343460018,0.4195843888806587,0.6064096830510559,0.2869851759151466,0.7757768195607129,0.949944714332764,0.6308583267335711,0.4815333226602108,0.8529141758706191,0.2514567186084354,0.1999999999825377,0.2582025676965713,0.454015624354152,0.1578044637121723,0.0376811594202898,0.0054127200748552,0.0533333333333334,0.1525423728813559,0.00197328476017,0.931254442913399,0.1430644368925592,0.2716672016204729,0.8206466264381711,0.3257346472932746,0.639050112173042,0.6491780734433351,0.5488404359122203,0.0815914095776295,0.7831427744765531,0.578274460011314,0.1773330959093403,0.0274860436109428,0.7138769452837995,0.7462068962895381,0.8744979592604583,2
352725029,0.727653145349328,0.9087983738466208,0.4149428383997952,0.4838095238096684,0.5742410733714207,0.5454729836857294,0.4193914016355501,0.6075432528561908,0.2856924897087746,0.7738939717792737,0.950294251597826,0.6111858237307465,0.4773592643438846,0.8529141758706191,0.2526006924816089,0.1999999999825377,0.2582025676965713,0.454015624354152,0.1578044637121723,0.0376811594202898,0.0054127200748552,0.0533333333333334,0.1525423728813559,0.00197328476017,0.931254442913399,0.1433862796265924,0.2723572382788339,0.8193710694828653,0.3350610382184151,0.6318556014999828,0.6530250776495321,0.5500199033000785,0.4429217303229765,0.2384560717423404,0.6405147162946351,0.1764799075895833,0.0271947053158579,0.7153075618863255,0.7434482797293134,0.8734939483273931,2
352925029,0.728848379293972,0.9055813095822044,0.4247022264775115,0.3885714285715949,0.5920486801803361,0.5436920719275055,0.4187087672282371,0.6086566868117333,0.2901751280477455,0.7735583058392824,0.9506502175526076,0.6172315807815919,0.4690331272047455,0.8529141758706191,0.2556132811833908,0.1999999999825377,0.2582025676965713,0.454015624354152,0.1578044637121723,0.0376811594202898,0.0054127200748552,0.0533333333333334,0.1525423728813559,0.00197328476017,0.931254442913399,0.1436284709247993,0.2728216882205208,0.8176845980239739,0.337216445529741,0.6370082424003556,0.6438861791153898,0.5366821177775423,0.4906162619114231,0.6897675943067576,0.5473350569844405,0.1758650506355286,0.0272347964091485,0.7167381736563241,0.742068971449201,0.8694778889182395,2
353125029,0.7022657843482756,0.903368564363881,0.43423347448567,0.4996825396824533,0.5807319662357501,0.5540867170139906,0.4204176222918153,0.6092667996612386,0.2884057713380016,0.7750201993889351,0.9508378725923762,0.6099491059705942,0.4780940354989174,0.8529141758706191,0.2504607121553722,0.1999999999825377,0.2582025676965713,0.454015624354152,0.1578044637121723,0.0376811594202898,0.0054127200748552,0.0533333333333334,0.1525423728813559,0.00197328476017,0.931254442913399,0.1439513462472726,0.2731454711689302,0.8157228819081555,0.3363977655401611,0.6302275847278134,0.6489895857084956,0.5391261529627093,0.3515580085671851,0.3723912414189512,0.626530541323034,0.1753198822401217,0.0264181421299949,0.7195994020288488,0.7434482797293134,0.8664658247652581,2
353325029,0.6962388611836576,0.9018920026808708,0.4428630040440864,0.4047619047614716,0.5860106088205607,0.5467737126777785,0.4209709379938552,0.6092252773483819,0.2913950970769562,0.7737407874120854,0.950828142474402,0.6111628150368219,0.4722667133484377,0.8529141758706191,0.2486405636161467,0.2026578072982374,0.2738944366574287,0.4527342619766048,0.1507527967645515,0.0376811594202898,0.0054127200748552,0.0533333333333334,0.3050847457627118,0.0139647844565877,0.931254442913399,0.1441586151723923,0.2733085014240921,0.8142346682945639,0.3386733499511913,0.6298742855223226,0.6612683082890198,0.5496083290744187,0.5096148192964186,0.5283491558849046,0.652800369205615,0.1752996708056774,0.02590417237724,0.7195994020288488,0.7393103453847315,0.8664658247652581,2
353525029,0.6868632669167805,0.8991903744204981,0.4506624486624269,0.4682539682539754,0.5813865478480782,0.5437542406748701,0.4210179054169037,0.6087970294177318,0.2927308161722019,0.7728409011733973,0.9506931206384246,0.6099659095992401,0.4752901669863315,0.8529141758706191,0.2486187376484252,0.2026578072982374,0.2738944366574287,0.4527342619766048,0.1507527967645515,0.0376811594202898,0.0054127200748552,0.0533333333333334,0.3050847457627118,0.0139647844565877,0.931254442913399,0.1442882311263914,0.2733307748387973,0.8142576124235174,0.3389866061332512,0.628329509991236,0.677254278050677,0.565053818874289,0.6731879396928158,0.5062238564503819,0.5850765315605386,0.1755262024321955,0.0253077608754798,0.7238912518364269,0.7379310394806804,0.8674698670521093,2
353725029,0.6895835841737905,0.896855062725197,0.4582141321823143,0.4126984126983188,0.5835688246770058,0.5559736967041258,0.4212729840391732,0.6083254196087653,0.2905518717761763,0.7725696979641338,0.9505454097842376,0.6144091806308337,0.4784534330738698,0.8529141758706191,0.2601031369093062,0.2026578072982374,0.2738944366574287,0.4527342619766048,0.1507527967645515,0.0376811594202898,0.0054127200748552,0.0533333333333334,0.3050847457627118,0.0139647844565877,0.931254442913399,0.1444279119171523,0.2739554466491936,0.8140421060104438,0.3322166881546591,0.6293443815953743,0.6708620252255671,0.5558802320948786,0.3210151982101294,0.4672110221229353,0.6841030280581678,0.1759068900572649,0.0257669846586525,0.7210300186313748,0.7379310394806804,0.8644578028991279,2
353925029,0.6924213447661914,0.8968432684051575,0.464511037873322,0.5076190476188458,0.5893139877442192,0.5419464351397454,0.4217011493262614,0.6074398881819723,0.2946369630406337,0.7728987073793709,0.9502693844506565,0.6155657086077031,0.4714195557698962,0.8529141758706191,0.2555241483959244,0.2026578072982374,0.2738944366574287,0.4527342619766048,0.1507527967645515,0.0376811594202898,0.0054127200748552,0.0533333333333334,0.3050847457627118,0.0139647844565877,0.931254442913399,0.1446210987723934,0.2746562712483773,0.8131013424329119,0.3333317960753985,0.6320212255231807,0.6733221815031448,0.5558848655174008,0.5633146638364409,0.6272847831486325,0.5786943264501678,0.1763431591270563,0.0252348899873124,0.725321868438953,0.7393103453847315,0.8664658247652581,2
354125029,0.6907541774186388,0.8942527077651817,0.4705988734966693,0.515555555555693,0.5854760925287632,0.5571555212768747,0.4207211304087822,0.606914928551,0.2896051540768155,0.7733512532674794,0.950106344983806,0.6157359418439476,0.4775601125437593,0.8529141758706191,0.243362928969022,0.2026578072982374,0.2738944366574287,0.4527342619766048,0.1507527967645515,0.0376811594202898,0.0054127200748552,0.0533333333333334,0.3050847457627118,0.0139647844565877,0.931254442913399,0.1441715457321284,0.2755286014967629,0.8126201129197813,0.3294508422362684,0.629249118204689,0.6839685852634566,0.5638400905875749,0.4303158603090093,0.4171364003501825,0.6763822719289273,0.1768312565067055,0.0251502532348097,0.7238912518364269,0.7379310394806804,0.8614457606937966,2
354325029,0.6946886091565001,0.8952665591405714,0.4766700740617428,0.55523809523811,0.5845080320717948,0.5504537169677105,0.4214453299489372,0.6064058560762718,0.2921346702885378,0.7739177112735169,0.9499486505022068,0.6153967631651998,0.4778834633139622,0.8529141758706191,0.2442229769909921,0.2026578072982374,0.2796005706768483,0.453478278840987,0.1480846247298813,0.0376811594202898,0.0054127200748552,0.0533333333333334,0.3050847457627118,0.0051608986035215,0.931254442913399,0.1441474684381918,0.2763526825996898,0.8123567025926609,0.3289870035857113,0.6297817982222824,0.671166960296708,0.5483947686267061,0.4374265385845306,0.5200698530604602,0.5124896504553818,0.177082687335339,0.0256340094100123,0.7267524782759406,0.7379310394806804,0.8614457606937966,2
354525029,0.7052219483033318,0.8943875892559993,0.4817188216941506,0.5314285714284779,0.5885375418848766,0.5392616647892542,0.4204401732163874,0.6057531569228205,0.2932330988888753,0.7730223756084579,0.949741221726269,0.6184048632176037,0.4753459255687358,0.8529141758706191,0.2402018483784045,0.2026578072982374,0.2796005706768483,0.453478278840987,0.1480846247298813,0.0376811594202898,0.0054127200748552,0.0533333333333334,0.3050847457627118,0.0051608986035215,0.931254442913399,0.1442958247121674,0.2773925294249155,0.8115508300406836,0.3282767864555154,0.6289592503846404,0.6817578581069412,0.5575555944209452,0.5219924415646863,0.45697294849596,0.6801736536393075,0.1775741289479996,0.0254672859825996,0.7281830992277414,0.7365517288245069,0.8624497716268618,2
354725029,0.6942213958876433,0.8944306639533757,0.4863257350303482,0.4523809523807358,0.582187532788509,0.5616112084296605,0.4217321342625085,0.604968922779815,0.2907026971684507,0.7754300692239892,0.9494954259417876,0.6162797857406063,0.4800062965168954,0.8529141758706191,0.2617210691351446,0.2026578072982374,0.2796005706768483,0.453478278840987,0.1480846247298813,0.0376811594202898,0.0054127200748552,0.0533333333333334,0.3050847457627118,0.0051608986035215,0.931254442913399,0.1443400664859796,0.2777733925424819,0.8106110565234401,0.3258670626059958,0.6280937806259411,0.671748430894374,0.5454615829632654,0.3829228954500782,0.5622331100560006,0.6288566530424874,0.1779741517892572,0.0253182355612872,0.7281830992277414,0.7379310394806804,0.8594377168800161,2
354925029,0.7003970912773924,0.89259514807345,0.4904362921828328,0.4679365079364288,0.5859440954109525,0.5492487727661838,0.419687644139134,0.6043854557572736,0.2906778554967987,0.773132406454537,0.9493118038307896,0.6176614427672479,0.474248279012216,0.8529141758706191,0.2540128043525632,0.2026578072982374,0.2796005706768483,0.453478278840987,0.1480846247298813,0.0376811594202898,0.0054127200748552,0.0533333333333334,0.3050847457627118,0.0051608986035215,0.931254442913399,0.1444937771370913,0.2783052466210377,0.8088335577568696,0.3281814138782117,0.6242432301521301,0.6645076371636951,0.5361262522255377,0.5353948435330229,0.3982514049074031,0.6147944079427735,0.1785067464526866,0.0254707883043565,0.7296137163135201,0.7365517288245069,0.8594377168800161,2
355125029,0.6932852092999441,0.8906335225768715,0.4951079586375392,0.4838095238096684,0.5852124331381888,0.5421848134293255,0.4210228266090652,0.6040118761250589,0.2895420875118351,0.774885894774634,0.949194717303759,0.616643353328182,0.475484548951892,0.8529141758706191,0.263442792376925,0.2026578072982374,0.2796005706768483,0.453478278840987,0.1480846247298813,0.0376811594202898,0.0054127200748552,0.0533333333333334,0.3050847457627118,0.0051608986035215,0.931254442913399,0.1446430760830979,0.279230813601234,0.8071239378395336,0.3268351114921883,0.6261256647551177,0.6679406506993258,0.5391212793445344,0.395676692260174,0.5154433106569846,0.6830375967128164,0.1786627279059384,0.0261782734389776,0.7267524782759406,0.7379310394806804,0.8594377168800161,2
355325029,0.6951957435591172,0.8918629024363675,0.4977570581592426,0.4523809523807358,0.5850299861710363,0.5496890973548125,0.4212776237559846,0.6031812505163522,0.2941315787749158,0.7748600287154709,0.9489326040262868,0.6185957403383532,0.4761147621746267,0.8529141758706191,0.2555213915731377,0.2026578072982374,0.2824536378029734,0.4557516637043772,0.145988169812448,0.0376811594202898,0.0054127200748552,0.0533333333333334,0.2711864406779661,0.0036429872495446,0.931254442913399,0.1448001078402881,0.2800880765061687,0.8066201185659876,0.3273566050311193,0.6261124119978432,0.6826437569419379,0.5536717571989831,0.4034154410289658,0.5106612285157218,0.5774751540853843,0.1791439469722757,0.0258326733662586,0.7310443251840023,0.7379310394806804,0.8594377168800161,2
355525029,0.6921756177875452,0.8914404768760852,0.4991657512318643,0.515555555555693,0.586876815830763,0.5423612957395891,0.4222059467456465,0.6020139117183949,0.2932495781242449,0.7752268217768423,0.948561917107418,0.6193480352718339,0.4729382666312741,0.8529141758706191,0.2267803843963076,0.2026578072982374,0.2824536378029734,0.4557516637043772,0.145988169812448,0.0376811594202898,0.0054127200748552,0.0533333333333334,0.2711864406779661,0.0036429872495446,0.931254442913399,0.1448811138233097,0.2806033319947385,0.8065119285681471,0.3259675834450801,0.6255800283636899,0.7019249128121405,0.5717862887076681,0.4109947748764146,0.5474691725752804,0.6746185171416629,0.1798845558497412,0.0255156083390055,0.7324749451692976,0.7379310394806804,0.8594377168800161,2
